id,行业类型,名称,类型,地址,联系电话,lng,lat,省份代码,省份名称,城市代码,城市名称,区域代码,区域名称,所在商圈,rating
BV09044159,,西新镇(公交站),交通设施服务;公交车站;公交车站相关,南建专线,,121.2567991,31.78121358,,上海市,,上海市,,崇明区,,"{'cost': , 'rating': }"
BV11366338,,新海水闸(红绿灯路口)(公交站),交通设施服务;公交车站;公交车站相关,南牛线区间,,121.2485037,31.78153599,,上海市,,上海市,,崇明区,,"{'cost': , 'rating': }"
BV10323241,,新海水闸(公交站),交通设施服务;公交车站;公交车站相关,南建专线;南牛线;南牛线区间,,121.2439783,31.78280537,,上海市,,上海市,,崇明区,,"{'cost': , 'rating': }"
BV11566613,,新海水闸(招呼站)(公交站),交通设施服务;公交车站;公交车站相关,南牛线,,121.2435513,31.78285035,,上海市,,上海市,,崇明区,,"{'cost': , 'rating': }"
BV11566616,,新建路(招呼站)(公交站),交通设施服务;公交车站;公交车站相关,南牛线;南牛线区间,,121.2487647,31.78071583,,上海市,,上海市,,崇明区,,"{'cost': , 'rating': }"
BV10027554,,实验站(公交站),交通设施服务;公交车站;公交车站相关,南跃线,,121.2558726,31.81619257,,上海市,,上海市,,崇明区,,"{'cost': , 'rating': }"
BV10323240,,新东(公交站),交通设施服务;公交车站;公交车站相关,南建专线,,121.2643083,31.78034211,,上海市,,上海市,,崇明区,,"{'cost': , 'rating': }"
BV10386247,,招呼站(公交站),交通设施服务;公交车站;公交车站相关,南跃线,,121.2441705,31.81507455,,上海市,,上海市,,崇明区,,"{'cost': , 'rating': }"
BV10027445,,育新村(公交站),交通设施服务;公交车站;公交车站相关,南建专线,,121.2365395,31.7834791,,上海市,,上海市,,崇明区,,"{'cost': , 'rating': }"
BV11341071,,育新村(招呼站)(公交站),交通设施服务;公交车站;公交车站相关,南牛线;南牛线区间,,121.2365395,31.7834791,,上海市,,上海市,,崇明区,,"{'cost': , 'rating': }"
BV11453308,,实验站(招呼站)(公交站),交通设施服务;公交车站;公交车站相关,南跃线,,121.2651094,31.81705141,,上海市,,上海市,,崇明区,,"{'cost': , 'rating': }"
BV10925570,,仓望港(招呼站)(公交站),交通设施服务;公交车站;公交车站相关,南跃线,,121.2653612,31.81707722,,上海市,,上海市,,崇明区,,"{'cost': , 'rating': }"
BV10027555,,黄浦码头(公交站),交通设施服务;公交车站;公交车站相关,南跃线,,121.237455,31.81439234,,上海市,,上海市,,崇明区,,"{'cost': , 'rating': }"
BV10385588,,西新镇(公交站),交通设施服务;公交车站;公交车站相关,南牛线;南牛线区间,,121.2508917,31.77286732,,上海市,,上海市,,崇明区,,"{'cost': , 'rating': }"
BV10323259,,海滨村(公交站),交通设施服务;公交车站;公交车站相关,南建专线,,121.2751061,31.77897221,,上海市,,上海市,,崇明区,,"{'cost': , 'rating': }"
BV11330544,,仓望港(公交站),交通设施服务;公交车站;公交车站相关,南跃线,,121.2738844,31.81789473,,上海市,,上海市,,崇明区,,"{'cost': , 'rating': }"
BV10027566,,北新桥(公交站),交通设施服务;公交车站;公交车站相关,南新专线;南海线;崇明南新专线接驳线,,121.2863346,31.79237525,,上海市,,上海市,,崇明区,,"{'cost': , 'rating': }"
BV11534950,,临时站(公交站),交通设施服务;公交车站;公交车站相关,南跃线,,121.2748071,31.81798377,,上海市,,上海市,,崇明区,,"{'cost': , 'rating': }"
B0FFHHP77E,,小陈螃蟹停车场,交通设施服务;停车场;公共停车场,育道北路,,121.253073,31.77091148,,上海市,,上海市,,崇明区,,"{'cost': , 'rating': }"
BV10323243,,奶牛场(公交站),交通设施服务;公交车站;公交车站相关,南建专线;南牛线;南牛线区间,,121.2257531,31.78456863,,上海市,,上海市,,崇明区,,"{'cost': , 'rating': }"
BV11287917,,桥北路(招呼站)(公交站),交通设施服务;公交车站;公交车站相关,南新专线;南海线,,121.2876057,31.80060875,,上海市,,上海市,,崇明区,,"{'cost': , 'rating': }"
BV11490644,,三官村(招呼站)(公交站),交通设施服务;公交车站;公交车站相关,南新专线,,121.285253,31.78607978,,上海市,,上海市,,崇明区,,"{'cost': , 'rating': }"
BV11330382,,招呼站(公交站),交通设施服务;公交车站;公交车站相关,崇明南新专线接驳线,,121.2877015,31.80121671,,上海市,,上海市,,崇明区,,"{'cost': , 'rating': }"
BV11352605,,招呼站(公交站),交通设施服务;公交车站;公交车站相关,崇明南新专线接驳线,,121.285246,31.78606079,,上海市,,上海市,,崇明区,,"{'cost': , 'rating': }"
BV11330539,,北沿公路(招呼站)(公交站),交通设施服务;公交车站;公交车站相关,南跃线,,121.2798269,31.8184781,,上海市,,上海市,,崇明区,,"{'cost': , 'rating': }"
BV11330543,,邮电局(招呼站)(公交站),交通设施服务;公交车站;公交车站相关,南跃线,,121.2252752,31.81316588,,上海市,,上海市,,崇明区,,"{'cost': , 'rating': }"
BV10908213,,育德村(公交站),交通设施服务;公交车站;公交车站相关,南牛线;南牛线区间,,121.2545147,31.76630737,,上海市,,上海市,,崇明区,,"{'cost': , 'rating': }"
BV11303367,,白港(公交站),交通设施服务;公交车站;公交车站相关,南新专线;南海线;崇明南新专线接驳线,,121.2889175,31.80983536,,上海市,,上海市,,崇明区,,"{'cost': , 'rating': }"
BV10027391,,三星镇(公交站),交通设施服务;公交车站;公交车站相关,南建专线;南新专线;崇明南新专线接驳线,,121.2835786,31.77663565,,上海市,,上海市,,崇明区,,"{'cost': , 'rating': }"
BV10027556,,跃进农场(公交站),交通设施服务;公交车站;公交车站相关,南跃线,,121.2230153,31.81484542,,上海市,,上海市,,崇明区,,"{'cost': , 'rating': }"
BV10599636,,奶牛场桥(招呼站)(公交站),交通设施服务;公交车站;公交车站相关,南建专线;南牛线;南牛线区间,,121.2219432,31.78238533,,上海市,,上海市,,崇明区,,"{'cost': , 'rating': }"
BV11341073,,华荣村(招呼站)(公交站),交通设施服务;公交车站;公交车站相关,南牛线区间,,121.2219432,31.78238533,,上海市,,上海市,,崇明区,,"{'cost': , 'rating': }"
BV10029182,,华荣村(公交站),交通设施服务;公交车站;公交车站相关,崇明乡村6路;崇明乡村6路区间,,121.2207441,31.78288536,,上海市,,上海市,,崇明区,,"{'cost': , 'rating': }"
BV10386244,,新海镇政府(招呼站)(公交站),交通设施服务;公交车站;公交车站相关,南跃线,,121.2871668,31.81914949,,上海市,,上海市,,崇明区,,"{'cost': , 'rating': }"
BV11282334,,三官堂(公交站),交通设施服务;公交车站;公交车站相关,南海线,,121.2954739,31.78995702,,上海市,,上海市,,崇明区,,"{'cost': , 'rating': }"
BV10025507,,八号桥(公交站),交通设施服务;公交车站;公交车站相关,南建专线;南牛线;南牛线区间;崇明乡村6路;崇明乡村6路区间,,121.2194622,31.77907264,,上海市,,上海市,,崇明区,,"{'cost': , 'rating': }"
BV11303368,,新海农场(公交站),交通设施服务;公交车站;公交车站相关,南新专线;南海线;南跃线;崇明南新专线接驳线,,121.2901016,31.81847308,,上海市,,上海市,,崇明区,,"{'cost': , 'rating': }"
BV10027438,,纯阳堂桥(公交站),交通设施服务;公交车站;公交车站相关,南建专线;南新专线;崇明南新专线接驳线,,121.2823453,31.76924923,,上海市,,上海市,,崇明区,,"{'cost': , 'rating': }"
B0GU2BC6ZE,,宏海公路-路侧停车位,交通设施服务;停车场;停车场相关,宏海公路与海腾路交叉口南40米,,121.2901336,31.81866507,,上海市,,上海市,,崇明区,,"{'cost': , 'rating': }"
BV10908214,,烈士村(公交站),交通设施服务;公交车站;公交车站相关,南牛线;南牛线区间,,121.2591243,31.76051857,,上海市,,上海市,,崇明区,,"{'cost': , 'rating': }"
BV10029186,,七号坝桥(公交站),交通设施服务;公交车站;公交车站相关,崇明乡村6路;崇明乡村6路区间,,121.2133132,31.78347497,,上海市,,上海市,,崇明区,,"{'cost': , 'rating': }"
BV10923150,,新海医院(招呼站)(公交站),交通设施服务;公交车站;公交车站相关,南跃线,,121.2933106,31.81899724,,上海市,,上海市,,崇明区,,"{'cost': , 'rating': }"
BV11330386,,海桥小学(招呼站)(公交站),交通设施服务;公交车站;公交车站相关,南海线,,121.3005687,31.7891584,,上海市,,上海市,,崇明区,,"{'cost': , 'rating': }"
B00156EF8H,,停车场(海辉路),交通设施服务;停车场;公共停车场,海辉路与兴谷路交叉口西北40米,,121.2917104,31.82129713,,上海市,,上海市,,崇明区,,"{'cost': , 'rating': }"
B0FFG69PVB,,海辉路-道路停车位,交通设施服务;停车场;路边停车场,海辉路与兴谷路交叉口东40米,,121.292458,31.82102393,,上海市,,上海市,,崇明区,,"{'cost': , 'rating': }"
BV10027389,,三星中学(公交站),交通设施服务;公交车站;公交车站相关,南建专线;南新专线;崇明南新专线接驳线,,121.2814312,31.76363464,,上海市,,上海市,,崇明区,,"{'cost': , 'rating': }"
B0FFG7ICSC,,海辉路-道路停车位,交通设施服务;停车场;路边停车场,创新路与海辉路交叉口西150米,,121.2932176,31.82093173,,上海市,,上海市,,崇明区,,"{'cost': , 'rating': }"
B00156NQFZ,,新海学校停车场,交通设施服务;停车场;公共停车场,北沿公路3336号新海学校,,121.295173,31.81897927,,上海市,,上海市,,崇明区,,"{'cost': , 'rating': }"
BV09070387,,四号桥(招呼站)(公交站),交通设施服务;公交车站;公交车站相关,南建专线;南牛线;南牛线区间;崇明乡村6路;崇明乡村6路区间,,121.215902,31.77433644,,上海市,,上海市,,崇明区,,"{'cost': , 'rating': }"
BV10967483,,招呼站(公交站),交通设施服务;公交车站;公交车站相关,崇明乡村6路,,121.2157048,31.7740812,,上海市,,上海市,,崇明区,,"{'cost': , 'rating': }"
B0H33HRSVG,,停车场(海腾路),交通设施服务;停车场;停车场相关,海辉路新海二村北区,,121.2949153,31.82093503,,上海市,,上海市,,崇明区,,"{'cost': , 'rating': }"
B0GKCUTTX2,,西沙明珠湖景区正门停车场,交通设施服务;停车场;公共停车场,三华公路333号明珠湖公园内,,121.2511503,31.75384572,,上海市,,上海市,,崇明区,,"{'cost': , 'rating': }"
BV10943444,,明珠湖公园(公交站),交通设施服务;公交车站;公交车站相关,南牛线,,121.2512662,31.75444877,,上海市,,上海市,,崇明区,,"{'cost': , 'rating': }"
BV11566609,,明珠湖(公交站),交通设施服务;公交车站;公交车站相关,南牛线,,121.2520729,31.75434856,,上海市,,上海市,,崇明区,,"{'cost': , 'rating': }"
BV10029183,,通裕路南桥(公交站),交通设施服务;公交车站;公交车站相关,崇明乡村6路;崇明乡村6路区间,,121.2073856,31.78394686,,上海市,,上海市,,崇明区,,"{'cost': , 'rating': }"
BV11468959,,水产良种场(公交站),交通设施服务;公交车站;公交车站相关,南牛线,,121.2432077,31.75550455,,上海市,,上海市,,崇明区,,"{'cost': , 'rating': }"
B0FFK6TPIO,,西沙明珠湖景区停车场(出口),交通设施服务;停车场;停车场出口,三华公路333号明珠湖公园内,,121.2497227,31.75440808,,上海市,,上海市,,崇明区,,"{'cost': , 'rating': }"
BV10034494,,海桥镇(公交站),交通设施服务;公交车站;公交车站相关,南海二线;南海线;崇明乡村11路,,121.3071337,31.78812264,,上海市,,上海市,,崇明区,,"{'cost': , 'rating': }"
B0FFG1P6EI,,西沙明珠湖公园景观车停放充电处,交通设施服务;停车场;专用停车场,三华公路333号明珠湖公园内,,121.2531724,31.75352514,,上海市,,上海市,,崇明区,,"{'cost': , 'rating': }"
BV11330540,,新海农场(招呼站)(公交站),交通设施服务;公交车站;公交车站相关,南跃线,,121.3020031,31.81802364,,上海市,,上海市,,崇明区,,"{'cost': , 'rating': }"
BV09211977,,新洲不锈钢厂(公交站),交通设施服务;公交车站;公交车站相关,南红专线,,121.2684698,31.84129509,,上海市,,上海市,,崇明区,,"{'cost': , 'rating': }"
BV10386252,,北沿公路(招呼站)(公交站),交通设施服务;公交车站;公交车站相关,南跃线,,121.3025061,31.81795275,,上海市,,上海市,,崇明区,,"{'cost': , 'rating': }"
B00155DS86,,上海亚通股份有限公司牛棚港客运站,交通设施服务;港口码头;港口码头,跃进公路,,121.2219107,31.834536,,上海市,,上海市,,崇明区,,"{'cost': , 'rating': }"
BV11106637,,华星村(公交站),交通设施服务;公交车站;公交车站相关,南牛线,,121.2272214,31.75806794,,上海市,,上海市,,崇明区,,"{'cost': , 'rating': }"
BV10036594,,陈海公路三华路(公交站),交通设施服务;公交车站;公交车站相关,南牛线;南牛线区间,,121.2659262,31.75205007,,上海市,,上海市,,崇明区,,"{'cost': , 'rating': }"
BV11486468,,华联超市(招呼站)(公交站),交通设施服务;公交车站;公交车站相关,南建专线;南牛线;南牛线区间;崇明乡村6路,,121.2143438,31.76727279,,上海市,,上海市,,崇明区,,"{'cost': , 'rating': }"
BV11556387,,联华超市(招呼站)(公交站),交通设施服务;公交车站;公交车站相关,崇明乡村6路区间,,121.2143438,31.76727279,,上海市,,上海市,,崇明区,,"{'cost': , 'rating': }"
BV11635326,,招呼站(公交站),交通设施服务;公交车站;公交车站相关,南红专线,,121.2735877,31.84075415,,上海市,,上海市,,崇明区,,"{'cost': , 'rating': }"
BV09211976,,新洲不锈钢厂(招呼站)(公交站),交通设施服务;公交车站;公交车站相关,南红专线,,121.2742209,31.84068848,,上海市,,上海市,,崇明区,,"{'cost': , 'rating': }"
B0FFIB1MIC,,新建公路-道路停车位,交通设施服务;停车场;路边停车场,新建公路与东福路交叉口北60米,,121.2142547,31.76717468,,上海市,,上海市,,崇明区,,"{'cost': , 'rating': }"
BV11282335,,织布厂(公交站),交通设施服务;公交车站;公交车站相关,南海线,,121.307317,31.78052117,,上海市,,上海市,,崇明区,,"{'cost': , 'rating': }"
BV11326289,,三条桥(招呼站)(公交站),交通设施服务;公交车站;公交车站相关,南建专线;南新专线,,121.2799543,31.75433627,,上海市,,上海市,,崇明区,,"{'cost': , 'rating': }"
BV10027403,,绿华镇(公交站),交通设施服务;公交车站;公交车站相关,南建专线;南牛线;南牛线区间;崇明乡村6路;崇明乡村6路区间,,121.2140248,31.76385998,,上海市,,上海市,,崇明区,,"{'cost': , 'rating': }"
BV10385710,,新洲(公交站),交通设施服务;公交车站;公交车站相关,南红专线,,121.2822213,31.83985494,,上海市,,上海市,,崇明区,,"{'cost': , 'rating': }"
BV11486748,,社西村(招呼站)(公交站),交通设施服务;公交车站;公交车站相关,南建专线;南新专线,,121.2799623,31.75440527,,上海市,,上海市,,崇明区,,"{'cost': , 'rating': }"
BV11352603,,招呼站(公交站),交通设施服务;公交车站;公交车站相关,崇明南新专线接驳线,,121.2799623,31.75440527,,上海市,,上海市,,崇明区,,"{'cost': , 'rating': }"
BV11038714,,界河桥(公交站),交通设施服务;公交车站;公交车站相关,南海线,,121.3064983,31.77447578,,上海市,,上海市,,崇明区,,"{'cost': , 'rating': }"
BV11328798,,新庄(招呼站)(公交站),交通设施服务;公交车站;公交车站相关,南红专线,,121.2872429,31.83932702,,上海市,,上海市,,崇明区,,"{'cost': , 'rating': }"
BV09269014,,招呼站(公交站),交通设施服务;公交车站;公交车站相关,南红专线,,121.2880575,31.83924483,,上海市,,上海市,,崇明区,,"{'cost': , 'rating': }"
B0FFFPAYTA,,桔香园农家乐停车场,交通设施服务;停车场;专用停车场,西沙绿港生态村建民713号,,121.224762,31.75314357,,上海市,,上海市,,崇明区,,"{'cost': , 'rating': }"
BV11566614,,三华公路新建公路(公交站),交通设施服务;公交车站;公交车站相关,南牛线,,121.215638,31.75868303,,上海市,,上海市,,崇明区,,"{'cost': , 'rating': }"
BV10036516,,新庄(公交站),交通设施服务;公交车站;公交车站相关,南红专线,,121.2930224,31.83872324,,上海市,,上海市,,崇明区,,"{'cost': , 'rating': }"
BV11481160,,大平村(招呼站)(公交站),交通设施服务;公交车站;公交车站相关,南海线,,121.3103229,31.77359166,,上海市,,上海市,,崇明区,,"{'cost': , 'rating': }"
BV10323257,,协进村(公交站),交通设施服务;公交车站;公交车站相关,南建专线;南新专线;崇明南新专线接驳线,,121.2830857,31.74994375,,上海市,,上海市,,崇明区,,"{'cost': , 'rating': }"
BV10029185,,新绿镇桥(公交站),交通设施服务;公交车站;公交车站相关,崇明乡村6路;崇明乡村6路区间,,121.1945313,31.7850223,,上海市,,上海市,,崇明区,,"{'cost': , 'rating': }"
BV10027514,,海洪港村(公交站),交通设施服务;公交车站;公交车站相关,南牛线;南牛线区间,,121.271155,31.74582482,,上海市,,上海市,,崇明区,,"{'cost': , 'rating': }"
BV10034492,,北平村(公交站),交通设施服务;公交车站;公交车站相关,南海二线;崇明乡村11路,,121.316852,31.78691434,,上海市,,上海市,,崇明区,,"{'cost': , 'rating': }"
BV11400651,,海桥八队(公交站),交通设施服务;公交车站;公交车站相关,崇明乡村11路,,121.316133,31.78341318,,上海市,,上海市,,崇明区,,"{'cost': , 'rating': }"
BV11534948,,海桥八队(招呼站)(公交站),交通设施服务;公交车站;公交车站相关,南海二线,,121.3161549,31.78345615,,上海市,,上海市,,崇明区,,"{'cost': , 'rating': }"
BV11533658,,招呼站(公交站),交通设施服务;公交车站;公交车站相关,南海二线,,121.316112,31.78336922,,上海市,,上海市,,崇明区,,"{'cost': , 'rating': }"
BV10758434,,十间楼房(招呼站)(公交站),交通设施服务;公交车站;公交车站相关,南红专线,,121.2995505,31.83750335,,上海市,,上海市,,崇明区,,"{'cost': , 'rating': }"
B0FFFDG6EI,,平湖飞渡(出口),交通设施服务;港口码头;港口码头,三华公路333号明珠湖公园内,,121.2489649,31.74254276,,上海市,,上海市,,崇明区,,"{'cost': , 'rating': }"
BV10323245,,新建河口(公交站),交通设施服务;公交车站;公交车站相关,南建专线;崇明乡村6路;崇明乡村6路区间,,121.2129182,31.75491357,,上海市,,上海市,,崇明区,,"{'cost': , 'rating': }"
BV11038712,,老鲜行(公交站),交通设施服务;公交车站;公交车站相关,南海线,,121.314355,31.77270299,,上海市,,上海市,,崇明区,,"{'cost': , 'rating': }"
BV10036915,,界河新村(公交站),交通设施服务;公交车站;公交车站相关,南跃线,,121.3174491,31.81616295,,上海市,,上海市,,崇明区,,"{'cost': , 'rating': }"
BV10036518,,新国(公交站),交通设施服务;公交车站;公交车站相关,南红专线,,121.3033107,31.8367367,,上海市,,上海市,,崇明区,,"{'cost': , 'rating': }"
BV11326281,,草棚镇(招呼站)(公交站),交通设施服务;公交车站;公交车站相关,南新专线,,121.2839188,31.74554511,,上海市,,上海市,,崇明区,,"{'cost': , 'rating': }"
BV11417045,,三星镇政府(招呼站)(公交站),交通设施服务;公交车站;公交车站相关,南建专线,,121.2839457,31.74560608,,上海市,,上海市,,崇明区,,"{'cost': , 'rating': }"
B0IRCH517T,,花溪站,交通设施服务;交通服务相关;交通服务相关,西沙明珠湖景区内(南侧),021-59603888,121.2563639,31.73990535,,上海市,,上海市,,崇明区,,"{'cost': , 'rating': }"
B0I33SUHV0,,崇明区三星镇社区卫生服务中心地面停车场,交通设施服务;停车场;公共停车场,宏海公路4235-4237号崇明区三星镇社区卫生服务中心,,121.2833188,31.74455779,,上海市,,上海市,,崇明区,,"{'cost': , 'rating': }"
BV10323237,,草棚镇(公交站),交通设施服务;公交车站;公交车站相关,南建专线;南新专线;崇明乡村11路,,121.2832741,31.7423686,,上海市,,上海市,,崇明区,,"{'cost': , 'rating': }"
B0I33SRD8L,,崇明区三星镇社区卫生服务中心地面停车场(出入口),交通设施服务;停车场;停车场出入口,三星镇社区卫生服务中心地面停车场,,121.2833188,31.74455779,,上海市,,上海市,,崇明区,,"{'cost': , 'rating': }"
BV10599631,,大同路口(招呼站)(公交站),交通设施服务;公交车站;公交车站相关,南建专线;崇明乡村6路区间,,121.2123559,31.75093543,,上海市,,上海市,,崇明区,,"{'cost': , 'rating': }"
BV11625226,,新国大队(招呼站)(公交站),交通设施服务;公交车站;公交车站相关,南红专线,,121.307853,31.83579839,,上海市,,上海市,,崇明区,,"{'cost': , 'rating': }"
B0I30CMCRD,,地面停车场,交通设施服务;停车场;公共停车场,星宇路与星虹路交叉口东北20米,,121.2817994,31.74319661,,上海市,,上海市,,崇明区,,"{'cost': , 'rating': }"
B0I30CL4ZB,,地面停车场(出入口),交通设施服务;停车场;停车场出入口,地面停车场,,121.2817994,31.74319661,,上海市,,上海市,,崇明区,,"{'cost': , 'rating': }"
BV11287919,,竹园头(招呼站)(公交站),交通设施服务;公交车站;公交车站相关,南海线,,121.3186332,31.77311993,,上海市,,上海市,,崇明区,,"{'cost': , 'rating': }"
BV10027515,,海洪港桥(公交站),交通设施服务;公交车站;公交车站相关,南牛线;南牛线区间,,121.2755528,31.74045071,,上海市,,上海市,,崇明区,,"{'cost': , 'rating': }"
BV10599627,,招呼站(公交站),交通设施服务;公交车站;公交车站相关,崇明乡村6路,,121.2123459,31.7507834,,上海市,,上海市,,崇明区,,"{'cost': , 'rating': }"
BV10034491,,永安镇(公交站),交通设施服务;公交车站;公交车站相关,南海二线;崇明乡村11路,,121.3233735,31.78208414,,上海市,,上海市,,崇明区,,"{'cost': , 'rating': }"
B0I3THA9EU,,地面停车场,交通设施服务;停车场;公共停车场,宏海公路与星月路交叉口东南60米,,121.2831543,31.74259278,,上海市,,上海市,,崇明区,,"{'cost': , 'rating': }"
B0I3THDR0L,,地面停车场(出入口),交通设施服务;停车场;停车场出入口,地面停车场,,121.2831543,31.74259278,,上海市,,上海市,,崇明区,,"{'cost': , 'rating': }"
BV10036519,,新中(公交站),交通设施服务;公交车站;公交车站相关,南红专线,,121.3121535,31.83491328,,上海市,,上海市,,崇明区,,"{'cost': , 'rating': }"
BV10029187,,华西村(公交站),交通设施服务;公交车站;公交车站相关,崇明乡村6路;崇明乡村6路区间,,121.1843515,31.78586422,,上海市,,上海市,,崇明区,,"{'cost': , 'rating': }"
B0FFK6TV57,,上海明珠湖度假村停车场,交通设施服务;停车场;公共停车场,湖乐路与华丽路交叉口南500米,,121.2479268,31.73600016,,上海市,,上海市,,崇明区,,"{'cost': , 'rating': }"
B0H2NLJQ68,,上海明珠湖生态服务中心(明珠湖度假村)停车场,交通设施服务;停车场;停车场相关,三星镇西沙路8号上海明珠湖生态服务中心(明珠湖度假村),,121.2479997,31.73623817,,上海市,,上海市,,崇明区,,"{'cost': , 'rating': }"
B00156GLBI,,光明瑞华果园停车场,交通设施服务;停车场;公共停车场,北沿公路3176光明瑞华果园(东南角),,121.3268398,31.81330247,,上海市,,上海市,,崇明区,,"{'cost': , 'rating': }"
BV11038711,,海平村(公交站),交通设施服务;公交车站;公交车站相关,南海线,,121.3237993,31.77270197,,上海市,,上海市,,崇明区,,"{'cost': , 'rating': }"
B0I3X55GL0,,地面停车场(暂停营业),交通设施服务;停车场;公共停车场,堡湖路与新堡路交叉口西南160米,,121.228572,31.73778835,,上海市,,上海市,,崇明区,,"{'cost': , 'rating': }"
BV10036914,,新海果园(公交站),交通设施服务;公交车站;公交车站相关,南跃线,,121.3287995,31.81176047,,上海市,,上海市,,崇明区,,"{'cost': , 'rating': }"
BV11328799,,新中大队(招呼站)(公交站),交通设施服务;公交车站;公交车站相关,南红专线,,121.3169347,31.83391908,,上海市,,上海市,,崇明区,,"{'cost': , 'rating': }"
BV10027433,,界河桥(公交站),交通设施服务;公交车站;公交车站相关,南建专线;崇明乡村11路,,121.2905007,31.74033113,,上海市,,上海市,,崇明区,,"{'cost': , 'rating': }"
B0I3X55GKZ,,地面停车场(出入口),交通设施服务;停车场;停车场出入口,地面停车场,,121.228553,31.73775634,,上海市,,上海市,,崇明区,,"{'cost': , 'rating': }"
BV10029179,,西来农庄(公交站),交通设施服务;公交车站;公交车站相关,崇明乡村6路;崇明乡村6路区间,,121.2215276,31.73964335,,上海市,,上海市,,崇明区,,"{'cost': , 'rating': }"
B001573VBK,,西沙明珠湖景区西沙湿地停车场,交通设施服务;停车场;公共停车场,绿华镇明珠湖西侧西沙国家湿地公园内,,121.2355247,31.73154908,,上海市,,上海市,,崇明区,,"{'cost': , 'rating': }"
BV11623856,,界河桥(招呼站)(公交站),交通设施服务;公交车站;公交车站相关,南新专线,,121.2905007,31.74033113,,上海市,,上海市,,崇明区,,"{'cost': , 'rating': }"
BV11490276,,绿湖村(公交站),交通设施服务;公交车站;公交车站相关,崇明乡村6路;崇明乡村6路区间,,121.2357195,31.73379939,,上海市,,上海市,,崇明区,,"{'cost': , 'rating': }"
BV10323246,,新建水闸(公交站),交通设施服务;公交车站;公交车站相关,南建专线;崇明乡村6路;崇明乡村6路区间,,121.2114075,31.74141219,,上海市,,上海市,,崇明区,,"{'cost': , 'rating': }"
B0HKXRSLVZ,,西沙明珠湖景区西沙湿地停车点,交通设施服务;停车场;公共停车场,新堡路与星湖路交叉口西南40米,,121.2354086,31.73191607,,上海市,,上海市,,崇明区,,"{'cost': , 'rating': }"
BV10029180,,南良种场桥(公交站),交通设施服务;公交车站;公交车站相关,崇明乡村6路;崇明乡村6路区间,,121.214216,31.7406533,,上海市,,上海市,,崇明区,,"{'cost': , 'rating': }"
BV10034490,,永安村(公交站),交通设施服务;公交车站;公交车站相关,南海二线;崇明乡村11路,,121.331519,31.78134747,,上海市,,上海市,,崇明区,,"{'cost': , 'rating': }"
B0IBFUZ3XT,,停车场,交通设施服务;停车场;停车场相关,新堡路与星湖路交叉口东南20米,,121.2359637,31.73302739,,上海市,,上海市,,崇明区,,"{'cost': , 'rating': }"
BV11328788,,茅家小店(招呼站)(公交站),交通设施服务;公交车站;公交车站相关,南红专线,,121.3216809,31.83291983,,上海市,,上海市,,崇明区,,"{'cost': , 'rating': }"
B0FFFPCOUX,,西沙明邸停车场,交通设施服务;停车场;公共停车场,绿港村堡镇521,,121.2186639,31.73871664,,上海市,,上海市,,崇明区,,"{'cost': , 'rating': }"
B0HKUHUT9I,,崇明荷花博览园西门北停车点,交通设施服务;停车场;公共停车场,新堡路与星湖路交叉口南100米,,121.2359637,31.73227731,,上海市,,上海市,,崇明区,,"{'cost': , 'rating': }"
BV10034486,,新安镇(公交站),交通设施服务;公交车站;公交车站相关,南海二线;南海线;崇明乡村11路,,121.3257836,31.76369993,,上海市,,上海市,,崇明区,,"{'cost': , 'rating': }"
BV10036520,,新村镇(公交站),交通设施服务;公交车站;公交车站相关,南红专线,,121.324734,31.83227185,,上海市,,上海市,,崇明区,,"{'cost': , 'rating': }"
BV10027516,,洪海村(公交站),交通设施服务;公交车站;公交车站相关,南牛线;南牛线区间,,121.2815806,31.73291674,,上海市,,上海市,,崇明区,,"{'cost': , 'rating': }"
B0H3D7SPFV,,荷花博览园停车场,交通设施服务;停车场;公共停车场,堡湖路367号崇明荷花博览园,,121.2356097,31.73097005,,上海市,,上海市,,崇明区,,"{'cost': , 'rating': }"
B0H1OCTKTM,,上海玉海棠景区新能源停车场,交通设施服务;停车场;公共停车场,三星镇北星公路1999号内上海玉海棠景区(新安古街),,121.327233,31.76668456,,上海市,,上海市,,崇明区,,"{'cost': , 'rating': }"
BV10323236,,清水官宫(公交站),交通设施服务;公交车站;公交车站相关,南建专线;南新专线;崇明乡村11路,,121.298134,31.7388908,,上海市,,上海市,,崇明区,,"{'cost': , 'rating': }"
BV11492259,,西沙湿地(公交站),交通设施服务;公交车站;公交车站相关,崇明乡村6路;崇明乡村6路区间,,121.2353267,31.73060391,,上海市,,上海市,,崇明区,,"{'cost': , 'rating': }"
B0FFGEOH5K,,西沙明珠湖景区西沙湿地停车场(出入口),交通设施服务;停车场;停车场出入口,新堡路与崇西公路交叉口西北20米,,121.2352517,31.73039186,,上海市,,上海市,,崇明区,,"{'cost': , 'rating': }"
BV10034488,,茅家桥(公交站),交通设施服务;公交车站;公交车站相关,南海二线;南海线;崇明乡村11路,,121.3303904,31.77141819,,上海市,,上海市,,崇明区,,"{'cost': , 'rating': }"
B0H0UAMEBG,,桃源水乡大酒店停车场,交通设施服务;停车场;公共停车场,环湖南路与新湖路交叉口东280米,,121.2211856,31.7355596,,上海市,,上海市,,崇明区,,"{'cost': , 'rating': }"
B0H33HSOKL,,西沙明珠湖景区西沙湿地停车场(出口),交通设施服务;停车场;停车场出入口,新堡路与崇西公路交叉口东北100米,,121.2357188,31.7311091,,上海市,,上海市,,崇明区,,"{'cost': , 'rating': }"
B0I21DMN7E,,玉海棠棠果乐园停车场,交通设施服务;停车场;公共停车场,北星公路1999号东玉海棠棠果乐园,,121.3269916,31.76604093,,上海市,,上海市,,崇明区,,"{'cost': , 'rating': }"
B0H0UAJNDZ,,桃源水乡大酒店地下停车场,交通设施服务;停车场;公共停车场,环湖南路与新湖路交叉口东南300米,,121.2212947,31.73543268,,上海市,,上海市,,崇明区,,"{'cost': , 'rating': }"
B0H0UAMT0W,,桃源水乡大酒店地下停车场(出入口),交通设施服务;停车场;停车场出入口,环湖南路与新湖路交叉口东300米,,121.2212897,31.73558069,,上海市,,上海市,,崇明区,,"{'cost': , 'rating': }"
B0H0UAJNDY,,桃源水乡大酒店停车场(出入口),交通设施服务;停车场;停车场出入口,环湖南路与新湖路交叉口东300米,,121.2213377,31.73555273,,上海市,,上海市,,崇明区,,"{'cost': , 'rating': }"
BV10987643,,北星公路海大路(公交站),交通设施服务;公交车站;公交车站相关,崇明乡村11路,,121.3275453,31.76673096,,上海市,,上海市,,崇明区,,"{'cost': , 'rating': }"
B0JD5A6RFQ,,地面停车场,交通设施服务;停车场;公共停车场,望江路与钟楼路交叉口东北40米,,121.2420852,31.86548379,,江苏省,,南通市,,海门区,,"{'cost': , 'rating': }"
B0JGHZPOTV,,青龙港1806景区停车场,交通设施服务;停车场;公共停车场,青龙港1806景区,,121.2421901,31.86619495,,江苏省,,南通市,,海门区,,"{'cost': , 'rating': }"
B0H1XY1HY9,,南码头站,交通设施服务;交通服务相关;交通服务相关,三华公路333号明珠湖公园内,021-59603888,121.2465647,31.72817043,,上海市,,上海市,,崇明区,,"{'cost': , 'rating': }"
B0JD5A4M50,,地面停车场(出入口),交通设施服务;停车场;停车场出入口,地面停车场,,121.2421482,31.86541979,,江苏省,,南通市,,海门区,,"{'cost': , 'rating': }"
B0G22ZU80K,,玉海棠心安里新能源停车场,交通设施服务;停车场;停车场相关,三星镇北星公路与海大路交叉口南80米北星公路路西,,121.3275503,31.76682497,,上海市,,上海市,,崇明区,,"{'cost': , 'rating': }"
BV11287914,,小横河(招呼站)(公交站),交通设施服务;公交车站;公交车站相关,南海二线;南海线,,121.3275972,31.76680888,,上海市,,上海市,,崇明区,,"{'cost': , 'rating': }"
B0H1XS3TPD,,上海玉海棠景区新能源停车场(入口),交通设施服务;停车场;停车场入口,三星镇北星公路与海大路交叉口南80米北星公路路西,,121.3275503,31.76691198,,上海市,,上海市,,崇明区,,"{'cost': , 'rating': }"
BV11490291,,北星公路海大路(招呼站)(公交站),交通设施服务;公交车站;公交车站相关,南海二线,,121.3282685,31.76790174,,上海市,,上海市,,崇明区,,"{'cost': , 'rating': }"
B0JGHZP95J,,地面停车场(出入口),交通设施服务;停车场;停车场出入口,青龙港1806景区停车场,,121.2418301,31.86597286,,江苏省,,南通市,,海门区,,"{'cost': , 'rating': }"
BV11481144,,秦家宅(招呼站)(公交站),交通设施服务;公交车站;公交车站相关,南海二线;南海线,,121.322761,31.75839603,,上海市,,上海市,,崇明区,,"{'cost': , 'rating': }"
BV11412988,,安南村(公交站),交通设施服务;公交车站;公交车站相关,南海二线;南海线;崇明乡村11路,,121.3213285,31.75596147,,上海市,,上海市,,崇明区,,"{'cost': , 'rating': }"
BV11400650,,永安路横河桥(公交站),交通设施服务;公交车站;公交车站相关,崇明乡村11路,,121.3339748,31.77753129,,上海市,,上海市,,崇明区,,"{'cost': , 'rating': }"
BV10034489,,永安横河桥(公交站),交通设施服务;公交车站;公交车站相关,南海二线,,121.3339748,31.77753129,,上海市,,上海市,,崇明区,,"{'cost': , 'rating': }"
BV10036913,,新东牧场(公交站),交通设施服务;公交车站;公交车站相关,南跃线,,121.3373327,31.80774275,,上海市,,上海市,,崇明区,,"{'cost': , 'rating': }"
BV09157116,,临时站(公交站),交通设施服务;公交车站;公交车站相关,南海二线,,121.3226433,31.75819623,,上海市,,上海市,,崇明区,,"{'cost': , 'rating': }"
BV10029184,,建桥西桥(公交站),交通设施服务;公交车站;公交车站相关,崇明乡村6路;崇明乡村6路区间,,121.1734577,31.78675448,,上海市,,上海市,,崇明区,,"{'cost': , 'rating': }"
B0H0UAMT0X,,桃源水乡大酒店地下停车场(出入口),交通设施服务;停车场;停车场出入口,环湖南路与新湖路交叉口东南320米,,121.220376,31.73424274,,上海市,,上海市,,崇明区,,"{'cost': , 'rating': }"
B0I0KH0QRS,,新村乡人民政府内部地面停车场,交通设施服务;停车场;专用停车场,星村公路2105号新村乡人民政府,,121.3277052,31.83119897,,上海市,,上海市,,崇明区,,"{'cost': , 'rating': }"
BV10987647,,平安村六队(公交站),交通设施服务;公交车站;公交车站相关,崇明乡村11路,,121.3197005,31.75323424,,上海市,,上海市,,崇明区,,"{'cost': , 'rating': }"
B0I0KHXFHK,,新村乡人民政府内部地面停车场(出入口),交通设施服务;停车场;停车场出入口,新村乡人民政府内部地面停车场,,121.3277052,31.83119897,,上海市,,上海市,,崇明区,,"{'cost': , 'rating': }"
B00156NQFQ,,停车场(卫付路),交通设施服务;停车场;公共停车场,星村公路与顺洲路交叉口西北80米,,121.3271514,31.8321452,,上海市,,上海市,,崇明区,,"{'cost': , 'rating': }"
B0FFG69VC8,,停车场(新村乡综治工作中心东),交通设施服务;停车场;公共停车场,星村公路2107号,,121.3278908,31.83143565,,上海市,,上海市,,崇明区,,"{'cost': , 'rating': }"
BV10987641,,平安村五队(公交站),交通设施服务;公交车站;公交车站相关,崇明乡村11路,,121.3172404,31.75029457,,上海市,,上海市,,崇明区,,"{'cost': , 'rating': }"
BV09193693,,乡政府(招呼站)(公交站),交通设施服务;公交车站;公交车站相关,南红专线,,121.3288606,31.8314328,,上海市,,上海市,,崇明区,,"{'cost': , 'rating': }"
B0IRODWPAI,,监测码头,交通设施服务;港口码头;港口码头,西沙明珠湖景区内(西南角),021-39633635,121.2255126,31.73002046,,上海市,,上海市,,崇明区,,"{'cost': , 'rating': }"
BV10987644,,平安村(公交站),交通设施服务;公交车站;公交车站相关,崇明乡村11路,,121.3141249,31.74508285,,上海市,,上海市,,崇明区,,"{'cost': , 'rating': }"
B0HKHUC4UC,,东码头,交通设施服务;港口码头;港口码头,西沙明珠湖景区内(西南角),021-39633635,121.2413332,31.72560893,,上海市,,上海市,,崇明区,,"{'cost': , 'rating': }"
BV10027432,,东安村(公交站),交通设施服务;公交车站;公交车站相关,南建专线;崇明乡村11路,,121.3039551,31.73671453,,上海市,,上海市,,崇明区,,"{'cost': , 'rating': }"
BV11326284,,东安村(招呼站)(公交站),交通设施服务;公交车站;公交车站相关,南新专线,,121.3036866,31.73711005,,上海市,,上海市,,崇明区,,"{'cost': , 'rating': }"
B0JGG7SJHJ,,南通铭升印染有限公司内部地面停车场,交通设施服务;停车场;专用停车场,青龙港化工园区南通铭升印染有限公司,,121.2441627,31.87056797,,江苏省,,南通市,,海门区,,"{'cost': , 'rating': }"
B0JGG7T675,,南通铭升印染有限公司内部地面停车场(出入口),交通设施服务;停车场;停车场出入口,南通铭升印染有限公司内部地面停车场,,121.2441627,31.87056797,,江苏省,,南通市,,海门区,,"{'cost': , 'rating': }"
BV11566610,,界河桥(招呼站)(公交站),交通设施服务;公交车站;公交车站相关,南牛线;南牛线区间,,121.2857662,31.72780663,,上海市,,上海市,,崇明区,,"{'cost': , 'rating': }"
B0JGYZ0G8K,,青化路-道路停车位,交通设施服务;停车场;路边停车场,胜利路与钟楼路交叉口西北360米,,121.2393405,31.87048134,,江苏省,,南通市,,海门区,,"{'cost': , 'rating': }"
BV10036476,,望仓港(公交站),交通设施服务;公交车站;公交车站相关,南海二线;南海线,,121.326854,31.75341055,,上海市,,上海市,,崇明区,,"{'cost': , 'rating': }"
BV10987645,,清平一队(公交站),交通设施服务;公交车站;公交车站相关,崇明乡村11路,,121.3104596,31.73966807,,上海市,,上海市,,崇明区,,"{'cost': , 'rating': }"
BV10385653,,新浜村(招呼站)(公交站),交通设施服务;公交车站;公交车站相关,南红专线,,121.3348023,31.83019034,,上海市,,上海市,,崇明区,,"{'cost': , 'rating': }"
BV10027518,,海坝镇(公交站),交通设施服务;公交车站;公交车站相关,南牛线;南牛线区间,,121.2881503,31.725355,,上海市,,上海市,,崇明区,,"{'cost': , 'rating': }"
BV10987642,,北星公路南桥路(公交站),交通设施服务;公交车站;公交车站相关,崇明乡村11路,,121.3066625,31.73391938,,上海市,,上海市,,崇明区,,"{'cost': , 'rating': }"
BV11588294,,广州路口(公交站),交通设施服务;公交车站;公交车站相关,海门102路,,121.1791494,31.84111927,,江苏省,,南通市,,海门区,,"{'cost': , 'rating': }"
BV10027383,,南星桥(公交站),交通设施服务;公交车站;公交车站相关,南建专线;南新专线,,121.3068981,31.73224678,,上海市,,上海市,,崇明区,,"{'cost': , 'rating': }"
BV11461896,,洪新(招呼站)(公交站),交通设施服务;公交车站;公交车站相关,南跃线,,121.3460648,31.79976985,,上海市,,上海市,,崇明区,,"{'cost': , 'rating': }"
BV11490288,,碾米厂(招呼站)(公交站),交通设施服务;公交车站;公交车站相关,南海二线,,121.330885,31.75204369,,上海市,,上海市,,崇明区,,"{'cost': , 'rating': }"
BV11330390,,辗米厂(招呼站)(公交站),交通设施服务;公交车站;公交车站相关,南海二线;南海线,,121.330885,31.75204369,,上海市,,上海市,,崇明区,,"{'cost': , 'rating': }"
BV10036521,,二分店(公交站),交通设施服务;公交车站;公交车站相关,南红专线,,121.3428888,31.8285183,,上海市,,上海市,,崇明区,,"{'cost': , 'rating': }"
BV09123042,,保利云禧(公交站),交通设施服务;公交车站;公交车站相关,海门121路,,121.1907583,31.85651761,,江苏省,,南通市,,海门区,,"{'cost': , 'rating': }"
BV10951985,,京海集团(公交站),交通设施服务;公交车站;公交车站相关,海门102路,,121.1724833,31.83692715,,江苏省,,南通市,,海门区,,"{'cost': , 'rating': }"
B0I0H7T2N2,,内部地下停车场,交通设施服务;停车场;专用停车场,嘉陵江南路与清远路交叉口南160米,,121.1900851,31.85721162,,江苏省,,南通市,,海门区,,"{'cost': , 'rating': }"
B0I0H7W5MV,,内部地下停车场(出入口),交通设施服务;停车场;停车场出入口,内部地下停车场,,121.1900851,31.85721162,,江苏省,,南通市,,海门区,,"{'cost': , 'rating': }"
BV10386274,,红西站(公交站),交通设施服务;公交车站;公交车站相关,南跃线,,121.3515105,31.79451294,,上海市,,上海市,,崇明区,,"{'cost': , 'rating': }"
B0FFHHSY0Q,,蒙骏骑马场停车场,交通设施服务;停车场;公共停车场,径八路与纬二路交叉口西南60米,,121.51444,31.72609116,,上海市,,上海市,,崇明区,,"{'cost': , 'rating': }"
BV10323292,,庙港村(公交站),交通设施服务;公交车站;公交车站相关,崇明乡村5路,,121.303621,31.68821785,,上海市,,上海市,,崇明区,,"{'cost': , 'rating': }"
BV10038747,,南新镇(公交站),交通设施服务;公交车站;公交车站相关,崇明乡村5路,,121.3069475,31.69194815,,上海市,,上海市,,崇明区,,"{'cost': , 'rating': }"
BV10034462,,谢家镇(公交站),交通设施服务;公交车站;公交车站相关,崇明乡村10路,,121.5372233,31.63980463,,上海市,,上海市,,崇明区,,"{'cost': , 'rating': }"
BV10034461,,十五考场(公交站),交通设施服务;公交车站;公交车站相关,崇明乡村10路,,121.539116,31.64760409,,上海市,,上海市,,崇明区,,"{'cost': , 'rating': }"
BV10034463,,卫东村(公交站),交通设施服务;公交车站;公交车站相关,崇明乡村10路,,121.5363381,31.63538053,,上海市,,上海市,,崇明区,,"{'cost': , 'rating': }"
BV10034460,,长江童伞厂(公交站),交通设施服务;公交车站;公交车站相关,崇明乡村10路,,121.5404041,31.65322211,,上海市,,上海市,,崇明区,,"{'cost': , 'rating': }"
BV10034464,,北新公路草港公路(公交站),交通设施服务;公交车站;公交车站相关,崇明乡村10路,,121.5347171,31.62731966,,上海市,,上海市,,崇明区,,"{'cost': , 'rating': }"
BV10339434,,新民镇(公交站),交通设施服务;公交车站;公交车站相关,南堡支线,,121.5350922,31.62655756,,上海市,,上海市,,崇明区,,"{'cost': , 'rating': }"
BV11622276,,理发店(招呼站)(公交站),交通设施服务;公交车站;公交车站相关,南堡支线,,121.5283957,31.62827199,,上海市,,上海市,,崇明区,,"{'cost': , 'rating': }"
B0FFIBQBGI,,瀛新园停车场,交通设施服务;停车场;停车场相关,草港公路与新河进民路交叉口东北260米,,121.5216736,31.63207022,,上海市,,上海市,,崇明区,,"{'cost': , 'rating': }"
BV11539836,,平南村(公交站),交通设施服务;公交车站;公交车站相关,南堡支线,,121.523837,31.62947604,,上海市,,上海市,,崇明区,,"{'cost': , 'rating': }"
BV10034048,,民生港(公交站),交通设施服务;公交车站;公交车站相关,堡胜专线;崇明乡村10路,,121.5423927,31.66186272,,上海市,,上海市,,崇明区,,"{'cost': , 'rating': }"
BV11634947,,应用科技学校(招呼站)(公交站),交通设施服务;公交车站;公交车站相关,堡胜专线,,121.5355154,31.66273022,,上海市,,上海市,,崇明区,,"{'cost': , 'rating': }"
BV10386658,,葡萄园(招呼站)(公交站),交通设施服务;公交车站;公交车站相关,南堡支线,,121.5434527,31.62433236,,上海市,,上海市,,崇明区,,"{'cost': , 'rating': }"
BV11634941,,东轻村(招呼站)(公交站),交通设施服务;公交车站;公交车站相关,堡胜专线,,121.5523526,31.6584252,,上海市,,上海市,,崇明区,,"{'cost': , 'rating': }"
BV11539830,,一号桥(招呼站)(公交站),交通设施服务;公交车站;公交车站相关,南堡支线,,121.5190951,31.63071313,,上海市,,上海市,,崇明区,,"{'cost': , 'rating': }"
BV09158516,,招呼站(公交站),交通设施服务;公交车站;公交车站相关,堡胜专线,,121.5535704,31.65798032,,上海市,,上海市,,崇明区,,"{'cost': , 'rating': }"
B0HAVRC0SP,,北沿公路(西)停车场,交通设施服务;停车场;停车场相关,X501(北沿公路),,121.553401,31.65863405,,上海市,,上海市,,崇明区,,"{'cost': , 'rating': }"
BV11539832,,民生村(公交站),交通设施服务;公交车站;公交车站相关,南堡支线,,121.5156844,31.63160558,,上海市,,上海市,,崇明区,,"{'cost': , 'rating': }"
BV10339432,,群英村(公交站),交通设施服务;公交车站;公交车站相关,南堡支线,,121.5478831,31.62317336,,上海市,,上海市,,崇明区,,"{'cost': , 'rating': }"
BV11548035,,刀剪厂(公交站),交通设施服务;公交车站;公交车站相关,堡胜专线,,121.5312796,31.664483,,上海市,,上海市,,崇明区,,"{'cost': , 'rating': }"
BV10537028,,育苗小学(招呼站)(公交站),交通设施服务;公交车站;公交车站相关,南堡支线,,121.5509324,31.62238114,,上海市,,上海市,,崇明区,,"{'cost': , 'rating': }"
BV10034465,,新风镇(公交站),交通设施服务;公交车站;公交车站相关,崇明乡村10路,,121.53311,31.61918083,,上海市,,上海市,,崇明区,,"{'cost': , 'rating': }"
B0GRLRM9MN,,新晨路-路侧停车位,交通设施服务;停车场;停车场相关,新晨路与北新公路交叉口东80米,,121.5339545,31.61950987,,上海市,,上海市,,崇明区,,"{'cost': , 'rating': }"
B0H69UKTHS,,新风商厦停车场(出入口),交通设施服务;停车场;停车场出入口,新风商厦停车场,,121.533119,31.61962185,,上海市,,上海市,,崇明区,,"{'cost': , 'rating': }"
B0H69ULVE3,,新风商厦停车场,交通设施服务;停车场;公共停车场,新晨路57号新风商厦,,121.5330899,31.61948178,,上海市,,上海市,,崇明区,,"{'cost': , 'rating': }"
B0FFMFPDPJ,,上海娄氏中医医院停车场,交通设施服务;停车场;公共停车场,新晨路145-147上海娄氏中医医院,,121.530502,31.61969437,,上海市,,上海市,,崇明区,,"{'cost': , 'rating': }"
B0FFIB08TW,,停车场,交通设施服务;停车场;公共停车场,北新公路与新晨路交叉口南40米,,121.5332042,31.61935406,,上海市,,上海市,,崇明区,,"{'cost': , 'rating': }"
B0H69UL8MP,,新风商厦停车场(出入口),交通设施服务;停车场;停车场出入口,新风商厦停车场,,121.5331039,31.61936181,,上海市,,上海市,,崇明区,,"{'cost': , 'rating': }"
B0H69ULO1E,,新风商厦停车场(出入口),交通设施服务;停车场;停车场出入口,新风商厦停车场,,121.5330528,31.61915569,,上海市,,上海市,,崇明区,,"{'cost': , 'rating': }"
BV11635331,,消防队(招呼站)(公交站),交通设施服务;公交车站;公交车站相关,堡胜专线,,121.5321589,31.66850335,,上海市,,上海市,,崇明区,,"{'cost': , 'rating': }"
BV10339447,,永丰村(公交站),交通设施服务;公交车站;公交车站相关,南堡支线,,121.5566882,31.62086308,,上海市,,上海市,,崇明区,,"{'cost': , 'rating': }"
BV11634945,,元件四厂(招呼站)(公交站),交通设施服务;公交车站;公交车站相关,堡胜专线,,121.5326512,31.67069766,,上海市,,上海市,,崇明区,,"{'cost': , 'rating': }"
BV11577238,,为民商店(公交站),交通设施服务;公交车站;公交车站相关,南堡支线,,121.5060453,31.63412567,,上海市,,上海市,,崇明区,,"{'cost': , 'rating': }"
BV09238608,,临时站(公交站),交通设施服务;公交车站;公交车站相关,崇明乡村10路,,121.5331357,31.67081685,,上海市,,上海市,,崇明区,,"{'cost': , 'rating': }"
BV11569734,,进场路(二号门)(公交站),交通设施服务;公交车站;公交车站相关,南同专线区间,,121.5119477,31.66252854,,上海市,,上海市,,崇明区,,"{'cost': , 'rating': }"
B0G0K1WD9K,,东冉路-路侧停车位,交通设施服务;停车场;停车场相关,东冉路附近,,121.5335288,31.67153183,,上海市,,上海市,,崇明区,,"{'cost': , 'rating': }"
BV11548037,,前进刀具厂(公交站),交通设施服务;公交车站;公交车站相关,堡胜专线,,121.5685244,31.65431255,,上海市,,上海市,,崇明区,,"{'cost': , 'rating': }"
BV09243555,,招呼站(公交站),交通设施服务;公交车站;公交车站相关,堡胜专线,,121.5707719,31.65097284,,上海市,,上海市,,崇明区,,"{'cost': , 'rating': }"
BV11635325,,培训队(招呼站)(公交站),交通设施服务;公交车站;公交车站相关,堡胜专线,,121.5707719,31.65059083,,上海市,,上海市,,崇明区,,"{'cost': , 'rating': }"
B0GRLRNIY2,,育才路-路侧停车位,交通设施服务;停车场;停车场相关,育才路6号附近,,121.5351464,31.67398784,,上海市,,上海市,,崇明区,,"{'cost': , 'rating': }"
BV10537010,,永丰小店(招呼站)(公交站),交通设施服务;公交车站;公交车站相关,南堡支线,,121.5612542,31.61966702,,上海市,,上海市,,崇明区,,"{'cost': , 'rating': }"
BV10480234,,瀛都小区(公交站),交通设施服务;公交车站;公交车站相关,崇明乡村10路;崇明乡村7路,,121.5430654,31.67506073,,上海市,,上海市,,崇明区,,"{'cost': , 'rating': }"
BV10034466,,东义小学(公交站),交通设施服务;公交车站;公交车站相关,崇明乡村10路,,121.531594,31.61176521,,上海市,,上海市,,崇明区,,"{'cost': , 'rating': }"
BV11635327,,德科(招呼站)(公交站),交通设施服务;公交车站;公交车站相关,堡胜专线,,121.5336067,31.6750432,,上海市,,上海市,,崇明区,,"{'cost': , 'rating': }"
BV11644879,,长江公路育才路(公交站),交通设施服务;公交车站;公交车站相关,堡胜专线;崇明乡村10路,,121.5336067,31.6750432,,上海市,,上海市,,崇明区,,"{'cost': , 'rating': }"
BV11625618,,窑厂(招呼站)(公交站),交通设施服务;公交车站;公交车站相关,南堡支线,,121.4995587,31.6361984,,上海市,,上海市,,崇明区,,"{'cost': , 'rating': }"
BV10862202,,东义桥(公交站),交通设施服务;公交车站;公交车站相关,南堡二线,,121.5321247,31.61046055,,上海市,,上海市,,崇明区,,"{'cost': , 'rating': }"
BV10862204,,义化桥(公交站),交通设施服务;公交车站;公交车站相关,南堡二线,,121.5182205,31.61413481,,上海市,,上海市,,崇明区,,"{'cost': , 'rating': }"
BV11539831,,东南路(招呼站)(公交站),交通设施服务;公交车站;公交车站相关,南堡支线,,121.4988321,31.63645723,,上海市,,上海市,,崇明区,,"{'cost': , 'rating': }"
BV10480233,,黄河路桂林路(公交站),交通设施服务;公交车站;公交车站相关,崇明乡村10路;崇明乡村7路,,121.5372563,31.67681393,,上海市,,上海市,,崇明区,,"{'cost': , 'rating': }"
B00156EG3R,,崇明巴士长江汽车站,交通设施服务;长途汽车站;长途汽车站,黄河路附近,,121.5319736,31.67773234,,上海市,,上海市,,崇明区,,"{'cost': , 'rating': }"
B0FFIB4CZ2,,农工商超市停车场,交通设施服务;停车场;公共停车场,崇明区-东平社区的长江电影院,,121.5343237,31.67721804,,上海市,,上海市,,崇明区,,"{'cost': , 'rating': }"
BV10034050,,长江农场(公交站),交通设施服务;公交车站;公交车站相关,南江专线;堡胜专线,,121.5319776,31.67783036,,上海市,,上海市,,崇明区,,"{'cost': , 'rating': }"
B0FFHB2R2P,,瀛都宾馆停车场,交通设施服务;停车场;公共停车场,长江农场黄河路8号瀛都宾馆,,121.5356225,31.67775716,,上海市,,上海市,,崇明区,,"{'cost': , 'rating': }"
BV11634948,,长江农场(下客站)(公交站),交通设施服务;公交车站;公交车站相关,堡胜专线,,121.5327148,31.67799418,,上海市,,上海市,,崇明区,,"{'cost': , 'rating': }"
BV11611305,,长江汽车站(公交站),交通设施服务;公交车站;公交车站相关,崇明乡村10路;崇明乡村7路,,121.5327148,31.67799418,,上海市,,上海市,,崇明区,,"{'cost': , 'rating': }"
BV10862200,,进化村(公交站),交通设施服务;公交车站;公交车站相关,南堡二线,,121.5116657,31.61586116,,上海市,,上海市,,崇明区,,"{'cost': , 'rating': }"
BV10862206,,黄依相桥(公交站),交通设施服务;公交车站;公交车站相关,南堡二线,,121.501333,31.62581367,,上海市,,上海市,,崇明区,,"{'cost': , 'rating': }"
BV11548036,,前进粮油站(公交站),交通设施服务;公交车站;公交车站相关,堡胜专线,,121.5784692,31.64779422,,上海市,,上海市,,崇明区,,"{'cost': , 'rating': }"
BV10635697,,大椿村小店(公交站),交通设施服务;公交车站;公交车站相关,南堡支线,,121.5673276,31.61842088,,上海市,,上海市,,崇明区,,"{'cost': , 'rating': }"
B0FFIB0CLY,,东冉路-道路停车位,交通设施服务;停车场;路边停车场,东冉路与平悦路交叉口北60米,,121.5342433,31.67835191,,上海市,,上海市,,崇明区,,"{'cost': , 'rating': }"
B0H1XL5RKB,,停车场,交通设施服务;停车场;停车场相关,平悦路与东冉路交叉口西北200米,,121.532463,31.67860659,,上海市,,上海市,,崇明区,,"{'cost': , 'rating': }"
BV11556979,,新民二队(公交站),交通设施服务;公交车站;公交车站相关,南堡二线,,121.5382409,31.60742015,,上海市,,上海市,,崇明区,,"{'cost': , 'rating': }"
B0FFF43GBT,,东冉路-道路停车位,交通设施服务;停车场;路边停车场,东平市民公园西门西北60米,,121.5344188,31.67919537,,上海市,,上海市,,崇明区,,"{'cost': , 'rating': }"
B0FFG253XI,,蟠龙生态园停车场,交通设施服务;停车场;停车场相关,蟠龙公路2688号上海名阳生态园内,,121.4972336,31.65666686,,上海市,,上海市,,崇明区,,"{'cost': , 'rating': }"
BV11553300,,邮局(招呼站)(公交站),交通设施服务;公交车站;公交车站相关,南江专线,,121.5345612,31.67990776,,上海市,,上海市,,崇明区,,"{'cost': , 'rating': }"
B0FFIB09G2,,东平镇社区-文化活动中心停车场,交通设施服务;停车场;公共停车场,东平镇东冉路886号东平镇社区文化活动中心,,121.53451,31.67983363,,上海市,,上海市,,崇明区,,"{'cost': , 'rating': }"
BV11549374,,崇明机场(公交站),交通设施服务;公交车站;公交车站相关,南江专线;堡胜专线,,121.5047575,31.67047683,,上海市,,上海市,,崇明区,,"{'cost': , 'rating': }"
BV10862201,,进艺桥(公交站),交通设施服务;公交车站;公交车站相关,南堡二线,,121.5030408,31.6181278,,上海市,,上海市,,崇明区,,"{'cost': , 'rating': }"
BV10386711,,大椿车口(招呼站)(公交站),交通设施服务;公交车站;公交车站相关,南堡支线,,121.5717219,31.61771857,,上海市,,上海市,,崇明区,,"{'cost': , 'rating': }"
B0HAVRBDU0,,花博会东区停车场,交通设施服务;停车场;专用停车场,X501(北沿公路),,121.5826209,31.64729159,,上海市,,上海市,,崇明区,,"{'cost': , 'rating': }"
BV11569733,,进场路(一号门)(公交站),交通设施服务;公交车站;公交车站相关,南同专线区间,,121.4991126,31.66594882,,上海市,,上海市,,崇明区,,"{'cost': , 'rating': }"
BV11539835,,蟠龙村(公交站),交通设施服务;公交车站;公交车站相关,南堡支线,,121.4917314,31.63695597,,上海市,,上海市,,崇明区,,"{'cost': , 'rating': }"
BV10034467,,强民村(公交站),交通设施服务;公交车站;公交车站相关,崇明乡村10路,,121.5298563,31.60413604,,上海市,,上海市,,崇明区,,"{'cost': , 'rating': }"
BV11553303,,奶牛场(公交站),交通设施服务;公交车站;公交车站相关,南江专线;堡胜专线,,121.5249301,31.6813895,,上海市,,上海市,,崇明区,,"{'cost': , 'rating': }"
BV10862203,,蟠中界河桥(公交站),交通设施服务;公交车站;公交车站相关,南堡二线,,121.4958663,31.62606631,,上海市,,上海市,,崇明区,,"{'cost': , 'rating': }"
BV11556977,,周家店(公交站),交通设施服务;公交车站;公交车站相关,南堡二线,,121.544843,31.60420058,,上海市,,上海市,,崇明区,,"{'cost': , 'rating': }"
BV10036842,,浜镇(公交站),交通设施服务;公交车站;公交车站相关,南同专线;南同专线区间,,121.4891599,31.65056454,,上海市,,上海市,,崇明区,,"{'cost': , 'rating': }"
BV10036843,,浜西(公交站),交通设施服务;公交车站;公交车站相关,南同专线;南同专线区间,,121.4879191,31.6440447,,上海市,,上海市,,崇明区,,"{'cost': , 'rating': }"
BV10036841,,浜北(公交站),交通设施服务;公交车站;公交车站相关,南同专线;南同专线区间,,121.490123,31.65566255,,上海市,,上海市,,崇明区,,"{'cost': , 'rating': }"
BV10635689,,大椿村一队(公交站),交通设施服务;公交车站;公交车站相关,南堡支线,,121.5759551,31.61704927,,上海市,,上海市,,崇明区,,"{'cost': , 'rating': }"
BV11636114,,挑皮港(公交站),交通设施服务;公交车站;公交车站相关,崇明乡村10路,,121.5280779,31.60206357,,上海市,,上海市,,崇明区,,"{'cost': , 'rating': }"
BV10480237,,长江水产养殖场区(公交站),交通设施服务;公交车站;公交车站相关,崇明乡村7路,,121.5469727,31.68456629,,上海市,,上海市,,崇明区,,"{'cost': , 'rating': }"
BV11556976,,新新(公交站),交通设施服务;公交车站;公交车站相关,南堡二线,,121.5523834,31.60246614,,上海市,,上海市,,崇明区,,"{'cost': , 'rating': }"
BV11642002,,北新支路北群路(公交站),交通设施服务;公交车站;公交车站相关,1721路,,121.5310954,31.60103024,,上海市,,上海市,,崇明区,,"{'cost': , 'rating': }"
BV11553304,,元件六厂(公交站),交通设施服务;公交车站;公交车站相关,南江专线;堡胜专线,,121.5139812,31.68211933,,上海市,,上海市,,崇明区,,"{'cost': , 'rating': }"
BV10025053,,陈家宅(公交站),交通设施服务;公交车站;公交车站相关,南同专线;南同专线区间;南堡二线,,121.4858536,31.63376845,,上海市,,上海市,,崇明区,,"{'cost': , 'rating': }"
BV11520920,,蟠龙公路(公交站),交通设施服务;公交车站;公交车站相关,南堡二线,,121.4855592,31.63776662,,上海市,,上海市,,崇明区,,"{'cost': , 'rating': }"
BV11494701,,草港公路蟠龙公路(招呼站)(公交站),交通设施服务;公交车站;公交车站相关,南堡支线,,121.4852711,31.63780077,,上海市,,上海市,,崇明区,,"{'cost': , 'rating': }"
BV10036840,,进场路(公交站),交通设施服务;公交车站;公交车站相关,南同专线;南同专线区间,,121.4921362,31.66712999,,上海市,,上海市,,崇明区,,"{'cost': , 'rating': }"
BV11539834,,大椿村一队(招呼站)(公交站),交通设施服务;公交车站;公交车站相关,南堡支线,,121.5794988,31.61650176,,上海市,,上海市,,崇明区,,"{'cost': , 'rating': }"
BV10034468,,金桥村(公交站),交通设施服务;公交车站;公交车站相关,崇明乡村10路,,121.5235666,31.59962379,,上海市,,上海市,,崇明区,,"{'cost': , 'rating': }"
B0FFH10ZPE,,5-6连村路与镇中路交叉口,交通设施服务;交通服务相关;交通服务相关,镇中路与5、6连村路交叉口西20米,,121.484935,31.64929297,,上海市,,上海市,,崇明区,,"{'cost': , 'rating': }"
BV10028513,,蟠龙镇(公交站),交通设施服务;公交车站;公交车站相关,南同专线;南同专线区间;南堡二线,,121.4846578,31.62778191,,上海市,,上海市,,崇明区,,"{'cost': , 'rating': }"
BV09229241,,临时站(公交站),交通设施服务;公交车站;公交车站相关,南同专线;南同专线区间,,121.4852447,31.63059264,,上海市,,上海市,,崇明区,,"{'cost': , 'rating': }"
BV10339450,,育才村(公交站),交通设施服务;公交车站;公交车站相关,南堡支线,,121.5828366,31.61596859,,上海市,,上海市,,崇明区,,"{'cost': , 'rating': }"
BV10036570,,东平商店(公交站),交通设施服务;公交车站;公交车站相关,南同专线;南江专线;堡胜专线,,121.4930129,31.67288587,,上海市,,上海市,,崇明区,,"{'cost': , 'rating': }"
B0FFIB0RCD,,停车场(蟠东路),交通设施服务;停车场;公共停车场,向蟠支路与蟠龙公路交叉口西北20米,,121.4843518,31.627507,,上海市,,上海市,,崇明区,,"{'cost': , 'rating': }"
BV10034005,,前进农场(公交站),交通设施服务;公交车站;公交车站相关,堡胜专线;堡进线,,121.5952217,31.64360301,,上海市,,上海市,,崇明区,,"{'cost': , 'rating': }"
BV11564210,,前进大街(招呼站)(公交站),交通设施服务;公交车站;公交车站相关,堡进线,,121.5949614,31.64674809,,上海市,,上海市,,崇明区,,"{'cost': , 'rating': }"
BV10635692,,直河港(招呼站)(公交站),交通设施服务;公交车站;公交车站相关,南堡支线,,121.5855115,31.61553569,,上海市,,上海市,,崇明区,,"{'cost': , 'rating': }"
B0FFG7ICKE,,前进大街-道路停车位,交通设施服务;停车场;路边停车场,前进大街与北沿公路交叉口北320米,,121.5949154,31.6468231,,上海市,,上海市,,崇明区,,"{'cost': , 'rating': }"
BV11556980,,梅家庙(公交站),交通设施服务;公交车站;公交车站相关,南堡二线,,121.5620735,31.59832764,,上海市,,上海市,,崇明区,,"{'cost': , 'rating': }"
B0FFFL37BR,,紫海鹭缘香草庄园东停车场,交通设施服务;停车场;公共停车场,东平镇北沿公路2018号(蟠龙公路口)紫海鹭缘浪漫爱情主题公园内,,121.4911531,31.67453039,,上海市,,上海市,,崇明区,,"{'cost': , 'rating': }"
BV11642000,,北新支路为民路(公交站),交通设施服务;公交车站;公交车站相关,1721路,,121.5293065,31.59372,,上海市,,上海市,,崇明区,,"{'cost': , 'rating': }"
B0G3SXZKW6,,大同新机站,交通设施服务;交通服务相关;交通服务相关,区蟠南北路,,121.4798316,31.6304808,,上海市,,上海市,,崇明区,,"{'cost': , 'rating': }"
BV09238503,,临时站(公交站),交通设施服务;公交车站;公交车站相关,崇明乡村3路,,121.588639,31.61803153,,上海市,,上海市,,崇明区,,"{'cost': , 'rating': }"
BV09038813,,临时站1(公交站),交通设施服务;公交车站;公交车站相关,崇明乡村3路,,121.588648,31.61809553,,上海市,,上海市,,崇明区,,"{'cost': , 'rating': }"
BV11331652,,前柴路北沿公路(招呼站)(公交站),交通设施服务;公交车站;公交车站相关,堡进线,,121.5971498,31.64394378,,上海市,,上海市,,崇明区,,"{'cost': , 'rating': }"
B0HAVRA1PX,,紫海鹭缘香草庄园B区停车场,交通设施服务;停车场;公共停车场,东平镇北沿公路2018号(蟠龙公路口)紫海鹭缘香草庄园(西南角),,121.490321,31.67499593,,上海市,,上海市,,崇明区,,"{'cost': , 'rating': }"
BV11415959,,前柴路阿里山路(招呼站)(公交站),交通设施服务;公交车站;公交车站相关,堡进线,,121.5974745,31.6478498,,上海市,,上海市,,崇明区,,"{'cost': , 'rating': }"
BV11635049,,钱财公路阿里山路(招呼站)(公交站),交通设施服务;公交车站;公交车站相关,堡进线,,121.5974705,31.6477718,,上海市,,上海市,,崇明区,,"{'cost': , 'rating': }"
BV11494699,,西南路(招呼站)(公交站),交通设施服务;公交车站;公交车站相关,南堡二线;南堡支线,,121.476695,31.63962086,,上海市,,上海市,,崇明区,,"{'cost': , 'rating': }"
B0FFG6VQ1E,,响椿公路-道路停车位,交通设施服务;停车场;路边停车场,响椿公路与光明中路交叉口东40米,,121.5916941,31.61804296,,上海市,,上海市,,崇明区,,"{'cost': , 'rating': }"
BV10385629,,北沿公路林风公路(招呼站)(公交站),交通设施服务;公交车站;公交车站相关,南同专线;南江专线,,121.4867893,31.67519543,,上海市,,上海市,,崇明区,,"{'cost': , 'rating': }"
BV10946759,,招呼站(公交站),交通设施服务;公交车站;公交车站相关,堡进线,,121.6001788,31.64212006,,上海市,,上海市,,崇明区,,"{'cost': , 'rating': }"
BV10034478,,金桥村1队(公交站),交通设施服务;公交车站;公交车站相关,崇明乡村10路,,121.5176886,31.59222096,,上海市,,上海市,,崇明区,,"{'cost': , 'rating': }"
B0FFIB7MWN,,停车场,交通设施服务;停车场;公共停车场,响椿公路与春风东一路交叉口西100米,,121.5929335,31.61788602,,上海市,,上海市,,崇明区,,"{'cost': , 'rating': }"
BV10028666,,大棉桥(公交站),交通设施服务;公交车站;公交车站相关,崇明乡村3路,,121.5872029,31.61016831,,上海市,,上海市,,崇明区,,"{'cost': , 'rating': }"
BV09047154,,林风公路北沿公路招呼站(公交站),交通设施服务;公交车站;公交车站相关,堡胜专线,,121.486418,31.67528834,,上海市,,上海市,,崇明区,,"{'cost': , 'rating': }"
BV11634946,,前进锁厂(招呼站)(公交站),交通设施服务;公交车站;公交车站相关,堡胜专线,,121.6010507,31.64205079,,上海市,,上海市,,崇明区,,"{'cost': , 'rating': }"
BV10036844,,大同建筑站(公交站),交通设施服务;公交车站;公交车站相关,南同专线;南同专线区间,,121.4794722,31.62023779,,上海市,,上海市,,崇明区,,"{'cost': , 'rating': }"
BV10028664,,竖新卫生院(公交站),交通设施服务;公交车站;公交车站相关,崇明乡村3路,,121.5936126,31.61766403,,上海市,,上海市,,崇明区,,"{'cost': , 'rating': }"
BV11494700,,富安村(公交站),交通设施服务;公交车站;公交车站相关,南堡二线;南堡支线,,121.472284,31.64050645,,上海市,,上海市,,崇明区,,"{'cost': , 'rating': }"
BV11138216,,喇叭镇(公交站),交通设施服务;公交车站;公交车站相关,堡胜专线,,121.6015772,31.63478453,,上海市,,上海市,,崇明区,,"{'cost': , 'rating': }"
BV11549372,,东纺厂(公交站),交通设施服务;公交车站;公交车站相关,南东专线;南同专线;堡胜专线,,121.4863003,31.67819614,,上海市,,上海市,,崇明区,,"{'cost': , 'rating': }"
BV10027241,,新河镇(公交站),交通设施服务;公交车站;公交车站相关,1721路;南堡专线;南裕专线;南裕专线(陈家镇枢纽站);崇明乡村9路,,121.5172082,31.58926274,,上海市,,上海市,,崇明区,,"{'cost': , 'rating': }"
B0FFIB7SGA,,富民街-道路停车位,交通设施服务;停车场;路边停车场,富民路与草港公路交叉口北150米富民苑(草港公路)附近,,121.5939818,31.61631504,,上海市,,上海市,,崇明区,,"{'cost': , 'rating': }"
BV11634942,,仙桥北路(招呼站)(公交站),交通设施服务;公交车站;公交车站相关,堡胜专线,,121.6009396,31.63131673,,上海市,,上海市,,崇明区,,"{'cost': , 'rating': }"
BV10028663,,大新镇(公交站),交通设施服务;公交车站;公交车站相关,堡胜专线;崇明乡村3路,,121.5970661,31.61704974,,上海市,,上海市,,崇明区,,"{'cost': , 'rating': }"
BV11635328,,春风公路(招呼站)(公交站),交通设施服务;公交车站;公交车站相关,堡胜专线,,121.6006968,31.6300318,,上海市,,上海市,,崇明区,,"{'cost': , 'rating': }"
B0HDRHTVG2,,崇明岛徐根宝足球基地停车场(出入口),交通设施服务;停车场;停车场出入口,秀林路191号上海根宝足球基地内崇明岛徐根宝足球基地停车场,,121.4806368,31.67292925,,上海市,,上海市,,崇明区,,"{'cost': , 'rating': }"
BV10339443,,富民街(公交站),交通设施服务;公交车站;公交车站相关,南堡支线,,121.5943001,31.61414006,,上海市,,上海市,,崇明区,,"{'cost': , 'rating': }"
BV11138217,,春风站(公交站),交通设施服务;公交车站;公交车站相关,堡胜专线,,121.5996334,31.62433412,,上海市,,上海市,,崇明区,,"{'cost': , 'rating': }"
BV11641998,,北新支路新砖路(公交站),交通设施服务;公交车站;公交车站相关,1721路,,121.5265171,31.58838004,,上海市,,上海市,,崇明区,,"{'cost': , 'rating': }"
B0IA7CDP84,,龙群度假村地面停车场,交通设施服务;停车场;公共停车场,怡沁东路与怡沁南一路交叉口东280米,,121.4810903,31.67340459,,上海市,,上海市,,崇明区,,"{'cost': , 'rating': }"
BV10027237,,八渡界(公交站),交通设施服务;公交车站;公交车站相关,南堡专线,,121.5002768,31.59564112,,上海市,,上海市,,崇明区,,"{'cost': , 'rating': }"
BV11368307,,新梅路(招呼站)(公交站),交通设施服务;公交车站;公交车站相关,南堡专线,,121.506955,31.59306104,,上海市,,上海市,,崇明区,,"{'cost': , 'rating': }"
BV10039593,,团城公路北新公路(公交站),交通设施服务;公交车站;公交车站相关,崇明乡村10路,,121.5170386,31.58931426,,上海市,,上海市,,崇明区,,"{'cost': , 'rating': }"
BV11368308,,新薇路(招呼站)(公交站),交通设施服务;公交车站;公交车站相关,南堡专线,,121.5129263,31.59076151,,上海市,,上海市,,崇明区,,"{'cost': , 'rating': }"
B0H2VCVH2P,,根宝足球基地停车场(出入口),交通设施服务;停车场;停车场出入口,怡沁东路与怡沁南一路交叉口东240米,,121.4806368,31.67292925,,上海市,,上海市,,崇明区,,"{'cost': , 'rating': }"
B0IA7CEBDC,,龙群度假村地面停车场(出入口),交通设施服务;停车场;停车场出入口,怡沁东路与怡沁南一路交叉口东280米,,121.4810903,31.67340459,,上海市,,上海市,,崇明区,,"{'cost': , 'rating': }"
BV10034004,,前进锁厂(公交站),交通设施服务;公交车站;公交车站相关,堡进线,,121.6047019,31.64124829,,上海市,,上海市,,崇明区,,"{'cost': , 'rating': }"
BV11556978,,新烈路(公交站),交通设施服务;公交车站;公交车站相关,南堡二线,,121.574301,31.59575947,,上海市,,上海市,,崇明区,,"{'cost': , 'rating': }"
B0H2VCX4DP,,根宝足球基地停车场,交通设施服务;停车场;公共停车场,秀林路191号上海根宝足球基地内,,121.4792299,31.67285617,,上海市,,上海市,,崇明区,,"{'cost': , 'rating': }"
BV10028667,,施家河沿(公交站),交通设施服务;公交车站;公交车站相关,崇明乡村3路,,121.5861048,31.60385614,,上海市,,上海市,,崇明区,,"{'cost': , 'rating': }"
BV11326395,,招呼站(公交站),交通设施服务;公交车站;公交车站相关,南东专线,,121.4870016,31.68124939,,上海市,,上海市,,崇明区,,"{'cost': , 'rating': }"
BV10384343,,新河敬老院(招呼站)(公交站),交通设施服务;公交车站;公交车站相关,南裕专线;南裕专线(陈家镇枢纽站),,121.5295579,31.585603,,上海市,,上海市,,崇明区,,"{'cost': , 'rating': }"
BV09242382,,临时站(公交站),交通设施服务;公交车站;公交车站相关,南东专线;堡胜专线,,121.4871731,31.68199994,,上海市,,上海市,,崇明区,,"{'cost': , 'rating': }"
B0H231TSMW,,路边停车场(新中路),交通设施服务;停车场;停车场相关,新中路与团城公路交叉口南60米,,121.5203931,31.58775565,,上海市,,上海市,,崇明区,,"{'cost': , 'rating': }"
BV09047155,,风伟新村(公交站),交通设施服务;公交车站;公交车站相关,南同专线;堡胜专线,,121.4871731,31.68199994,,上海市,,上海市,,崇明区,,"{'cost': , 'rating': }"
B0G3M94AX9,,上海协通众明汽车销售服务有限公司停车场,交通设施服务;停车场;停车场相关,新薇路与团城公路交叉口西南140米,,121.5114673,31.58993034,,上海市,,上海市,,崇明区,,"{'cost': , 'rating': }"
BV11368309,,井亭路(招呼站)(公交站),交通设施服务;公交车站;公交车站相关,南堡专线,,121.4951451,31.59761768,,上海市,,上海市,,崇明区,,"{'cost': , 'rating': }"
B0FFIGNRM0,,新中路-道路停车位,交通设施服务;停车场;路边停车场,新中路与团城公路交叉口南100米,,121.5201443,31.58735199,,上海市,,上海市,,崇明区,,"{'cost': , 'rating': }"
B0FFIB4F00,,停车场,交通设施服务;停车场;公共停车场,竖新镇前竖公路3028号附近,,121.5984151,31.61747248,,上海市,,上海市,,崇明区,,"{'cost': , 'rating': }"
BV11297506,,新中路新景路(公交站),交通设施服务;公交车站;公交车站相关,崇明E乘巴士1号线,,121.519717,31.58634486,,上海市,,上海市,,崇明区,,"{'cost': , 'rating': }"
B00156EE3Z,,新河镇停车场,交通设施服务;停车场;公共停车场,北新支路158号,13817134830,121.5255081,31.58597151,,上海市,,上海市,,崇明区,,"{'cost': , 'rating': }"
BV10034471,,新中路新景路(公交站),交通设施服务;公交车站;公交车站相关,崇明乡村10路,,121.519717,31.58634486,,上海市,,上海市,,崇明区,,"{'cost': , 'rating': }"
B0I6UZFQGW,,上海滨江度假中心停车场,交通设施服务;停车场;公共停车场,北沿公路与贞薇路交叉口南140米,,121.4797595,31.67565284,,上海市,,上海市,,崇明区,,"{'cost': , 'rating': }"
B0I6UZEOGN,,上海滨江度假中心停车场(出入口),交通设施服务;停车场;停车场出入口,北沿公路与贞薇路交叉口南140米,,121.4797514,31.67564082,,上海市,,上海市,,崇明区,,"{'cost': , 'rating': }"
BV10027239,,新申路(公交站),交通设施服务;公交车站;公交车站相关,南堡专线,,121.5140987,31.58673606,,上海市,,上海市,,崇明区,,"{'cost': , 'rating': }"
B0FFIBHPX5,,停车场,交通设施服务;停车场;公共停车场,新中路与新景路交叉口东北40米,,121.5197772,31.58631503,,上海市,,上海市,,崇明区,,"{'cost': , 'rating': }"
B0FFG69O8K,,道路停车位,交通设施服务;停车场;路边停车场,前竖公路与响椿公路交叉口东80米,,121.5990411,31.61644035,,上海市,,上海市,,崇明区,,"{'cost': , 'rating': }"
BV09209228,,大新十字路口(招呼站)(公交站),交通设施服务;公交车站;公交车站相关,南堡支线,,121.5980594,31.61351662,,上海市,,上海市,,崇明区,,"{'cost': , 'rating': }"
BV10027236,,东平大桥(公交站),交通设施服务;公交车站;公交车站相关,南堡专线,,121.4862939,31.60180214,,上海市,,上海市,,崇明区,,"{'cost': , 'rating': }"
B00156EEIN,,东平国家森林公园1号门南停车场,交通设施服务;停车场;公共停车场,区北沿公路2188号,,121.4764729,31.6775755,,上海市,,上海市,,崇明区,,"{'cost': , 'rating': }"
BV11520763,,唐家宅(招呼站)(公交站),交通设施服务;公交车站;公交车站相关,南堡二线;南堡支线,,121.4668972,31.6419158,,上海市,,上海市,,崇明区,,"{'cost': , 'rating': }"
B0IGVS12CL,,新河镇社区事务受理服务中心停车场,交通设施服务;停车场;停车场相关,新申公路与新河公路交叉口东北220米,,121.5140445,31.58695189,,上海市,,上海市,,崇明区,,"{'cost': , 'rating': }"
B0FFFYFXL0,,东平国家森林公园P1停车场,交通设施服务;停车场;公共停车场,北沿公路2288号东平国家森林公园内(南侧),,121.4777814,31.67812027,,上海市,,上海市,,崇明区,,"{'cost': , 'rating': }"
BV11641996,,北新支路新景路(公交站),交通设施服务;公交车站;公交车站相关,1721路,,121.5236742,31.58450171,,上海市,,上海市,,崇明区,,"{'cost': , 'rating': }"
B0FFIBHP69,,新中路-道路停车位,交通设施服务;停车场;路边停车场,新中路与新景路交叉口南80米,,121.5194451,31.58538216,,上海市,,上海市,,崇明区,,"{'cost': , 'rating': }"
BV10036845,,建设村(公交站),交通设施服务;公交车站;公交车站相关,南同专线;南同专线区间,,121.4748028,31.61369153,,上海市,,上海市,,崇明区,,"{'cost': , 'rating': }"
BV11542172,,娱乐区(公交站),交通设施服务;公交车站;公交车站相关,(停运)花博会园区游览车,,121.484949,31.68462452,,上海市,,上海市,,崇明区,,"{'cost': , 'rating': }"
BV11634944,,三号河南路(招呼站)(公交站),交通设施服务;公交车站;公交车站相关,堡胜专线;崇明乡村3路,,121.5968987,31.6096629,,上海市,,上海市,,崇明区,,"{'cost': , 'rating': }"
B0FFIBHQCS,,新中路-道路停车位,交通设施服务;停车场;路边停车场,新中路707号附近,,121.5191502,31.58466338,,上海市,,上海市,,崇明区,,"{'cost': , 'rating': }"
BV11542173,,彩弹射击(公交站),交通设施服务;公交车站;公交车站相关,(停运)花博会园区游览车,,121.4798233,31.67957924,,上海市,,上海市,,崇明区,,"{'cost': , 'rating': }"
B0H6P5PV89,,东平国家森林公园P2停车场(房车专用停车场),交通设施服务;停车场;专用停车场,北沿公路2188号东平国家森林公园内(南侧),021-59338666,121.4760564,31.67864738,,上海市,,上海市,,崇明区,,"{'cost': , 'rating': }"
B0HRP610NE,,东平国家森林公园P3停车场,交通设施服务;停车场;停车场相关,北沿公路2188号,021-59338028,121.4762913,31.67761699,,上海市,,上海市,,崇明区,,"{'cost': , 'rating': }"
B0FFG297UR,,东平国家森林公园-小火车2号停靠站,交通设施服务;交通服务相关;交通服务相关,东平东大道和棕榈路的交叉口附近,,121.4830223,31.68276174,,上海市,,上海市,,崇明区,,"{'cost': , 'rating': }"
BV10027235,,二条竖河(公交站),交通设施服务;公交车站;公交车站相关,南堡专线,,121.4773511,31.60705791,,上海市,,上海市,,崇明区,,"{'cost': , 'rating': }"
B0FFH0ZVFR,,中国建设银行(上海新河支行)地面停车场,交通设施服务;停车场;公共停车场,新开河路558号中国建设银行(上海新河支行),,121.5222045,31.58333182,,上海市,,上海市,,崇明区,,"{'cost': , 'rating': }"
B0HRVODY2U,,东平国家森林公园P1停车场(出入口),交通设施服务;停车场;停车场出入口,北沿公路东平国家森林公园P1停车场,,121.4774924,31.67791943,,上海市,,上海市,,崇明区,,"{'cost': , 'rating': }"
B0H237S0X5,,宝岛森林衡山酒店停车场,交通设施服务;停车场;公共停车场,北沿公路与水杉西路交叉口南220米,,121.475871,31.67598571,,上海市,,上海市,,崇明区,,"{'cost': , 'rating': }"
B0FFFDLAY8,,崇明自行车旅游岛,交通设施服务;交通服务相关;交通服务相关,北沿公路与水杉西路交叉口西北20米,,121.4761548,31.67802562,,上海市,,上海市,,崇明区,,"{'cost': , 'rating': }"
BV09045886,,招呼站(公交站),交通设施服务;公交车站;公交车站相关,南堡专线,,121.481855,31.60388502,,上海市,,上海市,,崇明区,,"{'cost': , 'rating': }"
B0J6DABAGH,,中国建设银行(上海新河支行)地面停车场(出入口),交通设施服务;停车场;停车场出入口,中国建设银行(上海新河支行)地面停车场,,121.5222848,31.58331603,,上海市,,上海市,,崇明区,,"{'cost': , 'rating': }"
B0FFIBHOR7,,停车场,交通设施服务;停车场;公共停车场,新河公路与新中路交叉口东40米,,121.5192336,31.58372866,,上海市,,上海市,,崇明区,,"{'cost': , 'rating': }"
B0H237RT6Q,,宝岛森林衡山酒店停车场(出入口),交通设施服务;停车场;停车场出入口,北沿公路与水杉东路交叉口东南40米,,121.4770028,31.67749501,,上海市,,上海市,,崇明区,,"{'cost': , 'rating': }"
B0H07A2L52,,新河大酒店新河镇店停车场,交通设施服务;停车场;公共停车场,新河公路与新中路交叉口西100米,,121.5176331,31.5837492,,上海市,,上海市,,崇明区,,"{'cost': , 'rating': }"
BV10024545,,森林公园(公交站),交通设施服务;公交车站;公交车站相关,南东专线;南江专线,,121.47593,31.67800098,,上海市,,上海市,,崇明区,,"{'cost': , 'rating': }"
B0FFGECPB3,,东平国家森林公园停车场(出入口),交通设施服务;停车场;停车场出入口,东平国家森林公园1号门东停车场,,121.4761909,31.67787072,,上海市,,上海市,,崇明区,,"{'cost': , 'rating': }"
B0H07A3UXB,,新河大酒店新河镇店停车场(出入口),交通设施服务;停车场;停车场出入口,新河公路与新中路交叉口西80米,,121.5178017,31.58388866,,上海市,,上海市,,崇明区,,"{'cost': , 'rating': }"
BV11542169,,南1号门(公交站),交通设施服务;公交车站;公交车站相关,(停运)花博会园区游览车,,121.4784726,31.67993936,,上海市,,上海市,,崇明区,,"{'cost': , 'rating': }"
BV10480239,,新光林家乐10号(公交站),交通设施服务;公交车站;公交车站相关,崇明乡村7路,,121.5452997,31.70496837,,上海市,,上海市,,崇明区,,"{'cost': , 'rating': }"
B0FFLGLJ95,,停车场(出入口),交通设施服务;停车场;停车场出入口,北沿公路与水杉东路交叉口东20米,,121.4769285,31.67780582,,上海市,,上海市,,崇明区,,"{'cost': , 'rating': }"
B0FFIBEEHA,,停车场(崇明区新河镇少年之家东南),交通设施服务;停车场;公共停车场,新河公路与新影路交叉口西60米,,121.5204397,31.58317701,,上海市,,上海市,,崇明区,,"{'cost': , 'rating': }"
BV11549373,,强力站(公交站),交通设施服务;公交车站;公交车站相关,南东专线;南同专线;堡胜专线,,121.4890341,31.690274,,上海市,,上海市,,崇明区,,"{'cost': , 'rating': }"
BV11479170,,竞存小学(招呼站)(公交站),交通设施服务;公交车站;公交车站相关,南堡专线,,121.525976,31.58157197,,上海市,,上海市,,崇明区,,"{'cost': , 'rating': }"
BV09168071,,新中路新河公路(公交站),交通设施服务;公交车站;公交车站相关,崇明乡村9路,,121.5182834,31.58293106,,上海市,,上海市,,崇明区,,"{'cost': , 'rating': }"
BV11638305,,新中路新河马路(公交站),交通设施服务;公交车站;公交车站相关,崇明乡村10路,,121.5181058,31.58259958,,上海市,,上海市,,崇明区,,"{'cost': , 'rating': }"
BV09168065,,竞存小学(公交站),交通设施服务;公交车站;公交车站相关,崇明乡村9路,,121.5256308,31.58170206,,上海市,,上海市,,崇明区,,"{'cost': , 'rating': }"
B0H3G555SJ,,碧海银沙停车场,交通设施服务;停车场;公共停车场,恒大商业中心东北侧,,121.9363276,31.72316961,,江苏省,,南通市,,启东市,,"{'cost': , 'rating': }"
B0HA1CFMP3,,恒大海上威尼斯酒店地下停车场,交通设施服务;停车场;公共停车场,恒大海上威尼斯酒店东北侧160米,,121.9354462,31.72056085,,江苏省,,南通市,,启东市,,"{'cost': , 'rating': }"
B0IR3HH2MN,,内部地面停车场,交通设施服务;停车场;专用停车场,,,121.9343036,31.72424709,,江苏省,,南通市,,启东市,,"{'cost': , 'rating': }"
B0IR3HHPS2,,内部地面停车场(出入口),交通设施服务;停车场;停车场出入口,恒大商业中心西北侧220米,,121.9343036,31.72424709,,江苏省,,南通市,,启东市,,"{'cost': , 'rating': }"
B0IBR7V0L6,,恒大海上威尼斯酒店地面停车场,交通设施服务;停车场;公共停车场,,,121.9331448,31.71847639,,江苏省,,南通市,,启东市,,"{'cost': , 'rating': }"
B0FFK1ZS6N,,羽毛球中心停车场,交通设施服务;停车场;停车场相关,恒大海上威尼斯,,121.9335804,31.71591546,,江苏省,,南通市,,启东市,,"{'cost': , 'rating': }"
B0IBR7WQNG,,恒大海上威尼斯酒店地面停车场(入口),交通设施服务;停车场;停车场入口,恒大威尼斯健康中心北侧100米,,121.9331448,31.71847639,,江苏省,,南通市,,启东市,,"{'cost': , 'rating': }"
B0FFL8TG0H,,恒大威尼斯新停车场,交通设施服务;交通服务相关;交通服务相关,观海渔港(恒大店)西南侧90米,,121.934008,31.71350156,,江苏省,,南通市,,启东市,,"{'cost': , 'rating': }"
B0I16AX8IH,,地面停车场,交通设施服务;停车场;公共停车场,,,121.9329762,31.71742855,,江苏省,,南通市,,启东市,,"{'cost': , 'rating': }"
B0I16AYAYF,,地面停车场(出入口),交通设施服务;停车场;停车场出入口,恒大海上威尼斯33号东侧210米,,121.9329762,31.71742855,,江苏省,,南通市,,启东市,,"{'cost': , 'rating': }"
B0I2GHFH2P,,地面停车场,交通设施服务;停车场;公共停车场,,,121.9332061,31.7142669,,江苏省,,南通市,,启东市,,"{'cost': , 'rating': }"
B0I2GHD29M,,地面停车场(出入口),交通设施服务;停车场;停车场出入口,地面停车场,,121.9332061,31.7142669,,江苏省,,南通市,,启东市,,"{'cost': , 'rating': }"
B0I10C98CO,,地面停车场,交通设施服务;停车场;公共停车场,闻香大道西侧,,121.9296744,31.7206568,,江苏省,,南通市,,启东市,,"{'cost': , 'rating': }"
B0I10C3FET,,地面停车场(出入口),交通设施服务;停车场;停车场出入口,闻香大道西侧地面停车场,,121.9296744,31.7206568,,江苏省,,南通市,,启东市,,"{'cost': , 'rating': }"
B0IRHMSRD9,,启东恒大海上城堡酒店地面停车点,交通设施服务;停车场;公共停车场,,,121.9310614,31.71024684,,江苏省,,南通市,,启东市,,"{'cost': , 'rating': }"
B0IRHMQMKL,,启东恒大海上城堡酒店地面停车点(出入口),交通设施服务;停车场;停车场出入口,,,121.9310614,31.71024684,,江苏省,,南通市,,启东市,,"{'cost': , 'rating': }"
B0I10Z0ECP,,内部地下停车场,交通设施服务;停车场;专用停车场,,,121.9257643,31.72850784,,江苏省,,南通市,,启东市,,"{'cost': , 'rating': }"
B0I10Z63NT,,内部地下停车场(出入口),交通设施服务;停车场;停车场出入口,内部地下停车场,,121.9259211,31.72849564,,江苏省,,南通市,,启东市,,"{'cost': , 'rating': }"
BV09236984,,恒大北区(公交站),交通设施服务;公交车站;公交车站相关,启东312路,,121.9169511,31.72444283,,江苏省,,南通市,,启东市,,"{'cost': , 'rating': }"
B0IRRZDNKH,,乐世界儿童王国地面停车场,交通设施服务;停车场;公共停车场,恒大路与中央大道交叉口东60米,,121.9169335,31.72039345,,江苏省,,南通市,,启东市,,"{'cost': , 'rating': }"
B0FFL79OLU,,恒大海上威尼斯停车场(出入口),交通设施服务;停车场;停车场出入口,恒大路与文旅大道交叉口东20米,,121.9165077,31.72076685,,江苏省,,南通市,,启东市,,"{'cost': , 'rating': }"
B02010XP6T,,停车场(堤顶公路),交通设施服务;停车场;公共停车场,中央大道与恒大路交叉口东北120米,,121.9169134,31.72168459,,江苏省,,南通市,,启东市,,"{'cost': , 'rating': }"
B0IRRZEGP2,,乐世界儿童王国地面停车场(出入口),交通设施服务;停车场;停车场出入口,乐世界儿童王国地面停车场,,121.9169714,31.72038941,,江苏省,,南通市,,启东市,,"{'cost': , 'rating': }"
BV09177009,,临时站(公交站),交通设施服务;公交车站;公交车站相关,启东221路;启东222路;启东312路,,121.9158382,31.71978232,,江苏省,,南通市,,启东市,,"{'cost': , 'rating': }"
B0IR9CQQNC,,恒大五国风情温泉地面停车场,交通设施服务;停车场;公共停车场,海城路与中央大道交叉口东220米,,121.9191067,31.735518,,江苏省,,南通市,,启东市,,"{'cost': , 'rating': }"
B0IROC03MW,,永恒度假公寓(启东恒大威尼斯店)地面停车点,交通设施服务;停车场;公共停车场,海城路与中央大道交叉口东220米,,121.9191137,31.73549799,,江苏省,,南通市,,启东市,,"{'cost': , 'rating': }"
B0IROCZ97U,,永恒度假公寓启东恒大威尼斯店地面停车点(出入口),交通设施服务;停车场;停车场出入口,永恒度假公寓(启东恒大威尼斯店)地面停车点,,121.9191287,31.73539996,,江苏省,,南通市,,启东市,,"{'cost': , 'rating': }"
BV10587017,,恒大威尼斯(公交站),交通设施服务;公交车站;公交车站相关,启东221路;启东222路;启东238路,,121.9142328,31.72157674,,江苏省,,南通市,,启东市,,"{'cost': , 'rating': }"
B0IR9CMNZE,,恒大五国风情温泉地面停车场(出入口),交通设施服务;停车场;停车场出入口,海城路与中央大道交叉口东220米,,121.9191287,31.73539996,,江苏省,,南通市,,启东市,,"{'cost': , 'rating': }"
B02010XGGN,,黄金海滩风景区游船码头,交通设施服务;港口码头;人渡口,圆陀角旅游度假区黄金海滩景区,,121.9282618,31.7486408,,江苏省,,南通市,,启东市,,"{'cost': , 'rating': }"
B0I017W41L,,地面停车场,交通设施服务;停车场;公共停车场,恒大路与文旅大道交叉口西140米,,121.9146997,31.72112235,,江苏省,,南通市,,启东市,,"{'cost': , 'rating': }"
BV09236983,,恒大世纪海岸(公交站),交通设施服务;公交车站;公交车站相关,启东312路,,121.9167565,31.7332689,,江苏省,,南通市,,启东市,,"{'cost': , 'rating': }"
B0I017V9W5,,地面停车场(出入口),交通设施服务;停车场;停车场出入口,地面停车场,,121.9147296,31.72120033,,江苏省,,南通市,,启东市,,"{'cost': , 'rating': }"
B0I017WIKQ,,地面停车场(出入口),交通设施服务;停车场;停车场出入口,地面停车场,,121.9147296,31.72120033,,江苏省,,南通市,,启东市,,"{'cost': , 'rating': }"
B0I3CRQES9,,内部地下停车场,交通设施服务;停车场;专用停车场,文旅大道与江城路交叉口东340米,,121.9154202,31.71042981,,江苏省,,南通市,,启东市,,"{'cost': , 'rating': }"
B0I3CRP0AI,,内部地下停车场(出入口),交通设施服务;停车场;停车场出入口,内部地下停车场,,121.9154202,31.71042981,,江苏省,,南通市,,启东市,,"{'cost': , 'rating': }"
BV09236982,,恒大南区(公交站),交通设施服务;公交车站;公交车站相关,启东238路;启东312路,,121.913442,31.71240348,,江苏省,,南通市,,启东市,,"{'cost': , 'rating': }"
B0I2O7T9IX,,内部地面停车场,交通设施服务;停车场;专用停车场,文旅大道与江城路交叉口东北200米,,121.91358,31.7114583,,江苏省,,南通市,,启东市,,"{'cost': , 'rating': }"
B0I2O7SGIW,,内部地面停车场(出入口),交通设施服务;停车场;停车场出入口,内部地面停车场,,121.9137149,31.7114712,,江苏省,,南通市,,启东市,,"{'cost': , 'rating': }"
BV09226730,,临时站(公交站),交通设施服务;公交车站;公交车站相关,启东238路,,121.9133151,31.71196953,,江苏省,,南通市,,启东市,,"{'cost': , 'rating': }"
B0I2JU0S5D,,大众隆耀发车点,交通设施服务;交通服务相关;交通服务相关,恒大路1号,,121.911534,31.72090553,,江苏省,,南通市,,启东市,,"{'cost': , 'rating': }"
B0FFL2633A,,黄金海滩停车场,交通设施服务;停车场;公共停车场,黄金海滩,,121.9207714,31.74790775,,江苏省,,南通市,,启东市,,"{'cost': , 'rating': }"
BV09275802,,恒大旅游服务中心(公交站),交通设施服务;公交车站;公交车站相关,启东221路;启东222路,,121.9103883,31.72170429,,江苏省,,南通市,,启东市,,"{'cost': , 'rating': }"
B0HR9Z6W1L,,黄金海滩景区滨海广场停车点,交通设施服务;停车场;公共停车场,黄金海滩景区-湿地迷宫西南侧470米,,121.9209103,31.74774158,,江苏省,,南通市,,启东市,,"{'cost': , 'rating': }"
B0FFK2C8EC,,恒大海上威尼斯游客停车场,交通设施服务;停车场;专用停车场,寅阳镇恒大路1号,,121.9081847,31.72189947,,江苏省,,南通市,,启东市,,"{'cost': , 'rating': }"
BV09236981,,新湖(公交站),交通设施服务;公交车站;公交车站相关,启东238路;启东312路,,121.9077159,31.70865449,,江苏省,,南通市,,启东市,,"{'cost': , 'rating': }"
BV11056834,,恒大路(公交站),交通设施服务;公交车站;公交车站相关,启东221路;启东222路,,121.905302,31.72110357,,江苏省,,南通市,,启东市,,"{'cost': , 'rating': }"
B0IRT7CDEQ,,海螺站,交通设施服务;交通服务相关;交通服务相关,圆陀角旅游度假区,,121.9057831,31.6961323,,江苏省,,南通市,,启东市,,"{'cost': , 'rating': }"
B0JR47A7R1,,圆陀角风景区P1停车场,交通设施服务;停车场;公共停车场,圆陀角风景区,,121.9033977,31.70059438,,江苏省,,南通市,,启东市,,"{'cost': , 'rating': }"
BV09212104,,新湖大道(公交站),交通设施服务;公交车站;公交车站相关,启东221路;启东222路,,121.8992418,31.71225603,,江苏省,,南通市,,启东市,,"{'cost': , 'rating': }"
BV11056826,,沿江公路海防路(公交站),交通设施服务;公交车站;公交车站相关,启东221路;启东222路,,121.8962437,31.71134697,,江苏省,,南通市,,启东市,,"{'cost': , 'rating': }"
BV09250872,,新湖绿地海上明月(公交站),交通设施服务;公交车站;公交车站相关,启东238路,,121.897756,31.70413241,,江苏省,,南通市,,启东市,,"{'cost': , 'rating': }"
BV11056841,,圆陀角一路(公交站),交通设施服务;公交车站;公交车站相关,启东222路,,121.8935596,31.71959341,,江苏省,,南通市,,启东市,,"{'cost': , 'rating': }"
BV11056827,,连兴港二路(公交站),交通设施服务;公交车站;公交车站相关,启东222路,,121.8935455,31.7216306,,江苏省,,南通市,,启东市,,"{'cost': , 'rating': }"
BV11056831,,连兴港一路(公交站),交通设施服务;公交车站;公交车站相关,启东222路,,121.8935151,31.72614304,,江苏省,,南通市,,启东市,,"{'cost': , 'rating': }"
BV11056820,,连兴港路(公交站),交通设施服务;公交车站;公交车站相关,启东222路;启东312路,,121.8935849,31.71672915,,江苏省,,南通市,,启东市,,"{'cost': , 'rating': }"
BV11056819,,圆陀角二路(公交站),交通设施服务;公交车站;公交车站相关,启东222路,,121.8935282,31.72423485,,江苏省,,南通市,,启东市,,"{'cost': , 'rating': }"
BV11358807,,玉龙寺(公交站),交通设施服务;公交车站;公交车站相关,启东238路,,121.894284,31.70788048,,江苏省,,南通市,,启东市,,"{'cost': , 'rating': }"
BV11056839,,圆陀角三路(公交站),交通设施服务;公交车站;公交车站相关,启东222路,,121.8935089,31.72820125,,江苏省,,南通市,,启东市,,"{'cost': , 'rating': }"
BV11056838,,胜丰南路(公交站),交通设施服务;公交车站;公交车站相关,启东222路,,121.8935087,31.73007644,,江苏省,,南通市,,启东市,,"{'cost': , 'rating': }"
BV11056830,,胜丰北路(公交站),交通设施服务;公交车站;公交车站相关,启东222路,,121.8934714,31.73408386,,江苏省,,南通市,,启东市,,"{'cost': , 'rating': }"
BV09252443,,小协兴河路(公交站),交通设施服务;公交车站;公交车站相关,启东221路,,121.8916232,31.71032816,,江苏省,,南通市,,启东市,,"{'cost': , 'rating': }"
BV11056825,,圆陀角七路(公交站),交通设施服务;公交车站;公交车站相关,启东222路,,121.893447,31.73816831,,江苏省,,南通市,,启东市,,"{'cost': , 'rating': }"
BV10988638,,小协兴河桥(公交站),交通设施服务;公交车站;公交车站相关,启东238路,,121.8916232,31.71032816,,江苏省,,南通市,,启东市,,"{'cost': , 'rating': }"
BV09250871,,大禹公园(公交站),交通设施服务;公交车站;公交车站相关,启东238路,,121.8922582,31.70247467,,江苏省,,南通市,,启东市,,"{'cost': , 'rating': }"
BV11056828,,海防镇南市梢(公交站),交通设施服务;公交车站;公交车站相关,启东222路,,121.8932396,31.74149764,,江苏省,,南通市,,启东市,,"{'cost': , 'rating': }"
BV10988640,,海防镇(公交站),交通设施服务;公交车站;公交车站相关,启东213路;启东222路;启东312路,,121.8919046,31.74384463,,江苏省,,南通市,,启东市,,"{'cost': , 'rating': }"
B0FFGNEJCG,,圆陀角风景区停车场,交通设施服务;停车场;公共停车场,海防线圆陀角风景区,,121.8898178,31.69877171,,江苏省,,南通市,,启东市,,"{'cost': , 'rating': }"
BV11461639,,横河南桥(公交站),交通设施服务;公交车站;公交车站相关,启东213路,,121.8926239,31.74584303,,江苏省,,南通市,,启东市,,"{'cost': , 'rating': }"
BV11461645,,南滨南路(公交站),交通设施服务;公交车站;公交车站相关,启东213路,,121.8920422,31.74916229,,江苏省,,南通市,,启东市,,"{'cost': , 'rating': }"
BV11461653,,圆陀角十二路(公交站),交通设施服务;公交车站;公交车站相关,启东213路,,121.8922131,31.75126759,,江苏省,,南通市,,启东市,,"{'cost': , 'rating': }"
BV10988637,,寅阳一大队路口(公交站),交通设施服务;公交车站;公交车站相关,启东213路;启东222路,,121.8861779,31.74271942,,江苏省,,南通市,,启东市,,"{'cost': , 'rating': }"
BV09099778,,连兴港林连路(公交站),交通设施服务;公交车站;公交车站相关,启东221路;启东238路,,121.883474,31.70836354,,江苏省,,南通市,,启东市,,"{'cost': , 'rating': }"
BV11461655,,圆陀角十四路(公交站),交通设施服务;公交车站;公交车站相关,启东213路,,121.892443,31.75472407,,江苏省,,南通市,,启东市,,"{'cost': , 'rating': }"
BV11461663,,东海镇南埭(公交站),交通设施服务;公交车站;公交车站相关,启东213路,,121.8910848,31.75824418,,江苏省,,南通市,,启东市,,"{'cost': , 'rating': }"
BV09099774,,小协兴河桥(公交站),交通设施服务;公交车站;公交车站相关,启东213路;启东222路,,121.8809564,31.74168525,,江苏省,,南通市,,启东市,,"{'cost': , 'rating': }"
B0FFH3LRKB,,连兴港海监码头,交通设施服务;港口码头;港口码头,圆陀角渔人码头旅游风景区东侧230米,,121.8835736,31.6910843,,江苏省,,南通市,,启东市,,"{'cost': , 'rating': }"
BV11461652,,圆陀角十七路(公交站),交通设施服务;公交车站;公交车站相关,启东213路,,121.890298,31.76089629,,江苏省,,南通市,,启东市,,"{'cost': , 'rating': }"
BV11501813,,渔人码头(公交站),交通设施服务;公交车站;公交车站相关,启东D02路,,121.8816453,31.69206516,,江苏省,,南通市,,启东市,,"{'cost': , 'rating': }"
B0H23SRYWY,,海底小纵队东海大冒险探险乐园停车场,交通设施服务;停车场;公共停车场,寅阳镇连兴港村江枫路88号海底小纵队东海大冒险探险乐园,,121.8791399,31.69629768,,江苏省,,南通市,,启东市,,"{'cost': , 'rating': }"
B0KDGMKME9,,旅居车营地停车场,交通设施服务;停车场;公共停车场,江枫路100号,,121.8773661,31.7018317,,江苏省,,南通市,,启东市,,"{'cost': , 'rating': }"
B0I1VZYKWE,,地面停车场,交通设施服务;停车场;公共停车场,江枫路与海防公路交叉口南60米,,121.8795385,31.69608797,,江苏省,,南通市,,启东市,,"{'cost': , 'rating': }"
B0H23SRK5Y,,海底小纵队东海大冒险探险乐园停车场出入口,交通设施服务;停车场;停车场出入口,海底小纵队东海大冒险探险乐园停车场,,121.8790658,31.69649364,,江苏省,,南通市,,启东市,,"{'cost': , 'rating': }"
B0I1VZYDDY,,地面停车场(出入口),交通设施服务;停车场;停车场出入口,地面停车场,,121.8795385,31.69608797,,江苏省,,南通市,,启东市,,"{'cost': , 'rating': }"
BV11461660,,兴海三路(公交站),交通设施服务;公交车站;公交车站相关,启东213路,,121.8896963,31.7631694,,江苏省,,南通市,,启东市,,"{'cost': , 'rating': }"
BV09099780,,连兴港路口(公交站),交通设施服务;公交车站;公交车站相关,启东238路,,121.8734161,31.70582749,,江苏省,,南通市,,启东市,,"{'cost': , 'rating': }"
BV10586992,,连兴港(公交站),交通设施服务;公交车站;公交车站相关,启东221路,,121.8734161,31.70582749,,江苏省,,南通市,,启东市,,"{'cost': , 'rating': }"
BV11461650,,兴海五路(公交站),交通设施服务;公交车站;公交车站相关,启东213路,,121.8880626,31.76711132,,江苏省,,南通市,,启东市,,"{'cost': , 'rating': }"
B0HKD942I7,,连兴港,交通设施服务;港口码头;港口码头,连兴河路东侧,,121.8679408,31.72298325,,江苏省,,南通市,,启东市,,"{'cost': , 'rating': }"
BV10988641,,林连路(公交站),交通设施服务;公交车站;公交车站相关,启东213路;启东222路,,121.8715845,31.73934793,,江苏省,,南通市,,启东市,,"{'cost': , 'rating': }"
BV11461654,,兴海六路(公交站),交通设施服务;公交车站;公交车站相关,启东213路,,121.8859934,31.771443,,江苏省,,南通市,,启东市,,"{'cost': , 'rating': }"
BV10586919,,寅南村(公交站),交通设施服务;公交车站;公交车站相关,启东221路;启东238路,,121.8647577,31.70364773,,江苏省,,南通市,,启东市,,"{'cost': , 'rating': }"
BV10988639,,连兴河桥(公交站),交通设施服务;公交车站;公交车站相关,启东213路;启东222路,,121.8639293,31.73738591,,江苏省,,南通市,,启东市,,"{'cost': , 'rating': }"
BV11461649,,建辉东路(公交站),交通设施服务;公交车站;公交车站相关,启东213路,,121.8832753,31.77447295,,江苏省,,南通市,,启东市,,"{'cost': , 'rating': }"
BV09252441,,寅南北路(公交站),交通设施服务;公交车站;公交车站相关,启东221路,,121.8609112,31.70466481,,江苏省,,南通市,,启东市,,"{'cost': , 'rating': }"
BV09252440,,寅南路(公交站),交通设施服务;公交车站;公交车站相关,启东221路,,121.8593708,31.70871803,,江苏省,,南通市,,启东市,,"{'cost': , 'rating': }"
BV11173736,,寅阳镇(公交站),交通设施服务;公交车站;公交车站相关,启东221路;启东312路,,121.8550907,31.71057998,,江苏省,,南通市,,启东市,,"{'cost': , 'rating': }"
B0FFIEE3NS,,金恒庄园水上农家乐停车场,交通设施服务;停车场;公共停车场,沿江公路与富阳路交叉口西220米,,121.8598644,31.70178215,,江苏省,,南通市,,启东市,,"{'cost': , 'rating': }"
BV10586953,,中远海工(公交站),交通设施服务;公交车站;公交车站相关,启东238路,,121.856237,31.70055287,,江苏省,,南通市,,启东市,,"{'cost': , 'rating': }"
BV11461643,,水洪东路(公交站),交通设施服务;公交车站;公交车站相关,启东213路,,121.8789248,31.77879361,,江苏省,,南通市,,启东市,,"{'cost': , 'rating': }"
B0IUHMJPT6,,地面停车场,交通设施服务;停车场;公共停车场,,,121.8609295,31.68978875,,江苏省,,南通市,,启东市,,"{'cost': , 'rating': }"
B0K6KZRDTB,,地面停车场,交通设施服务;停车场;公共停车场,江寅线与寅中路交叉口北240米,,121.8546747,31.71234351,,江苏省,,南通市,,启东市,,"{'cost': , 'rating': }"
B0IUHMNFRN,,地面停车场(出入口),交通设施服务;停车场;停车场出入口,地面停车场,,121.8609045,31.68974971,,江苏省,,南通市,,启东市,,"{'cost': , 'rating': }"
B0K6KZTAR2,,地面停车场(出入口),交通设施服务;停车场;停车场出入口,地面停车场,,121.8546747,31.71234351,,江苏省,,南通市,,启东市,,"{'cost': , 'rating': }"
BV10585438,,寅北小区(公交站),交通设施服务;公交车站;公交车站相关,启东221路,,121.8532115,31.71223426,,江苏省,,南通市,,启东市,,"{'cost': , 'rating': }"
BV10585454,,振洋桥(公交站),交通设施服务;公交车站;公交车站相关,启东221路,,121.8522321,31.71484097,,江苏省,,南通市,,启东市,,"{'cost': , 'rating': }"
BV10988644,,江夏路(公交站),交通设施服务;公交车站;公交车站相关,启东213路;启东222路,,121.8536035,31.73473907,,江苏省,,南通市,,启东市,,"{'cost': , 'rating': }"
BV10585421,,寅中北二路(公交站),交通设施服务;公交车站;公交车站相关,启东221路,,121.851362,31.7170958,,江苏省,,南通市,,启东市,,"{'cost': , 'rating': }"
B0FFM2SG3O,,蔡家宅,交通设施服务;停车场;停车场相关,候字村1组50号,,121.8532651,31.70651185,,江苏省,,南通市,,启东市,,"{'cost': , 'rating': }"
BV10585413,,红阳桥(公交站),交通设施服务;公交车站;公交车站相关,启东221路,,121.8503986,31.7196285,,江苏省,,南通市,,启东市,,"{'cost': , 'rating': }"
BV10585414,,寅中北一路(公交站),交通设施服务;公交车站;公交车站相关,启东221路,,121.8494282,31.72217517,,江苏省,,南通市,,启东市,,"{'cost': , 'rating': }"
BV10585400,,金双喜(公交站),交通设施服务;公交车站;公交车站相关,启东221路,,121.8484948,31.72463489,,江苏省,,南通市,,启东市,,"{'cost': , 'rating': }"
BV11461651,,新辉路(公交站),交通设施服务;公交车站;公交车站相关,启东213路,,121.8754116,31.78315634,,江苏省,,南通市,,启东市,,"{'cost': , 'rating': }"
BV10585405,,江东南路(公交站),交通设施服务;公交车站;公交车站相关,启东221路,,121.8475946,31.72698064,,江苏省,,南通市,,启东市,,"{'cost': , 'rating': }"
BV10585424,,江东北路(公交站),交通设施服务;公交车站;公交车站相关,启东221路,,121.8462912,31.73044982,,江苏省,,南通市,,启东市,,"{'cost': , 'rating': }"
BV09099781,,迪帅农庄(公交站),交通设施服务;公交车站;公交车站相关,启东238路,,121.8478556,31.69755249,,江苏省,,南通市,,启东市,,"{'cost': , 'rating': }"
BV10585453,,三星河桥(公交站),交通设施服务;公交车站;公交车站相关,启东213路;启东221路;启东222路,,121.8445678,31.73372824,,江苏省,,南通市,,启东市,,"{'cost': , 'rating': }"
B0JUHAI6MW,,地面停车场,交通设施服务;停车场;公共停车场,,,121.849943,31.69040741,,江苏省,,南通市,,启东市,,"{'cost': , 'rating': }"
BV09274453,,临时站(公交站),交通设施服务;公交车站;公交车站相关,启东238路,,121.8469104,31.6973339,,江苏省,,南通市,,启东市,,"{'cost': , 'rating': }"
BV11461665,,青春路(公交站),交通设施服务;公交车站;公交车站相关,启东213路,,121.871925,31.78748966,,江苏省,,南通市,,启东市,,"{'cost': , 'rating': }"
BV10585419,,江夏村(公交站),交通设施服务;公交车站;公交车站相关,启东213路;启东221路;启东222路,,121.8414271,31.73537997,,江苏省,,南通市,,启东市,,"{'cost': , 'rating': }"
BV09067625,,江夏村(菜场)(公交站),交通设施服务;公交车站;公交车站相关,启东213路,,121.8407765,31.73561885,,江苏省,,南通市,,启东市,,"{'cost': , 'rating': }"
BV10586954,,效网港路(公交站),交通设施服务;公交车站;公交车站相关,启东238路,,121.8435255,31.69645308,,江苏省,,南通市,,启东市,,"{'cost': , 'rating': }"
BV09070333,,兴旺桥(公交站),交通设施服务;公交车站;公交车站相关,启东213路,,121.8691762,31.79064323,,江苏省,,南通市,,启东市,,"{'cost': , 'rating': }"
BV09113176,,农商银行(公交站),交通设施服务;公交车站;公交车站相关,启东221路;启东222路,,121.8379474,31.73674092,,江苏省,,南通市,,启东市,,"{'cost': , 'rating': }"
BV09028245,,江夏村农商银行(公交站),交通设施服务;公交车站;公交车站相关,启东213路,,121.8379474,31.73674092,,江苏省,,南通市,,启东市,,"{'cost': , 'rating': }"
BV10585439,,庆佳村(公交站),交通设施服务;公交车站;公交车站相关,启东213路;启东221路;启东222路,,121.8354801,31.73849764,,江苏省,,南通市,,启东市,,"{'cost': , 'rating': }"
BV09228791,,道达重工(公交站),交通设施服务;公交车站;公交车站相关,启东238路,,121.8363358,31.69607828,,江苏省,,南通市,,启东市,,"{'cost': , 'rating': }"
BV09250870,,振华重工(公交站),交通设施服务;公交车站;公交车站相关,启东238路,,121.8355658,31.69626889,,江苏省,,南通市,,启东市,,"{'cost': , 'rating': }"
B0I17SO4Q2,,地面停车场,交通设施服务;停车场;公共停车场,寅戤路与柏勋路交叉口东南320米,,121.8369316,31.69272613,,江苏省,,南通市,,启东市,,"{'cost': , 'rating': }"
B0I17SPEVK,,地面停车场(出入口),交通设施服务;停车场;停车场出入口,寅戤路与柏勋路交叉口东南320米,,121.8369316,31.69272613,,江苏省,,南通市,,启东市,,"{'cost': , 'rating': }"
BV09098613,,临时站(公交站),交通设施服务;公交车站;公交车站相关,启东213路,,121.8635287,31.79538823,,江苏省,,南通市,,启东市,,"{'cost': , 'rating': }"
BV09142877,,兴垦镇二组(公交站),交通设施服务;公交车站;公交车站相关,启东213路,,121.8635417,31.79535624,,江苏省,,南通市,,启东市,,"{'cost': , 'rating': }"
BV10585412,,洪佳路(公交站),交通设施服务;公交车站;公交车站相关,启东213路;启东221路;启东222路,,121.8289161,31.74106178,,江苏省,,南通市,,启东市,,"{'cost': , 'rating': }"
BV10589341,,新造镇(公交站),交通设施服务;公交车站;公交车站相关,启东223路,,121.8415618,31.7791228,,江苏省,,南通市,,启东市,,"{'cost': , 'rating': }"
BV10586927,,戤效港村(公交站),交通设施服务;公交车站;公交车站相关,启东238路,,121.826718,31.6993567,,江苏省,,南通市,,启东市,,"{'cost': , 'rating': }"
BV10589419,,全心一路(公交站),交通设施服务;公交车站;公交车站相关,启东223路,,121.847363,31.78670486,,江苏省,,南通市,,启东市,,"{'cost': , 'rating': }"
BV10589396,,新造三路(公交站),交通设施服务;公交车站;公交车站相关,启东223路,,121.8449666,31.78330131,,江苏省,,南通市,,启东市,,"{'cost': , 'rating': }"
BV09162953,,新造镇农商银行(公交站),交通设施服务;公交车站;公交车站相关,启东223路,,121.8392713,31.77701543,,江苏省,,南通市,,启东市,,"{'cost': , 'rating': }"
BV10589366,,东海农中(公交站),交通设施服务;公交车站;公交车站相关,启东223路,,121.848726,31.78860139,,江苏省,,南通市,,启东市,,"{'cost': , 'rating': }"
BV11461648,,兴垦镇东市梢(公交站),交通设施服务;公交车站;公交车站相关,启东213路,,121.8609753,31.80149984,,江苏省,,南通市,,启东市,,"{'cost': , 'rating': }"
BV09184864,,临时站(公交站),交通设施服务;公交车站;公交车站相关,启东223路,,121.8434582,31.7811914,,江苏省,,南通市,,启东市,,"{'cost': , 'rating': }"
BV10589413,,德字村全心桥(公交站),交通设施服务;公交车站;公交车站相关,启东223路,,121.8528228,31.79423481,,江苏省,,南通市,,启东市,,"{'cost': , 'rating': }"
BV10589347,,德字一路(公交站),交通设施服务;公交车站;公交车站相关,启东223路,,121.8512484,31.792087,,江苏省,,南通市,,启东市,,"{'cost': , 'rating': }"
BV11173854,,兴垦镇(公交站),交通设施服务;公交车站;公交车站相关,启东213路;启东223路,,121.8596163,31.80475251,,江苏省,,南通市,,启东市,,"{'cost': , 'rating': }"
BV10589393,,新造镇三叉路口(公交站),交通设施服务;公交车站;公交车站相关,启东223路,,121.8368173,31.77503073,,江苏省,,南通市,,启东市,,"{'cost': , 'rating': }"
BV10589399,,全心北路(公交站),交通设施服务;公交车站;公交车站相关,启东223路,,121.8569382,31.7998489,,江苏省,,南通市,,启东市,,"{'cost': , 'rating': }"
BV09250868,,全心五路(招呼站)(公交站),交通设施服务;公交车站;公交车站相关,启东223路,,121.8569372,31.7998469,,江苏省,,南通市,,启东市,,"{'cost': , 'rating': }"
BV11459645,,兴垦(公交站),交通设施服务;公交车站;公交车站相关,启东223路,,121.8598158,31.80375763,,江苏省,,南通市,,启东市,,"{'cost': , 'rating': }"
BV10585429,,七效河桥(公交站),交通设施服务;公交车站;公交车站相关,启东213路;启东221路;启东222路,,121.8240675,31.74278689,,江苏省,,南通市,,启东市,,"{'cost': , 'rating': }"
BV10585446,,希士营房路口(公交站),交通设施服务;公交车站;公交车站相关,启东213路;启东221路;启东222路;启东223路,,121.8204651,31.74405427,,江苏省,,南通市,,启东市,,"{'cost': , 'rating': }"
BV10589372,,星宏村南路(公交站),交通设施服务;公交车站;公交车站相关,启东223路,,121.8328807,31.77187808,,江苏省,,南通市,,启东市,,"{'cost': , 'rating': }"
BV10589416,,洪飞南路(公交站),交通设施服务;公交车站;公交车站相关,启东223路,,121.8239207,31.74816625,,江苏省,,南通市,,启东市,,"{'cost': , 'rating': }"
BV10589418,,洪飞中路(公交站),交通设施服务;公交车站;公交车站相关,启东223路,,121.825353,31.75267449,,江苏省,,南通市,,启东市,,"{'cost': , 'rating': }"
BV11461684,,兴垦镇东市销(公交站),交通设施服务;公交车站;公交车站相关,启东213路,,121.8600412,31.80370493,,江苏省,,南通市,,启东市,,"{'cost': , 'rating': }"
BV10589401,,洪飞北路(公交站),交通设施服务;公交车站;公交车站相关,启东223路,,121.8270759,31.75890751,,江苏省,,南通市,,启东市,,"{'cost': , 'rating': }"
BV10586969,,盈康农庄(公交站),交通设施服务;公交车站;公交车站相关,启东238路,,121.8204295,31.70300817,,江苏省,,南通市,,启东市,,"{'cost': , 'rating': }"
BV10589398,,希士水泥厂(公交站),交通设施服务;公交车站;公交车站相关,启东223路,,121.8280581,31.76222079,,江苏省,,南通市,,启东市,,"{'cost': , 'rating': }"
BV10589394,,志荣中路(公交站),交通设施服务;公交车站;公交车站相关,启东223路,,121.8291025,31.76583923,,江苏省,,南通市,,启东市,,"{'cost': , 'rating': }"
B0IRU74CE6,,地面停车场,交通设施服务;停车场;公共停车场,已字路与江阳路交叉口西南160米,,121.8228524,31.6947381,,江苏省,,南通市,,启东市,,"{'cost': , 'rating': }"
BV10589409,,志荣北路(公交站),交通设施服务;公交车站;公交车站相关,启东223路,,121.8301158,31.76931459,,江苏省,,南通市,,启东市,,"{'cost': , 'rating': }"
BV10589354,,中心敬老院(公交站),交通设施服务;公交车站;公交车站相关,启东223路,,121.8317288,31.77095482,,江苏省,,南通市,,启东市,,"{'cost': , 'rating': }"
BV10850592,,基督教会(公交站),交通设施服务;公交车站;公交车站相关,启东213路;启东223路,,121.8580809,31.80786986,,江苏省,,南通市,,启东市,,"{'cost': , 'rating': }"
B0FFLHVWZY,,戤效港海事码头,交通设施服务;交通服务相关;交通服务相关,,,121.816278,31.68920342,,江苏省,,南通市,,启东市,,"{'cost': , 'rating': }"
BV10587018,,盈康路(公交站),交通设施服务;公交车站;公交车站相关,启东238路,,121.8124227,31.70754868,,江苏省,,南通市,,启东市,,"{'cost': , 'rating': }"
BV10640666,,雍和嘉园(公交站),交通设施服务;公交车站;公交车站相关,启东213路;启东221路;启东222路;启东223路,,121.812666,31.74683112,,江苏省,,南通市,,启东市,,"{'cost': , 'rating': }"
BV09028244,,福字五路(公交站),交通设施服务;公交车站;公交车站相关,启东213路;启东223路,,121.8531901,31.8115822,,江苏省,,南通市,,启东市,,"{'cost': , 'rating': }"
BV11173739,,和合幼儿园(公交站),交通设施服务;公交车站;公交车站相关,启东221路,,121.8088648,31.74270074,,江苏省,,南通市,,启东市,,"{'cost': , 'rating': }"
BV11173735,,文华家园(公交站),交通设施服务;公交车站;公交车站相关,启东221路,,121.8101859,31.74564347,,江苏省,,南通市,,启东市,,"{'cost': , 'rating': }"
BV10585447,,工商局(公交站),交通设施服务;公交车站;公交车站相关,启东221路,,121.8051431,31.73793961,,江苏省,,南通市,,启东市,,"{'cost': , 'rating': }"
BV10589698,,成宇北路(公交站),交通设施服务;公交车站;公交车站相关,启东337路,,121.8319795,31.79432174,,江苏省,,南通市,,启东市,,"{'cost': , 'rating': }"
BV10589954,,新造西桥(公交站),交通设施服务;公交车站;公交车站相关,启东337路,,121.825253,31.78517077,,江苏省,,南通市,,启东市,,"{'cost': , 'rating': }"
BV11056821,,海宏花苑(公交站),交通设施服务;公交车站;公交车站相关,启东213路;启东222路;启东223路,,121.8081305,31.74843311,,江苏省,,南通市,,启东市,,"{'cost': , 'rating': }"
B0FFI65YJN,,停车场,交通设施服务;停车场;公共停车场,东和线与杏梅北路交叉口北100米,,121.8051531,31.73913677,,江苏省,,南通市,,启东市,,"{'cost': , 'rating': }"
BV09275801,,成字三路(公交站),交通设施服务;公交车站;公交车站相关,启东337路,,121.8291245,31.79030781,,江苏省,,南通市,,启东市,,"{'cost': , 'rating': }"
BV10589697,,新造西挢(公交站),交通设施服务;公交车站;公交车站相关,启东337路,,121.8251958,31.78518867,,江苏省,,南通市,,启东市,,"{'cost': , 'rating': }"
B0JGHUP9NY,,地面停车场,交通设施服务;停车场;公共停车场,东和线与和合路交叉口东20米,,121.8068341,31.74009283,,江苏省,,南通市,,启东市,,"{'cost': , 'rating': }"
BV11577655,,南下和合(公交站),交通设施服务;公交车站;公交车站相关,启东227路,,121.8040396,31.73622851,,江苏省,,南通市,,启东市,,"{'cost': , 'rating': }"
BV09231469,,临时站(公交站),交通设施服务;公交车站;公交车站相关,启东337路,,121.8319414,31.79426466,,江苏省,,南通市,,启东市,,"{'cost': , 'rating': }"
B0FFLC5ASX,,停车场,交通设施服务;停车场;停车场相关,寅和路与东和线交叉口东南160米,,121.8056285,31.7356062,,江苏省,,南通市,,启东市,,"{'cost': , 'rating': }"
BV09099776,,七效河桥(公交站),交通设施服务;公交车站;公交车站相关,启东238路,,121.8027345,31.71331098,,江苏省,,南通市,,启东市,,"{'cost': , 'rating': }"
BV10586047,,杏梅二路(公交站),交通设施服务;公交车站;公交车站相关,启东227路,,121.8024851,31.73428062,,江苏省,,南通市,,启东市,,"{'cost': , 'rating': }"
BV09028243,,福字三路(公交站),交通设施服务;公交车站;公交车站相关,启东213路;启东223路,,121.8507861,31.81926274,,江苏省,,南通市,,启东市,,"{'cost': , 'rating': }"
BV10640665,,第四人民医院(公交站),交通设施服务;公交车站;公交车站相关,启东213路;启东222路;启东223路,,121.8043001,31.74979753,,江苏省,,南通市,,启东市,,"{'cost': , 'rating': }"
B0KB3H3ZYK,,东和线-道路停车位,交通设施服务;停车场;路边停车场,东和线与寅和路交叉口西120米,,121.8033178,31.73706935,,江苏省,,南通市,,启东市,,"{'cost': , 'rating': }"
BV11173733,,寅阳镇政府(公交站),交通设施服务;公交车站;公交车站相关,启东221路,,121.8006986,31.73779099,,江苏省,,南通市,,启东市,,"{'cost': , 'rating': }"
B0H3OA04H6,,启东市第四人民医院停车场,交通设施服务;停车场;公共停车场,345国道与刘先四路交叉口东南100米,,121.803434,31.74973103,,江苏省,,南通市,,启东市,,"{'cost': , 'rating': }"
BV09207247,,临时站(公交站),交通设施服务;公交车站;公交车站相关,启东227路,,121.8015226,31.73753835,,江苏省,,南通市,,启东市,,"{'cost': , 'rating': }"
BV11461661,,吕垦十一路(公交站),交通设施服务;公交车站;公交车站相关,启东213路,,121.8523123,31.82219566,,江苏省,,南通市,,启东市,,"{'cost': , 'rating': }"
BV10585406,,同康木行(公交站),交通设施服务;公交车站;公交车站相关,启东213路;启东221路;启东222路;启东223路,,121.8010633,31.75084113,,江苏省,,南通市,,启东市,,"{'cost': , 'rating': }"
B0H3OA0IRB,,启东市第四人民医院停车场(出入口),交通设施服务;停车场;停车场出入口,345国道与刘先四路交叉口东南100米,,121.8034521,31.74992508,,江苏省,,南通市,,启东市,,"{'cost': , 'rating': }"
BV10587003,,府前路(公交站),交通设施服务;公交车站;公交车站相关,启东227路,,121.800177,31.7312034,,江苏省,,南通市,,启东市,,"{'cost': , 'rating': }"
B0I0AH5OX5,,停车场,交通设施服务;停车场;停车场相关,东和线与江海路交叉口东220米,,121.8006775,31.73791197,,江苏省,,南通市,,启东市,,"{'cost': , 'rating': }"
BV11692644,,蒙得制衣(公交站),交通设施服务;公交车站;公交车站相关,启东221路,,121.798753,31.73947195,,江苏省,,南通市,,启东市,,"{'cost': , 'rating': }"
BV11173738,,东岳药业(公交站),交通设施服务;公交车站;公交车站相关,启东221路,,121.7996037,31.74221166,,江苏省,,南通市,,启东市,,"{'cost': , 'rating': }"
BV10589975,,成字村(公交站),交通设施服务;公交车站;公交车站相关,启东337路,,121.8171108,31.78796493,,江苏省,,南通市,,启东市,,"{'cost': , 'rating': }"
BV10586013,,引丰南路(公交站),交通设施服务;公交车站;公交车站相关,启东227路,,121.7967756,31.72688839,,江苏省,,南通市,,启东市,,"{'cost': , 'rating': }"
BV10589708,,东余镇村服务中心(公交站),交通设施服务;公交车站;公交车站相关,启东337路,,121.8315432,31.80848123,,江苏省,,南通市,,启东市,,"{'cost': , 'rating': }"
BV11461641,,吕垦路(公交站),交通设施服务;公交车站;公交车站相关,启东213路,,121.8511202,31.82676859,,江苏省,,南通市,,启东市,,"{'cost': , 'rating': }"
BV10586014,,小春港桥(公交站),交通设施服务;公交车站;公交车站相关,启东227路;启东238路,,121.7917151,31.7204369,,江苏省,,南通市,,启东市,,"{'cost': , 'rating': }"
BV10585420,,天主堂(公交站),交通设施服务;公交车站;公交车站相关,启东221路,,121.7951146,31.75282669,,江苏省,,南通市,,启东市,,"{'cost': , 'rating': }"
BV11584523,,和合天主堂(公交站),交通设施服务;公交车站;公交车站相关,启东213路;启东222路;启东223路,,121.7951146,31.75282669,,江苏省,,南通市,,启东市,,"{'cost': , 'rating': }"
BV11461656,,吕垦南桥(公交站),交通设施服务;公交车站;公交车站相关,启东213路,,121.8481572,31.82989035,,江苏省,,南通市,,启东市,,"{'cost': , 'rating': }"
B0I3CCPEZ2,,南通太平洋海洋工程有限公司船体分厂地面停车场,交通设施服务;停车场;公共停车场,南通太平洋海洋工程有限公司船体分厂,,121.7920815,31.70095877,,江苏省,,南通市,,启东市,,"{'cost': , 'rating': }"
BV10585988,,农武南路中桥(公交站),交通设施服务;公交车站;公交车站相关,启东227路,,121.7897903,31.71794183,,江苏省,,南通市,,启东市,,"{'cost': , 'rating': }"
BV10586941,,农武中心路(公交站),交通设施服务;公交车站;公交车站相关,启东238路,,121.7871355,31.72217847,,江苏省,,南通市,,启东市,,"{'cost': , 'rating': }"
BV10589710,,新东桥(公交站),交通设施服务;公交车站;公交车站相关,启东337路,,121.8082422,31.79122522,,江苏省,,南通市,,启东市,,"{'cost': , 'rating': }"
BV10585434,,步梯中心路(公交站),交通设施服务;公交车站;公交车站相关,启东213路;启东221路;启东222路;启东223路,,121.7912843,31.75411499,,江苏省,,南通市,,启东市,,"{'cost': , 'rating': }"
BV10586010,,沿江公路南桥(公交站),交通设施服务;公交车站;公交车站相关,启东227路,,121.7871382,31.71452876,,江苏省,,南通市,,启东市,,"{'cost': , 'rating': }"
BV10585987,,太平洋船厂(公交站),交通设施服务;公交车站;公交车站相关,启东227路,,121.7809903,31.70660306,,江苏省,,南通市,,启东市,,"{'cost': , 'rating': }"
BV09029075,,五效河桥(东余路)(公交站),交通设施服务;公交车站;公交车站相关,启东337路,,121.8227743,31.81181137,,江苏省,,南通市,,启东市,,"{'cost': , 'rating': }"
B00156R2XT,,东旺沙港,交通设施服务;港口码头;港口码头,团旺北路东150米,,121.9104198,31.5711056,,上海市,,上海市,,崇明区,,"{'cost': , 'rating': }"
BV11461658,,海界二路(公交站),交通设施服务;公交车站;公交车站相关,启东213路,,121.8479654,31.83447387,,江苏省,,南通市,,启东市,,"{'cost': , 'rating': }"
B02010VKMS,,协兴港,交通设施服务;港口码头;货运港口码头,港区路与协兴港路交叉口东440米,,121.8616574,31.85180071,,江苏省,,南通市,,启东市,,"{'cost': , 'rating': }"
BV10585997,,裕丰二路(公交站),交通设施服务;公交车站;公交车站相关,启东227路,,121.7835246,31.70989352,,江苏省,,南通市,,启东市,,"{'cost': , 'rating': }"
BV09279963,,十里海湾(公交站),交通设施服务;公交车站;公交车站相关,启东D03路,,121.8700417,31.84999149,,江苏省,,南通市,,启东市,,"{'cost': , 'rating': }"
BV10589371,,五效河桥东(公交站),交通设施服务;公交车站;公交车站相关,启东213路;启东221路;启东222路;启东223路,,121.7869343,31.75561095,,江苏省,,南通市,,启东市,,"{'cost': , 'rating': }"
B0I2GCJSF5,,地面停车场,交通设施服务;停车场;公共停车场,海堤南路与纵二路交叉口西60米,,121.8711003,31.85126685,,江苏省,,南通市,,启东市,,"{'cost': , 'rating': }"
BV11461666,,海界三路(公交站),交通设施服务;公交车站;公交车站相关,启东213路,,121.8478799,31.83764331,,江苏省,,南通市,,启东市,,"{'cost': , 'rating': }"
B0I1FSKR1N,,地面停车场,交通设施服务;停车场;公共停车场,海堤南路与纵二路交叉口西280米,,121.8688035,31.85080229,,江苏省,,南通市,,启东市,,"{'cost': , 'rating': }"
B0JRJADW63,,上海展志钢材加工配送有限公司内部地面停车场(出入口),交通设施服务;停车场;停车场出入口,上海展志钢材加工配送有限公司内部地面停车场,,121.3949853,31.40811213,,上海市,,上海市,,宝山区,,"{'cost': , 'rating': }"
B0JRJAH5C4,,上海展志钢材加工配送有限公司内部地面停车场,交通设施服务;停车场;专用停车场,春和路1058号上海展志钢材加工配送有限公司,,121.3940545,31.40779535,,上海市,,上海市,,宝山区,,"{'cost': , 'rating': }"
B0JGXZ1UDN,,停车场,交通设施服务;停车场;停车场相关,春和路557号,,121.4014614,31.4106486,,上海市,,上海市,,宝山区,,"{'cost': , 'rating': }"
BV10032686,,新镇(公交站),交通设施服务;公交车站;公交车站相关,宝山21路;宝山23路;宝山95路,,121.3928808,31.41819982,,上海市,,上海市,,宝山区,,"{'cost': , 'rating': }"
BV10034138,,月罗公路段泾路(公交站),交通设施服务;公交车站;公交车站相关,宝山21路;宝山23路;宝山95路,,121.3996824,31.4185763,,上海市,,上海市,,宝山区,,"{'cost': , 'rating': }"
B0K65UAGZX,,月浦安息灵园地面停车场,交通设施服务;停车场;公共停车场,月浦镇月罗路341号月浦安息灵园,,121.4000524,31.41883427,,上海市,,上海市,,宝山区,,"{'cost': , 'rating': }"
BV11474636,,杨南路富长路(公交站),交通设施服务;公交车站;公交车站相关,宝山92路,,121.3989096,31.40384117,,上海市,,上海市,,宝山区,,"{'cost': , 'rating': }"
B0H05CIGIU,,魔族公寓停车场(出入口),交通设施服务;停车场;停车场出入口,魔族国际青年社区停车场,,121.3959817,31.4027685,,上海市,,上海市,,宝山区,,"{'cost': , 'rating': }"
B0H05CHU3M,,魔族国际青年社区停车场,交通设施服务;停车场;公共停车场,杨行镇杨南路618号魔族国际青年社区,,121.3958347,31.40258256,,上海市,,上海市,,宝山区,,"{'cost': , 'rating': }"
B0FFGTKAXZ,,宝山月浦停车场,交通设施服务;停车场;公共停车场,月罗路321号,,121.4024058,31.42007532,,上海市,,上海市,,宝山区,,"{'cost': , 'rating': }"
BV11474633,,杨南路锦伟路(公交站),交通设施服务;公交车站;公交车站相关,宝山92路,,121.3923744,31.40178133,,上海市,,上海市,,宝山区,,"{'cost': , 'rating': }"
B0IULAQOOY,,功杰货运地面停车场,交通设施服务;停车场;公共停车场,,,121.4082269,31.41275119,,上海市,,上海市,,宝山区,,"{'cost': , 'rating': }"
B0HKHUAG8X,,五菱宝骏汽车直营店(宝山4S店)停车场,交通设施服务;停车场;公共停车场,月罗公路905号五菱汽车(宝山4S店),,121.3867032,31.41873079,,上海市,,上海市,,宝山区,,"{'cost': , 'rating': }"
BV10027688,,沈巷(公交站),交通设施服务;公交车站;公交车站相关,宝山21路;宝山23路;宝山95路,,121.4051037,31.41973213,,上海市,,上海市,,宝山区,,"{'cost': , 'rating': }"
BV10556032,,共悦路锦乐路(公交站),交通设施服务;公交车站;公交车站相关,宝山92路,,121.4085433,31.4095062,,上海市,,上海市,,宝山区,,"{'cost': , 'rating': }"
BV10034137,,月罗公路毛家路(公交站),交通设施服务;公交车站;公交车站相关,宝山21路;宝山23路;宝山95路,,121.3849282,31.41885865,,上海市,,上海市,,宝山区,,"{'cost': , 'rating': }"
B0J2R5TD7E,,杨南路728号停车场,交通设施服务;停车场;停车场相关,杨南路与锦伟路交叉口西南160米,,121.3902311,31.40088117,,上海市,,上海市,,宝山区,,"{'cost': , 'rating': }"
B0I2KUGFXL,,窗出名门国际博览城(宝山城)地面停车场,交通设施服务;停车场;公共停车场,共祥路699号窗出名门国际博览城(宝山城),,121.3942552,31.39901274,,上海市,,上海市,,宝山区,,"{'cost': , 'rating': }"
BV10496509,,塔虹路月罗公路(公交站),交通设施服务;公交车站;公交车站相关,宝山12路;宝山87路;宝山91路,,121.4057568,31.42178483,,上海市,,上海市,,宝山区,,"{'cost': , 'rating': }"
BV11474634,,杨南路长山路(公交站),交通设施服务;公交车站;公交车站相关,宝山92路,,121.3869386,31.40091045,,上海市,,上海市,,宝山区,,"{'cost': , 'rating': }"
BV10556225,,塔虹路月富路(公交站),交通设施服务;公交车站;公交车站相关,宝山91路,,121.4049602,31.42491777,,上海市,,上海市,,宝山区,,"{'cost': , 'rating': }"
BV10792838,,共悦路蕰川公路(公交站),交通设施服务;公交车站;公交车站相关,宝山92路,,121.4144336,31.41128935,,上海市,,上海市,,宝山区,,"{'cost': , 'rating': }"
BV10027602,,马泾桥(公交站),交通设施服务;公交车站;公交车站相关,172路;宝山10路;宝山12路;宝山14路;宝山18路;宝山21路;宝山23路;宝山6路;宝山87路;宝山91路;宝山95路,,121.414409,31.41815254,,上海市,,上海市,,宝山区,,"{'cost': , 'rating': }"
BV10384409,,富锦路锦伟路(公交站),交通设施服务;公交车站;公交车站相关,宝山83路,,121.3944625,31.39527177,,上海市,,上海市,,宝山区,,"{'cost': , 'rating': }"
BV10024585,,陆家宅(公交站),交通设施服务;公交车站;公交车站相关,1603路;172路;宝山14路;宝山21路;宝山6路;宝山91路;宝山92路;宝山95路,,121.4159929,31.41281817,,上海市,,上海市,,宝山区,,"{'cost': , 'rating': }"
BV11071108,,东钱宅(公交站),交通设施服务;公交车站;公交车站相关,宝山12路,,121.3975914,31.42856471,,上海市,,上海市,,宝山区,,"{'cost': , 'rating': }"
B0FFGOFVEF,,上海巴士公交集团驾驶员培训有限公司内部地面停车场,交通设施服务;停车场;专用停车场,杨行镇共祥路18号上海巴士公交集团驾驶员培训有限公司,,121.4150366,31.40551836,,上海市,,上海市,,宝山区,,"{'cost': , 'rating': }"
B0H3TUMPWO,,上海中冶医院蕰川路分院停车场,交通设施服务;停车场;公共停车场,月浦镇蕰川路3739号上海中冶医院(蕰川路分院),,121.4167777,31.41300277,,上海市,,上海市,,宝山区,,"{'cost': , 'rating': }"
BV10411832,,蕰川公路共祥路(公交站),交通设施服务;公交车站;公交车站相关,172路;宝山14路;宝山21路;宝山6路;宝山91路;宝山92路;宝山95路,,121.4173008,31.40709181,,上海市,,上海市,,宝山区,,"{'cost': , 'rating': }"
BV10496508,,申浦路月富路(公交站),交通设施服务;公交车站;公交车站相关,宝山12路;宝山87路,,121.4079024,31.42732932,,上海市,,上海市,,宝山区,,"{'cost': , 'rating': }"
BV10026142,,蕰川路共祥路(公交站),交通设施服务;公交车站;公交车站相关,1603路,,121.4173008,31.40709181,,上海市,,上海市,,宝山区,,"{'cost': , 'rating': }"
B0KB9Z6JYV,,上海月浦蔬菜交易市场经营管理有限公司地面停车场,交通设施服务;停车场;公共停车场,蕰川路2767号上海月浦蔬菜交易市场经营管理有限公司,,121.4177253,31.4066713,,上海市,,上海市,,宝山区,,"{'cost': , 'rating': }"
BV10034136,,束里桥(公交站),交通设施服务;公交车站;公交车站相关,宝山21路;宝山23路;宝山95路,,121.3742365,31.4191656,,上海市,,上海市,,宝山区,,"{'cost': , 'rating': }"
B0FFGQIY61,,甘露寺-观音道场内部停车场,交通设施服务;停车场;专用停车场,练祁路688号甘露寺(东侧),,121.391579,31.43081998,,上海市,,上海市,,宝山区,,"{'cost': , 'rating': }"
BV10529522,,月宁路月富路(公交站),交通设施服务;公交车站;公交车站相关,宝山12路;宝山87路;宝山91路,,121.4063134,31.42941514,,上海市,,上海市,,宝山区,,"{'cost': , 'rating': }"
B0FFGLOYYG,,停车场(四元路),交通设施服务;停车场;公共停车场,四元路与德都路交叉口西80米,,121.4189589,31.41500421,,上海市,,上海市,,宝山区,,"{'cost': , 'rating': }"
BV10026143,,德都路四元路(公交站),交通设施服务;公交车站;公交车站相关,1603路;172路;宝山10路;宝山23路;宝山8路,,121.4194594,31.41596145,,上海市,,上海市,,宝山区,,"{'cost': , 'rating': }"
BV10034237,,杨北路杨宗路(公交站),交通设施服务;公交车站;公交车站相关,宝山83路,,121.3985767,31.39136668,,上海市,,上海市,,宝山区,,"{'cost': , 'rating': }"
B0FFKWCGXR,,中冶锦园地下停车库,交通设施服务;停车场;停车场相关,月富路88弄1-40号,,121.405632,31.43047963,,上海市,,上海市,,宝山区,,"{'cost': , 'rating': }"
BV10384070,,德都路龙镇路(公交站),交通设施服务;公交车站;公交车站相关,172路;宝山10路;宝山18路;宝山23路,,121.4185851,31.41900783,,上海市,,上海市,,宝山区,,"{'cost': , 'rating': }"
BV11474631,,杨南路潘泾路(公交站),交通设施服务;公交车站;公交车站相关,宝山92路,,121.377323,31.39900325,,上海市,,上海市,,宝山区,,"{'cost': , 'rating': }"
BV10026148,,德都路安家路(公交站),交通设施服务;公交车站;公交车站相关,1603路;宝山23路;宝山88路;宝山8路,,121.4206402,31.41184171,,上海市,,上海市,,宝山区,,"{'cost': , 'rating': }"
B0H65ALDFH,,吉买盛超级生活广场月浦店停车场,交通设施服务;停车场;公共停车场,德都路与四元路交叉口东南80米,,121.4202194,31.41438361,,上海市,,上海市,,宝山区,,"{'cost': , 'rating': }"
B0FFFA01V6,,沈巷码头,交通设施服务;港口码头;港口码头,蕰川路4789号,,121.4116107,31.42908788,,上海市,,上海市,,宝山区,,"{'cost': , 'rating': }"
B0G1L55WEJ,,北宗村4号桥停车场,交通设施服务;停车场;停车场相关,北宗村4号桥,,121.400617,31.39028516,,上海市,,上海市,,宝山区,,"{'cost': , 'rating': }"
BV10026144,,龙镇路德都路(公交站),交通设施服务;公交车站;公交车站相关,1603路;宝山12路;宝山8路,,121.4200679,31.41857937,,上海市,,上海市,,宝山区,,"{'cost': , 'rating': }"
BV11170245,,四元路德都路(公交站),交通设施服务;公交车站;公交车站相关,1603路,,121.4210244,31.41521322,,上海市,,上海市,,宝山区,,"{'cost': , 'rating': }"
B0FFJG6P5G,,上海馨煌广场停车场,交通设施服务;停车场;公共停车场,安家路15-29号,,121.4213921,31.41156356,,上海市,,上海市,,宝山区,,"{'cost': , 'rating': }"
B0H1LRIKGC,,月浦八村停车场,交通设施服务;停车场;公共停车场,月浦八村,,121.4210644,31.41558416,,上海市,,上海市,,宝山区,,"{'cost': , 'rating': }"
B0IA1HV4ZS,,上海宏奎货运有限公司地面停车场,交通设施服务;停车场;公共停车场,杨北路188号上海宏奎货运有限公司,,121.4107551,31.39373576,,上海市,,上海市,,宝山区,,"{'cost': , 'rating': }"
BV10032503,,四元路庆安路(公交站),交通设施服务;公交车站;公交车站相关,172路;宝山10路;宝山88路,,121.4219916,31.41534021,,上海市,,上海市,,宝山区,,"{'cost': , 'rating': }"
B0KDGUNTEX,,富锦路2058号停车场,交通设施服务;停车场;公共停车场,蕰川公路与G1503上海绕城高速入口交叉口西北120米,,121.4184357,31.39880912,,上海市,,上海市,,宝山区,,"{'cost': , 'rating': }"
BV10026149,,德都路绥化路(公交站),交通设施服务;公交车站;公交车站相关,1603路;宝山88路;宝山8路,,121.4224119,31.406606,,上海市,,上海市,,宝山区,,"{'cost': , 'rating': }"
BV10032504,,月浦新村(公交站),交通设施服务;公交车站;公交车站相关,172路;宝山10路;宝山23路;宝山87路,,121.4198061,31.42345187,,上海市,,上海市,,宝山区,,"{'cost': , 'rating': }"
BV10034153,,绥化路庆安路(公交站),交通设施服务;公交车站;公交车站相关,宝山23路,,121.4233511,31.40763477,,上海市,,上海市,,宝山区,,"{'cost': , 'rating': }"
B0015721NL,,富锦路综合客运交通枢纽,交通设施服务;长途汽车站;长途汽车站,富锦路地铁站1号口步行220米,,121.4187413,31.39650305,,上海市,,上海市,,宝山区,,"{'cost': , 'rating': }"
BV10555279,,潘泾路富锦路(公交站),交通设施服务;公交车站;公交车站相关,宝山90路,,121.3818528,31.39052727,,上海市,,上海市,,宝山区,,"{'cost': , 'rating': }"
BV10026150,,德都路富锦路(公交站),交通设施服务;公交车站;公交车站相关,1603路;宝山88路;宝山8路,,121.4237809,31.40525292,,上海市,,上海市,,宝山区,,"{'cost': , 'rating': }"
BV10589228,,杨北路蕰川公路(公交站),交通设施服务;公交车站;公交车站相关,1603路;宝山14路;宝山6路;宝山83路;宝山91路;宝山92路;宝山95路,,121.4191728,31.3963795,,上海市,,上海市,,宝山区,,"{'cost': , 'rating': }"
B0FFKAXEYQ,,P+R停车场,交通设施服务;停车场;专用停车场,杨北路与蕰川公路交叉口西60米,,121.4191368,31.39616552,,上海市,,上海市,,宝山区,,"{'cost': , 'rating': }"
B0FFI0N3HP,,上海交投场站企业管理有限公司停车场,交通设施服务;停车场;公共停车场,杨北路1087号(富锦路地铁站1号口步行290米),,121.4190176,31.39640734,,上海市,,上海市,,宝山区,,"{'cost': , 'rating': }"
BV10027603,,陆家桥(公交站),交通设施服务;公交车站;公交车站相关,宝山10路;宝山14路;宝山18路;宝山6路;宝山91路,,121.408336,31.43462176,,上海市,,上海市,,宝山区,,"{'cost': , 'rating': }"
B0H6RU88GB,,金悦生活广场停车场,交通设施服务;停车场;公共停车场,德都路与富锦路交叉口西北80米,,121.4239783,31.40410746,,上海市,,上海市,,宝山区,,"{'cost': , 'rating': }"
BV10026145,,龙镇路北安路(公交站),交通设施服务;公交车站;公交车站相关,1603路;宝山12路;宝山18路;宝山8路,,121.4249253,31.41887667,,上海市,,上海市,,宝山区,,"{'cost': , 'rating': }"
BX10016223,,富锦路地铁站1号口,交通设施服务;地铁站;出入口,1号线,,121.4198717,31.39465367,,上海市,,上海市,,宝山区,,"{'cost': , 'rating': }"
BV10039885,,富锦路(地铁站),交通设施服务;地铁站;地铁站,1号线,,121.420009,31.39404498,,上海市,,上海市,,宝山区,,"{'cost': , 'rating': }"
B0FFGL3NY1,,宝钢5号门停车场,交通设施服务;停车场;公共停车场,月罗公路80号附近,,121.4232105,31.4234205,,上海市,,上海市,,宝山区,,"{'cost': , 'rating': }"
BV10401864,,绥化路春雷路(公交站),交通设施服务;公交车站;公交车站相关,宝山23路,,121.426701,31.40779181,,上海市,,上海市,,宝山区,,"{'cost': , 'rating': }"
BV10027601,,杨北(公交站),交通设施服务;公交车站;公交车站相关,172路;宝山21路,,121.4202903,31.39434418,,上海市,,上海市,,宝山区,,"{'cost': , 'rating': }"
B0H1C53JX5,,上海中冶医院总院停车场,交通设施服务;停车场;公共停车场,春雷路456号上海中冶医院(总院),,121.4278892,31.41461455,,上海市,,上海市,,宝山区,,"{'cost': , 'rating': }"
BV10548950,,东周家角宅(公交站),交通设施服务;公交车站;公交车站相关,宝山12路,,121.3934099,31.43873769,,上海市,,上海市,,宝山区,,"{'cost': , 'rating': }"
BX10016224,,富锦路地铁站2号口,交通设施服务;地铁站;出入口,1号线,,121.4202163,31.39351334,,上海市,,上海市,,宝山区,,"{'cost': , 'rating': }"
B0G2CZ7034,,蕰川路停车场,交通设施服务;停车场;停车场相关,蕰川路2399号(富锦路地铁站2号口步行250米),,121.4206608,31.39403364,,上海市,,上海市,,宝山区,,"{'cost': , 'rating': }"
B0FFGLDPNK,,富锦路站停车场,交通设施服务;停车场;公共停车场,地铁1号线富锦路站(富锦路地铁站2号口步行80米),,121.4201933,31.39301446,,上海市,,上海市,,宝山区,,"{'cost': , 'rating': }"
BV10032502,,春雷路四元路(公交站),交通设施服务;公交车站;公交车站相关,172路;宝山10路;宝山12路;宝山18路;宝山8路,,121.4288178,31.41426391,,上海市,,上海市,,宝山区,,"{'cost': , 'rating': }"
B0HBRH7AXZ,,洋北停车场,交通设施服务;停车场;公共停车场,白沙园路与蕰川公路交叉口东20米,15618155213,121.4211064,31.39312737,,上海市,,上海市,,宝山区,,"{'cost': , 'rating': }"
BV10851471,,白沙园路月城路(公交站),交通设施服务;公交车站;公交车站相关,宝山30路;宝山9路,,121.4235285,31.39413874,,上海市,,上海市,,宝山区,,"{'cost': , 'rating': }"
BV10851463,,月城路白沙园路(公交站),交通设施服务;公交车站;公交车站相关,宝山30路,,121.4230209,31.39319943,,上海市,,上海市,,宝山区,,"{'cost': , 'rating': }"
BV10034135,,月罗公路潘泾路(公交站),交通设施服务;公交车站;公交车站相关,宝山21路;宝山23路,,121.3619434,31.41758622,,上海市,,上海市,,宝山区,,"{'cost': , 'rating': }"
BV10556228,,潘泾路积福东路(公交站),交通设施服务;公交车站;公交车站相关,宝山90路,,121.3861896,31.38301299,,上海市,,上海市,,宝山区,,"{'cost': , 'rating': }"
B0H2ZUB6D2,,宝罗瞑园停车场(出入口),交通设施服务;停车场;停车场出入口,苗圃路与潘泾路交叉口东300米,,121.3639336,31.42480776,,上海市,,上海市,,宝山区,,"{'cost': , 'rating': }"
B0H2ZUBLE5,,停车场,交通设施服务;停车场;公共停车场,苗圃路与潘泾路交叉口东280米,,121.3636211,31.42481516,,上海市,,上海市,,宝山区,,"{'cost': , 'rating': }"
BV10032501,,绥化路江杨北路(公交站),交通设施服务;公交车站;公交车站相关,172路;宝山10路;宝山12路;宝山18路;宝山23路;宝山8路,,121.4321621,31.40876621,,上海市,,上海市,,宝山区,,"{'cost': , 'rating': }"
BV10555280,,潘泾路潘唐路(公交站),交通设施服务;公交车站;公交车站相关,宝山90路,,121.3864165,31.3822651,,上海市,,上海市,,宝山区,,"{'cost': , 'rating': }"
B0FFFEA6I8,,宝钢新型建材科技有限公司内河码头,交通设施服务;港口码头;港口码头,长缨路宝钢钢铁公司,,121.4125395,31.43985892,,上海市,,上海市,,宝山区,,"{'cost': , 'rating': }"
B0FFLMBLL2,,白沙公园停车场,交通设施服务;停车场;公共停车场,富杨路458号,,121.4288205,31.39507217,,上海市,,上海市,,宝山区,,"{'cost': , 'rating': }"
BV10039981,,江杨北路(地铁站),交通设施服务;地铁站;地铁站,3号线,,121.4351897,31.40965876,,上海市,,上海市,,宝山区,,"{'cost': , 'rating': }"
BV10032407,,抚远路美兰湖路(公交站),交通设施服务;公交车站;公交车站相关,1600路,,121.3591091,31.40519845,,上海市,,上海市,,宝山区,,"{'cost': , 'rating': }"
BV10027606,,友谊(公交站),交通设施服务;公交车站;公交车站相关,宝山10路;宝山14路;宝山18路;宝山6路;宝山91路,,121.4050456,31.44309948,,上海市,,上海市,,宝山区,,"{'cost': , 'rating': }"
BV10034154,,江杨北路富锦路(公交站),交通设施服务;公交车站;公交车站相关,1609路;宝山30路;宝山87路;宝山88路,,121.4343723,31.40798888,,上海市,,上海市,,宝山区,,"{'cost': , 'rating': }"
B00157226A,,江杨北路综合客运交通枢纽,交通设施服务;交通服务相关;交通服务相关,江杨北路1801号(江杨北路地铁站1号口步行50米),,121.4348261,31.40893536,,上海市,,上海市,,宝山区,,"{'cost': , 'rating': }"
BX10016108,,江杨北路地铁站1号口,交通设施服务;地铁站;出入口,3号线,,121.4348451,31.40940327,,上海市,,上海市,,宝山区,,"{'cost': , 'rating': }"
BV10032500,,江杨北路绥化路(公交站),交通设施服务;公交车站;公交车站相关,1609路;172路;宝山12路;宝山18路;宝山30路,,121.4348843,31.40833462,,上海市,,上海市,,宝山区,,"{'cost': , 'rating': }"
B001579A6M,,江杨北路P+R地面停车场,交通设施服务;停车场;公共停车场,江杨北路1860号(江杨北路地铁站1号口步行50米),,121.4349143,31.40897349,,上海市,,上海市,,宝山区,,"{'cost': , 'rating': }"
BV11469228,,友谊西路富长路(公交站),交通设施服务;公交车站;公交车站相关,宝山9路,,121.4081468,31.37867286,,上海市,,上海市,,宝山区,,"{'cost': , 'rating': }"
B0HUAU8K9J,,优登停车场(宝山充电站),交通设施服务;停车场;停车场相关,友谊西路1号(友谊西路地铁站1号口步行380米),15618888530,121.4210431,31.38443585,,上海市,,上海市,,宝山区,,"{'cost': , 'rating': }"
B001570DWZ,,宝明码头,交通设施服务;港口码头;货运港口码头,蕰川路5335号,,121.4050264,31.4460678,,上海市,,上海市,,宝山区,,"{'cost': , 'rating': }"
BV11469223,,富长路友谊西路(公交站),交通设施服务;公交车站;公交车站相关,宝山9路,,121.406436,31.3774665,,上海市,,上海市,,宝山区,,"{'cost': , 'rating': }"
BV10039886,,友谊西路(地铁站),交通设施服务;地铁站;地铁站,1号线,,121.4233062,31.38308773,,上海市,,上海市,,宝山区,,"{'cost': , 'rating': }"
BV10034152,,抚远路月罗公路(公交站),交通设施服务;公交车站;公交车站相关,宝山23路;宝山81路,,121.3547726,31.41764657,,上海市,,上海市,,宝山区,,"{'cost': , 'rating': }"
BV10034134,,月罗公路抚远路(公交站),交通设施服务;公交车站;公交车站相关,宝山21路,,121.354096,31.41533421,,上海市,,上海市,,宝山区,,"{'cost': , 'rating': }"
BX10016200,,友谊西路地铁站1号口,交通设施服务;地铁站;出入口,1号线,,121.423201,31.38360945,,上海市,,上海市,,宝山区,,"{'cost': , 'rating': }"
B0FFGLOWTM,,停车场(美兰湖大道),交通设施服务;停车场;公共停车场,美兰湖路与罗芬路交叉口东北260米,,121.354219,31.40123883,,上海市,,上海市,,宝山区,,"{'cost': , 'rating': }"
B0I6PMI8YR,,昊耀科创大厦地下停车场,交通设施服务;停车场;公共停车场,友谊路与蕰川公路交叉口东180米,,121.4251777,31.38497537,,上海市,,上海市,,宝山区,,"{'cost': , 'rating': }"
B0HKZ5R4VT,,美兰湖景区停车点,交通设施服务;停车场;公共停车场,美兰湖路与罗芬路交叉口东北260米,,121.3542799,31.40120174,,上海市,,上海市,,宝山区,,"{'cost': , 'rating': }"
B0FFMDSF28,,友谊西路站,交通设施服务;交通服务相关;交通服务相关,蕰川公路与湄星路交叉口西南60米(友谊西路地铁站1号口旁),,121.4230798,31.38353833,,上海市,,上海市,,宝山区,,"{'cost': , 'rating': }"
BV10034139,,友谊路杨泰路(公交站),交通设施服务;公交车站;公交车站相关,宝山21路;宝山28路;宝山9路,,121.4289163,31.38693267,,上海市,,上海市,,宝山区,,"{'cost': , 'rating': }"
BV10594453,,蕰川公路友谊路(公交站),交通设施服务;公交车站;公交车站相关,172路;宝山28路,,121.4237368,31.38285929,,上海市,,上海市,,宝山区,,"{'cost': , 'rating': }"
BX10016199,,友谊西路地铁站2号口,交通设施服务;地铁站;出入口,1号线,,121.4235015,31.3825731,,上海市,,上海市,,宝山区,,"{'cost': , 'rating': }"
BV10032413,,罗南新村(公交站),交通设施服务;公交车站;公交车站相关,1600路;宝山23路;宝山4路;宝山83路;宝山90路,,121.3615616,31.3873711,,上海市,,上海市,,宝山区,,"{'cost': , 'rating': }"
B0FFGLRSN0,,停车场(罗芬路),交通设施服务;停车场;公共停车场,美兰湖展览中心东北门东南310米,,121.3520111,31.40208807,,上海市,,上海市,,宝山区,,"{'cost': , 'rating': }"
B0I16AVQS2,,上海宝山站(建设中),交通设施服务;火车站;火车站,富锦路1540号,,121.4416978,31.40642616,,上海市,,上海市,,宝山区,,"{'cost': , 'rating': }"
BV09149115,,宝山站(地铁站),交通设施服务;地铁站;地铁站,(在建)19号线,,121.4416949,31.40602626,,上海市,,上海市,,宝山区,,"{'cost': , 'rating': }"
BV09072851,,马桥(公交站),交通设施服务;公交车站;公交车站相关,宝山21路;宝山81路,,121.3495258,31.41341505,,上海市,,上海市,,宝山区,,"{'cost': , 'rating': }"
B0GKKCZGCZ,,上海罗店宝龙广场停车场,交通设施服务;停车场;公共停车场,杨南路2211号宝龙广场(罗南新村地铁站1号口步行240米),,121.3547819,31.39082092,,上海市,,上海市,,宝山区,,"{'cost': , 'rating': }"
B0H37UDFGC,,美兰湖国际会议中心停车场,交通设施服务;停车场;公共停车场,罗芬路888号,,121.3503252,31.40329347,,上海市,,上海市,,宝山区,,"{'cost': , 'rating': }"
BV10032414,,罗南新村(地铁站),交通设施服务;地铁站;地铁站,7号线,,121.3528505,31.39064499,,上海市,,上海市,,宝山区,,"{'cost': , 'rating': }"
BV10034151,,市一路集贤路(公交站),交通设施服务;公交车站;公交车站相关,宝山23路;宝山81路;宝山84路,,121.3479575,31.41875528,,上海市,,上海市,,宝山区,,"{'cost': , 'rating': }"
BV10734503,,沪太公路美兰湖路(公交站),交通设施服务;公交车站;公交车站相关,834路;839路;963路;宝山16路;宝山93路,,121.3491059,31.39972047,,上海市,,上海市,,宝山区,,"{'cost': , 'rating': }"
BV10034079,,云林路石太路(公交站),交通设施服务;公交车站;公交车站相关,宝山10路;宝山89路;宝山91路,,121.3891599,31.45325464,,上海市,,上海市,,宝山区,,"{'cost': , 'rating': }"
BV10027608,,盛桥(公交站),交通设施服务;公交车站;公交车站相关,宝山10路;宝山14路;宝山18路;宝山6路,,121.4012976,31.45353027,,上海市,,上海市,,宝山区,,"{'cost': , 'rating': }"
B0GKKCY943,,上海罗店宝龙广场地下停车场,交通设施服务;停车场;公共停车场,杨南路2211号宝龙广场(罗南新村地铁站1号口步行110米),,121.3537928,31.39001469,,上海市,,上海市,,宝山区,,"{'cost': , 'rating': }"
BX10003371,,罗南新村地铁站1号口,交通设施服务;地铁站;出入口,7号线,,121.3533027,31.39040734,,上海市,,上海市,,宝山区,,"{'cost': , 'rating': }"
BV10027583,,祁北路抚远路(公交站),交通设施服务;公交车站;公交车站相关,宝山16路;宝山21路;宝山84路,,121.3490907,31.42495781,,上海市,,上海市,,宝山区,,"{'cost': , 'rating': }"
B0H64CKU0H,,大润发美兰湖店立体停车场,交通设施服务;停车场;公共停车场,罗迎路大润发旁(铂珏公馆西50米),,121.346527,31.41096575,,上海市,,上海市,,宝山区,,"{'cost': , 'rating': }"
BV10026224,,长浜(公交站),交通设施服务;公交车站;公交车站相关,963路;宝山16路;宝山23路,,121.35313,31.39025266,,上海市,,上海市,,宝山区,,"{'cost': , 'rating': }"
BV10039872,,美兰湖(地铁站),交通设施服务;地铁站;地铁站,7号线,,121.3452882,31.40371185,,上海市,,上海市,,宝山区,,"{'cost': , 'rating': }"
B0HGVZOHKY,,上置·美兰优湖地下停车场,交通设施服务;停车场;公共停车场,美丹路222号(上置美兰优湖),17765194001,121.3467352,31.40449314,,上海市,,上海市,,宝山区,,"{'cost': , 'rating': }"
BX10016902,,罗南新村地铁站2号口,交通设施服务;地铁站;出入口,7号线,,121.3524952,31.39051959,,上海市,,上海市,,宝山区,,"{'cost': , 'rating': }"
B0H14SRFLO,,上海市宝山区罗店医院停车场,交通设施服务;停车场;公共停车场,永顺路88号上海市宝山区罗店医院,,121.345849,31.41536575,,上海市,,上海市,,宝山区,,"{'cost': , 'rating': }"
BV10735829,,沪太公路杨南路(公交站),交通设施服务;公交车站;公交车站相关,834路;839路;963路;宝山16路;宝山23路;宝山93路,,121.3527417,31.39024328,,上海市,,上海市,,宝山区,,"{'cost': , 'rating': }"
BX10016980,,美兰湖地铁站1号口,交通设施服务;地铁站;出入口,7号线,,121.3457942,31.40375296,,上海市,,上海市,,宝山区,,"{'cost': , 'rating': }"
B00156EDNY,,上海美兰湖客运站,交通设施服务;交通服务相关;交通服务相关,罗芬路1088号(美兰湖地铁站1号口步行310米),021-36380887,121.3457472,31.40471378,,上海市,,上海市,,宝山区,,"{'cost': , 'rating': }"
BV10026191,,罗芬路美丹路(公交站),交通设施服务;公交车站;公交车站相关,1600路;1606路;963路;宝山31路;宝山81路,,121.3455736,31.40423221,,上海市,,上海市,,宝山区,,"{'cost': , 'rating': }"
BV10026227,,罗南(公交站),交通设施服务;公交车站;公交车站相关,963路;宝山16路,,121.3538988,31.38732132,,上海市,,上海市,,宝山区,,"{'cost': , 'rating': }"
BX09903102,,美兰湖地铁站出入口,交通设施服务;地铁站;出入口,7号线,,121.3459368,31.40421159,,上海市,,上海市,,宝山区,,"{'cost': , 'rating': }"
BV10405037,,沪太公路美丹路(公交站),交通设施服务;公交车站;公交车站相关,802路;834路;839路;886路;963路;宝山16路;宝山23路;宝山93路,,121.3455167,31.40343753,,上海市,,上海市,,宝山区,,"{'cost': , 'rating': }"
BV11089925,,美兰湖地铁站(公交站),交通设施服务;公交车站;公交车站相关,沪港快线,,121.3456185,31.40441608,,上海市,,上海市,,宝山区,,"{'cost': , 'rating': }"
BV10736002,,美兰湖(公交站),交通设施服务;公交车站;公交车站相关,上海-浏河(美兰湖);浏河-上海(美兰湖),,121.3456544,31.40460996,,上海市,,上海市,,宝山区,,"{'cost': , 'rating': }"
BX10003373,,美兰湖地铁站2号口,交通设施服务;地铁站;出入口,7号线,,121.3451824,31.4034611,,上海市,,上海市,,宝山区,,"{'cost': , 'rating': }"
BV10555727,,杨南路沪太公路(公交站),交通设施服务;公交车站;公交车站相关,1607路;834路;839路;886路;宝山4路;宝山92路;宝山93路,,121.3517587,31.38900821,,上海市,,上海市,,宝山区,,"{'cost': , 'rating': }"
B0H0Y5L09U,,上海市宝山区殡仪馆停车场,交通设施服务;停车场;公共停车场,宝安公路与蕰川公路辅路交叉口西480米,,121.4210291,31.37302432,,上海市,,上海市,,宝山区,,"{'cost': , 'rating': }"
B0H0Y5J4H7,,上海市宝山区殡仪馆停车场(出入口),交通设施服务;停车场;停车场出入口,宝安公路与蕰川公路辅路交叉口西460米,,121.4212714,31.37296259,,上海市,,上海市,,宝山区,,"{'cost': , 'rating': }"
BV10034141,,友谊路江杨北路(公交站),交通设施服务;公交车站;公交车站相关,1609路;宝山21路;宝山28路;宝山2路;宝山7路,,121.4435803,31.3931965,,上海市,,上海市,,宝山区,,"{'cost': , 'rating': }"
BV10033267,,松兰路镇泰路(公交站),交通设施服务;公交车站;公交车站相关,1609路;宝山2路,,121.4384796,31.3855202,,上海市,,上海市,,宝山区,,"{'cost': , 'rating': }"
BV10026193,,罗溪路月罗公路(公交站),交通设施服务;公交车站;公交车站相关,834路;839路;宝山16路;宝山21路;宝山23路;宝山31路;宝山82路,,121.3428941,31.41625968,,上海市,,上海市,,宝山区,,"{'cost': , 'rating': }"
BV10026194,,罗溪路市一路(公交站),交通设施服务;公交车站;公交车站相关,834路;839路;宝山16路;宝山21路;宝山31路;宝山81路;宝山82路;宝山84路,,121.342387,31.41765722,,上海市,,上海市,,宝山区,,"{'cost': , 'rating': }"
BV10039887,,宝安公路(地铁站),交通设施服务;地铁站;地铁站,1号线,,121.4262725,31.37135391,,上海市,,上海市,,宝山区,,"{'cost': , 'rating': }"
B0FFFE7WCQ,,闻道园停车场,交通设施服务;停车场;公共停车场,潘泾路2888号闻道园(东北角),,121.3526684,31.44161602,,上海市,,上海市,,宝山区,,"{'cost': , 'rating': }"
B0IGPUISVT,,岚亭停车场锦爱路,交通设施服务;停车场;停车场相关,锦爱路508号,,121.4502309,31.405153,,上海市,,上海市,,宝山区,,"{'cost': , 'rating': }"
BV10026228,,蔡家弄(公交站),交通设施服务;公交车站;公交车站相关,963路;宝山16路,,121.3621418,31.37436725,,上海市,,上海市,,宝山区,,"{'cost': , 'rating': }"
BX10016264,,宝安公路地铁站1号口,交通设施服务;地铁站;出入口,1号线,,121.4262935,31.37164384,,上海市,,上海市,,宝山区,,"{'cost': , 'rating': }"
B0GRO63NIG,,上海宝山寺停车场,交通设施服务;停车场;公共停车场,罗店镇罗溪路518号宝山寺,,121.3398064,31.41931243,,上海市,,上海市,,宝山区,,"{'cost': , 'rating': }"
B0H04Z9675,,停车场,交通设施服务;停车场;公共停车场,铁山路1087号,,121.4469817,31.39189377,,上海市,,上海市,,宝山区,,"{'cost': , 'rating': }"
BV11053593,,宝山寺(公交站),交通设施服务;公交车站;公交车站相关,宝山16路;宝山21路;宝山31路;宝山81路;宝山84路,,121.3406324,31.42170033,,上海市,,上海市,,宝山区,,"{'cost': , 'rating': }"
BV11152820,,电台路白荡河路(公交站),交通设施服务;公交车站;公交车站相关,1604路;宝山32路,,121.3841784,31.3645688,,上海市,,上海市,,宝山区,,"{'cost': , 'rating': }"
B0FFGLFEFB,,停车场(罗店镇古镇居委会北),交通设施服务;停车场;公共停车场,罗溪路518号附近,,121.3394521,31.41918211,,上海市,,上海市,,宝山区,,"{'cost': , 'rating': }"
BV10033299,,友谊路铁山路(公交站),交通设施服务;公交车站;公交车站相关,1609路;711路;宝山21路;宝山2路;宝山7路,,121.4496451,31.39619822,,上海市,,上海市,,宝山区,,"{'cost': , 'rating': }"
B0I6UAFXIB,,地面停车场,交通设施服务;停车场;公共停车场,联合村路与年吉路交叉口北100米,,121.3401629,31.4041728,,上海市,,上海市,,宝山区,,"{'cost': , 'rating': }"
BV10027585,,罗溪路祁北路(公交站),交通设施服务;公交车站;公交车站相关,834路;839路;841路;宝山82路,,121.3407192,31.42220404,,上海市,,上海市,,宝山区,,"{'cost': , 'rating': }"
BX10016261,,宝安公路地铁站3号口,交通设施服务;地铁站;出入口,1号线,,121.4262986,31.37073614,,上海市,,上海市,,宝山区,,"{'cost': , 'rating': }"
BX10016263,,宝安公路地铁站2号口,交通设施服务;地铁站;出入口,1号线,,121.4265439,31.3709044,,上海市,,上海市,,宝山区,,"{'cost': , 'rating': }"
BV10026220,,月罗公路罗太路(公交站),交通设施服务;公交车站;公交车站相关,1606路;834路;839路;宝山16路;宝山23路;宝山82路,,121.3395659,31.40768593,,上海市,,上海市,,宝山区,,"{'cost': , 'rating': }"
B0G0RCE9BA,,上坤上街购物中心地下停车场,交通设施服务;停车场;公共停车场,塘西街299弄5号楼上坤上街购物中心,,121.3378995,31.41970481,,上海市,,上海市,,宝山区,,"{'cost': , 'rating': }"
BV10039982,,铁力路(地铁站),交通设施服务;地铁站;地铁站,3号线,,121.4565619,31.40996426,,上海市,,上海市,,宝山区,,"{'cost': , 'rating': }"
BV10026221,,罗店汽车站(公交站),交通设施服务;公交车站;公交车站相关,1600路,,121.3359284,31.41233338,,上海市,,上海市,,宝山区,,"{'cost': , 'rating': }"
BV10027610,,石洞口码头(公交站),交通设施服务;公交车站;公交车站相关,宝山14路,,121.4116468,31.46161963,,上海市,,上海市,,宝山区,,"{'cost': , 'rating': }"
B00156ZM9L,,石洞口轮站,交通设施服务;港口码头;客运港,盛石路28号,021-56152070;021-56153537,121.4118759,31.46352639,,上海市,,上海市,,宝山区,,"{'cost': , 'rating': }"
BV10876680,,电台路宝安公路(公交站),交通设施服务;公交车站;公交车站相关,702路;811路,,121.3867454,31.35877135,,上海市,,上海市,,宝山区,,"{'cost': , 'rating': }"
BV10027575,,电台路沙浦路(公交站),交通设施服务;公交车站;公交车站相关,345路;宝山16路;宝山3路,,121.3871323,31.35792545,,上海市,,上海市,,宝山区,,"{'cost': , 'rating': }"
B0HR1ZBVUM,,太平禅寺停车场,交通设施服务;停车场;公共停车场,富联路328弄28号太平禅寺,,121.4067149,31.35789384,,上海市,,上海市,,宝山区,,"{'cost': , 'rating': }"
BV09092739,,沪太路宝安公路(公交站),交通设施服务;公交车站;公交车站相关,1610路,,121.3729562,31.35928437,,上海市,,上海市,,宝山区,,"{'cost': , 'rating': }"
BV10028832,,水产西路富联路(公交站),交通设施服务;公交车站;公交车站相关,1602路;345路;宝山1路;宝山3路;宝山90路,,121.4091173,31.35688826,,上海市,,上海市,,宝山区,,"{'cost': , 'rating': }"
B0FFHPPGYQ,,上海宝权停车场,交通设施服务;停车场;公共停车场,铁力路1490号,,121.4600382,31.39708931,,上海市,,上海市,,宝山区,,"{'cost': , 'rating': }"
B0H625XTLM,,翼生活广场地下停车场,交通设施服务;停车场;公共停车场,水产路2499号,,121.4380031,31.36829366,,上海市,,上海市,,宝山区,,"{'cost': , 'rating': }"
BV10026229,,刘行(公交站),交通设施服务;公交车站;公交车站相关,963路;嘉泰线;宝山16路,,121.3688852,31.35993849,,上海市,,上海市,,宝山区,,"{'cost': , 'rating': }"
BV10617466,,宝安公路菊泉街(公交站),交通设施服务;公交车站;公交车站相关,1610路;528路;811路;宝山1路;宝山29路,,121.3679196,31.35981864,,上海市,,上海市,,宝山区,,"{'cost': , 'rating': }"
B0FFKJ4JH9,,宝杨路2035号停车场,交通设施服务;停车场;公共停车场,宝杨路2035号,,121.4594841,31.39073176,,上海市,,上海市,,宝山区,,"{'cost': , 'rating': }"
B0H6YUB6CJ,,宝山花园城地下停车场,交通设施服务;停车场;公共停车场,水产路与杨泰路交叉口东北180米,,121.4431534,31.36981872,,上海市,,上海市,,宝山区,,"{'cost': , 'rating': }"
BV11066094,,石洞口码头(轮渡站),交通设施服务;轮渡站;轮渡站,南石线车客渡,,121.4166357,31.46841294,,上海市,,上海市,,宝山区,,"{'cost': , 'rating': }"
B0H6YUB6CJ,,宝山花园城地下停车场,交通设施服务;停车场;公共停车场,水产路与杨泰路交叉口东北180米,,121.4431534,31.36981872,,上海市,,上海市,,宝山区,,"{'cost': , 'rating': }"
BV11066094,,石洞口码头(轮渡站),交通设施服务;轮渡站;轮渡站,南石线车客渡,,121.4166357,31.46841294,,上海市,,上海市,,宝山区,,"{'cost': , 'rating': }"
BV10039871,,潘广路(地铁站),交通设施服务;地铁站;地铁站,7号线,,121.3512307,31.36600612,,上海市,,上海市,,宝山区,,"{'cost': , 'rating': }"
B0FFHOG1SQ,,宝山钢铁股份有限公司2号门立体停车场,交通设施服务;停车场;专用停车场,宝钢丰宝加油站斜对面,,121.4649006,31.41481093,,上海市,,上海市,,宝山区,,"{'cost': , 'rating': }"
B00156ZP95,,宝钢私家车地面停车场,交通设施服务;停车场;公共停车场,牡丹江路2000号,,121.464763,31.41686503,,上海市,,上海市,,宝山区,,"{'cost': , 'rating': }"
B0HBTC44FD,,龙湖上海宝山天街停车场,交通设施服务;停车场;公共停车场,丹霞山路50弄1号龙湖·上海宝山天街,,121.3553143,31.36386539,,上海市,,上海市,,宝山区,,"{'cost': , 'rating': }"
BV11521760,,石洞口(轮渡站),交通设施服务;轮渡站;轮渡站,新河-石洞口,,121.4166347,31.46841494,,上海市,,上海市,,宝山区,,"{'cost': , 'rating': }"
B0HGAC17LZ,,龙湖·北城天街地下停车场,交通设施服务;停车场;公共停车场,顾村镇陆翔路1018弄1号龙湖·北城天街,,121.3558434,31.36334175,,上海市,,上海市,,宝山区,,"{'cost': , 'rating': }"
BV10026230,,刘行(地铁站),交通设施服务;地铁站;地铁站,7号线,,121.3577504,31.3594022,,上海市,,上海市,,宝山区,,"{'cost': , 'rating': }"
BV10039888,,共富新村(地铁站),交通设施服务;地铁站;地铁站,1号线,,121.4294278,31.3568898,,上海市,,上海市,,宝山区,,"{'cost': , 'rating': }"
B0HA17GC5B,,龙湖上海宝山天街地下停车场,交通设施服务;停车场;公共停车场,丹霞山路50弄1号龙湖·上海宝山天街,021-33286668,121.3588944,31.35974443,,上海市,,上海市,,宝山区,,"{'cost': , 'rating': }"
BV10034169,,泰和西路蕰川路(公交站),交通设施服务;公交车站;公交车站相关,828路;宝山1路;宝山25路,,121.4276689,31.35749619,,上海市,,上海市,,宝山区,,"{'cost': , 'rating': }"
BX10025078,,刘行地铁站1号口,交通设施服务;地铁站;出入口,7号线,,121.35795,31.35955186,,上海市,,上海市,,宝山区,,"{'cost': , 'rating': }"
BX10016204,,共富新村地铁站1号口,交通设施服务;地铁站;出入口,1号线,,121.4299687,31.35746237,,上海市,,上海市,,宝山区,,"{'cost': , 'rating': }"
BV10027597,,蕰川路泰和路(公交站),交通设施服务;公交车站;公交车站相关,172路;527路;701路;705路;719路;宝山1路,,121.4298986,31.35726934,,上海市,,上海市,,宝山区,,"{'cost': , 'rating': }"
BV10028827,,泰和路蕰川路(公交站),交通设施服务;公交车站;公交车站相关,1602路;719路;嘉泰线;宝山13路;宝山15路;宝山16路;宝山25路;宝山2路;宝山30路;宝山3路;宝山7路;宝山90路;宝山9路,,121.4307271,31.35642381,,上海市,,上海市,,宝山区,,"{'cost': , 'rating': }"
B0FFG69UDP,,共富新村地铁站停车场(泰和西路),交通设施服务;停车场;公共停车场,蕰川公路608号(共富新村地铁站3号口旁),,121.4286856,31.35623498,,上海市,,上海市,,宝山区,,"{'cost': , 'rating': }"
BV10405544,,顾村公园(沪太公路)(公交站),交通设施服务;公交车站;公交车站相关,963路,,121.3788278,31.35091394,,上海市,,上海市,,宝山区,,"{'cost': , 'rating': }"
B0FFJ2CXTO,,顾村公园1号门停车场,交通设施服务;停车场;公共停车场,沪太公路,021-56045601,121.3770237,31.34939292,,上海市,,上海市,,宝山区,,"{'cost': , 'rating': }"
BV10039983,,友谊路(地铁站),交通设施服务;地铁站;地铁站,3号线,,121.4713933,31.40589979,,上海市,,上海市,,宝山区,,"{'cost': , 'rating': }"
B0I6BUNKEE,,上海交通大学医学院附属第九人民医院北部院区地面停车场,交通设施服务;停车场;公共停车场,漠河路280号上海交通大学医学院附属第九人民医院北部院区,,121.472893,31.40975691,,上海市,,上海市,,宝山区,,"{'cost': , 'rating': }"
B0FFIC4696,,宝钢医院停车场(出入口),交通设施服务;停车场;公共停车场,漠河路与樟岭路交叉口东160米,,121.4735049,31.41114125,,上海市,,上海市,,宝山区,,"{'cost': , 'rating': }"
B0FFIVOHPU,,上海森茂仓储有限公司停车场,交通设施服务;停车场;停车场相关,五金杂货平板车手拉车东北(铁杨路),,121.4444202,31.35990041,,上海市,,上海市,,宝山区,,"{'cost': , 'rating': }"
B0H2G7W2IY,,漠河路-道路停车位,交通设施服务;停车场;路边停车场,漠河路161号附近,,121.4732982,31.41128664,,上海市,,上海市,,宝山区,,"{'cost': , 'rating': }"
B0G3ALG8AP,,齐盈生态地面停车场,交通设施服务;停车场;公共停车场,铁城路与水产中路交叉口西北140米,,121.4461524,31.36013985,,上海市,,上海市,,宝山区,,"{'cost': , 'rating': }"
B0HRFH38S4,,复旦大学附属华山医院北院地面停车场,交通设施服务;停车场;公共停车场,陆翔路108号复旦大学附属华山医院(宝山院区),021-66895999,121.3705352,31.34799966,,上海市,,上海市,,宝山区,,"{'cost': , 'rating': }"
B0FFHYITYC,,上海宝钢综合码头,交通设施服务;港口码头;港口码头,上海市第十二机动车检测站东南侧450米,,121.4730843,31.42453462,,上海市,,上海市,,宝山区,,"{'cost': , 'rating': }"
BV10026163,,宝杨路(地铁站),交通设施服务;地铁站;地铁站,3号线,,121.4750563,31.39721144,,上海市,,上海市,,宝山区,,"{'cost': , 'rating': }"
BV10026233,,顾村公园(地铁站),交通设施服务;地铁站;地铁站,15号线;7号线,,121.3683681,31.34640063,,上海市,,上海市,,宝山区,,"{'cost': , 'rating': }"
BX10016962,,顾村公园地铁站1号口,交通设施服务;地铁站;出入口,15号线;7号线,,121.3682193,31.3469826,,上海市,,上海市,,宝山区,,"{'cost': , 'rating': }"
BV10028617,,陆翔路镜泊湖路(公交站),交通设施服务;公交车站;公交车站相关,1604路;1605路;345路;527路;宝山29路;宝山38路;宝山3路;宝山50路,,121.3680635,31.34686682,,上海市,,上海市,,宝山区,,"{'cost': , 'rating': }"
B0FFIBQ7RJ,,顾村公园2号门停车场,交通设施服务;停车场;公共停车场,顾村镇镜泊湖路保利叶语一期对面,021-56045601,121.3668823,31.34484291,,上海市,,上海市,,宝山区,,"{'cost': , 'rating': }"
