id,行业类型,名称,类型,地址,联系电话,lng,lat,省份代码,省份名称,城市代码,城市名称,区域代码,区域名称,所在商圈,rating
BV09044159,,西新镇(公交站),交通设施服务;公交车站;公交车站相关,南建专线,,121.2523244,31.78315304,,上海市,,上海市,,崇明区,,"{'cost': , 'rating': }"
BV11366338,,新海水闸(红绿灯路口)(公交站),交通设施服务;公交车站;公交车站相关,南牛线区间,,121.2440309,31.78347646,,上海市,,上海市,,崇明区,,"{'cost': , 'rating': }"
BV11566616,,新建路(招呼站)(公交站),交通设施服务;公交车站;公交车站相关,南牛线;南牛线区间,,121.244292,31.78265619,,上海市,,上海市,,崇明区,,"{'cost': , 'rating': }"
BV10323241,,新海水闸(公交站),交通设施服务;公交车站;公交车站相关,南建专线;南牛线;南牛线区间,,121.2395053,31.78474545,,上海市,,上海市,,崇明区,,"{'cost': , 'rating': }"
BV11566613,,新海水闸(招呼站)(公交站),交通设施服务;公交车站;公交车站相关,南牛线,,121.2390782,31.78479035,,上海市,,上海市,,崇明区,,"{'cost': , 'rating': }"
BV10027554,,实验站(公交站),交通设施服务;公交车站;公交车站相关,南跃线,,121.2513952,31.81813792,,上海市,,上海市,,崇明区,,"{'cost': , 'rating': }"
BV10323240,,新东(公交站),交通设施服务;公交车站;公交车站相关,南建专线,,121.2598292,31.78227834,,上海市,,上海市,,崇明区,,"{'cost': , 'rating': }"
BV10386247,,招呼站(公交站),交通设施服务;公交车站;公交车站相关,南跃线,,121.2396947,31.8170199,,上海市,,上海市,,崇明区,,"{'cost': , 'rating': }"
BV10027445,,育新村(公交站),交通设施服务;公交车站;公交车站相关,南建专线,,121.2320642,31.78541667,,上海市,,上海市,,崇明区,,"{'cost': , 'rating': }"
BV11341071,,育新村(招呼站)(公交站),交通设施服务;公交车站;公交车站相关,南牛线;南牛线区间,,121.2320642,31.78541667,,上海市,,上海市,,崇明区,,"{'cost': , 'rating': }"
BV11453308,,实验站(招呼站)(公交站),交通设施服务;公交车站;公交车站相关,南跃线,,121.2606266,31.81899312,,上海市,,上海市,,崇明区,,"{'cost': , 'rating': }"
BV10925570,,仓望港(招呼站)(公交站),交通设施服务;公交车站;公交车站相关,南跃线,,121.2608782,31.81901879,,上海市,,上海市,,崇明区,,"{'cost': , 'rating': }"
BV10027555,,黄浦码头(公交站),交通设施服务;公交车站;公交车站相关,南跃线,,121.2329774,31.81633534,,上海市,,上海市,,崇明区,,"{'cost': , 'rating': }"
BV10323259,,海滨村(公交站),交通设施服务;公交车站;公交车站相关,南建专线,,121.2706167,31.78090021,,上海市,,上海市,,崇明区,,"{'cost': , 'rating': }"
BV11330544,,仓望港(公交站),交通设施服务;公交车站;公交车站相关,南跃线,,121.2693931,31.81983012,,上海市,,上海市,,崇明区,,"{'cost': , 'rating': }"
BV10027566,,北新桥(公交站),交通设施服务;公交车站;公交车站相关,南新专线;南海线;崇明南新专线接驳线,,121.2818285,31.79429285,,上海市,,上海市,,崇明区,,"{'cost': , 'rating': }"
BV11534950,,临时站(公交站),交通设施服务;公交车站;公交车站相关,南跃线,,121.2703147,31.81991834,,上海市,,上海市,,崇明区,,"{'cost': , 'rating': }"
B0FFHHP77E,,小陈螃蟹停车场,交通设施服务;停车场;公共停车场,育道北路,,121.2486004,31.7728502,,上海市,,上海市,,崇明区,,"{'cost': , 'rating': }"
BV10323243,,奶牛场(公交站),交通设施服务;公交车站;公交车站相关,南建专线;南牛线;南牛线区间,,121.2212704,31.786499,,上海市,,上海市,,崇明区,,"{'cost': , 'rating': }"
BV11287917,,桥北路(招呼站)(公交站),交通设施服务;公交车站;公交车站相关,南新专线;南海线,,121.2830969,31.80252602,,上海市,,上海市,,崇明区,,"{'cost': , 'rating': }"
BV11490644,,三官村(招呼站)(公交站),交通设施服务;公交车站;公交车站相关,南新专线,,121.2807491,31.78799777,,上海市,,上海市,,崇明区,,"{'cost': , 'rating': }"
BV11330539,,北沿公路(招呼站)(公交站),交通设施服务;公交车站;公交车站相关,南跃线,,121.2753281,31.82040773,,上海市,,上海市,,崇明区,,"{'cost': , 'rating': }"
BV11330543,,邮电局(招呼站)(公交站),交通设施服务;公交车站;公交车站相关,南跃线,,121.2207896,31.81510046,,上海市,,上海市,,崇明区,,"{'cost': , 'rating': }"
BV10027556,,跃进农场(公交站),交通设施服务;公交车站;公交车站相关,南跃线,,121.2185274,31.8167782,,上海市,,上海市,,崇明区,,"{'cost': , 'rating': }"
BV10908213,,育德村(公交站),交通设施服务;公交车站;公交车站相关,南牛线;南牛线区间,,121.2500421,31.76824522,,上海市,,上海市,,崇明区,,"{'cost': , 'rating': }"
BV11303367,,白港(公交站),交通设施服务;公交车站;公交车站相关,南新专线;南海线;崇明南新专线接驳线,,121.2844057,31.81175241,,上海市,,上海市,,崇明区,,"{'cost': , 'rating': }"
BV10027391,,三星镇(公交站),交通设施服务;公交车站;公交车站相关,南建专线;南新专线;崇明南新专线接驳线,,121.2790781,31.77855428,,上海市,,上海市,,崇明区,,"{'cost': , 'rating': }"
BV10599636,,奶牛场桥(招呼站)(公交站),交通设施服务;公交车站;公交车站相关,南建专线;南牛线;南牛线区间,,121.217457,31.78431181,,上海市,,上海市,,崇明区,,"{'cost': , 'rating': }"
BV11341073,,华荣村(招呼站)(公交站),交通设施服务;公交车站;公交车站相关,南牛线区间,,121.217457,31.78431181,,上海市,,上海市,,崇明区,,"{'cost': , 'rating': }"
BV10029182,,华荣村(公交站),交通设施服务;公交车站;公交车站相关,崇明乡村6路;崇明乡村6路区间,,121.2162566,31.7848107,,上海市,,上海市,,崇明区,,"{'cost': , 'rating': }"
BV10386244,,新海镇政府(招呼站)(公交站),交通设施服务;公交车站;公交车站相关,南跃线,,121.2826571,31.82107047,,上海市,,上海市,,崇明区,,"{'cost': , 'rating': }"
BV11282334,,三官堂(公交站),交通设施服务;公交车站;公交车站相关,南海线,,121.2909523,31.79186144,,上海市,,上海市,,崇明区,,"{'cost': , 'rating': }"
BV10025507,,八号桥(公交站),交通设施服务;公交车站;公交车站相关,南建专线;南牛线;南牛线区间;崇明乡村6路;崇明乡村6路区间,,121.2149736,31.78099606,,上海市,,上海市,,崇明区,,"{'cost': , 'rating': }"
BV11303368,,新海农场(公交站),交通设施服务;公交车站;公交车站相关,南新专线;南海线;南跃线;崇明南新专线接驳线,,121.2855871,31.82039,,上海市,,上海市,,崇明区,,"{'cost': , 'rating': }"
B0GU2BC6ZE,,宏海公路-路侧停车位,交通设施服务;停车场;停车场相关,宏海公路与海腾路交叉口南40米,,121.285619,31.82058198,,上海市,,上海市,,崇明区,,"{'cost': , 'rating': }"
BV10923150,,新海医院(招呼站)(公交站),交通设施服务;公交车站;公交车站相关,南跃线,,121.2887904,31.82090969,,上海市,,上海市,,崇明区,,"{'cost': , 'rating': }"
B00156NQFZ,,新海学校停车场,交通设施服务;停车场;公共停车场,北沿公路3336号新海学校,,121.2906494,31.82088895,,上海市,,上海市,,崇明区,,"{'cost': , 'rating': }"
BV10027438,,纯阳堂桥(公交站),交通设施服务;公交车站;公交车站相关,南建专线;南新专线;崇明南新专线接驳线,,121.2778472,31.77116826,,上海市,,上海市,,崇明区,,"{'cost': , 'rating': }"
BV10908214,,烈士村(公交站),交通设施服务;公交车站;公交车站相关,南牛线;南牛线区间,,121.2546502,31.76245437,,上海市,,上海市,,崇明区,,"{'cost': , 'rating': }"
BV10029186,,七号坝桥(公交站),交通设施服务;公交车站;公交车站相关,崇明乡村6路;崇明乡村6路区间,,121.2088166,31.78539187,,上海市,,上海市,,崇明区,,"{'cost': , 'rating': }"
BV11330386,,海桥小学(招呼站)(公交站),交通设施服务;公交车站;公交车站相关,南海线,,121.2960374,31.79105468,,上海市,,上海市,,崇明区,,"{'cost': , 'rating': }"
B00156EF8H,,停车场(海辉路),交通设施服务;停车场;公共停车场,海辉路与兴谷路交叉口西北40米,,121.2871928,31.82321229,,上海市,,上海市,,崇明区,,"{'cost': , 'rating': }"
B0FFG69PVB,,海辉路-道路停车位,交通设施服务;停车场;路边停车场,海辉路与兴谷路交叉口东40米,,121.2879391,31.82293797,,上海市,,上海市,,崇明区,,"{'cost': , 'rating': }"
B0H33HRSVG,,停车场(海腾路),交通设施服务;停车场;停车场相关,海辉路新海二村北区,,121.290392,31.82284544,,上海市,,上海市,,崇明区,,"{'cost': , 'rating': }"
BV10027389,,三星中学(公交站),交通设施服务;公交车站;公交车站相关,南建专线;南新专线;崇明南新专线接驳线,,121.2769349,31.76555394,,上海市,,上海市,,崇明区,,"{'cost': , 'rating': }"
BV09070387,,四号桥(招呼站)(公交站),交通设施服务;公交车站;公交车站相关,南建专线;南牛线;南牛线区间;崇明乡村6路;崇明乡村6路区间,,121.2114095,31.77625515,,上海市,,上海市,,崇明区,,"{'cost': , 'rating': }"
B0GKCUTTX2,,西沙明珠湖景区正门停车场,交通设施服务;停车场;公共停车场,三华公路333号明珠湖公园内,,121.2466796,31.75578233,,上海市,,上海市,,崇明区,,"{'cost': , 'rating': }"
BV10943444,,明珠湖公园(公交站),交通设施服务;公交车站;公交车站相关,南牛线,,121.2467954,31.75638545,,上海市,,上海市,,崇明区,,"{'cost': , 'rating': }"
BV11566609,,明珠湖(公交站),交通设施服务;公交车站;公交车站相关,南牛线,,121.247602,31.75628516,,上海市,,上海市,,崇明区,,"{'cost': , 'rating': }"
B0FFK6TPIO,,西沙明珠湖景区停车场(出口),交通设施服务;停车场;停车场出口,三华公路333号明珠湖公园内,,121.2452522,31.75634481,,上海市,,上海市,,崇明区,,"{'cost': , 'rating': }"
BV10029183,,通裕路南桥(公交站),交通设施服务;公交车站;公交车站相关,崇明乡村6路;崇明乡村6路区间,,121.2028804,31.7858559,,上海市,,上海市,,崇明区,,"{'cost': , 'rating': }"
BV11468959,,水产良种场(公交站),交通设施服务;公交车站;公交车站相关,南牛线,,121.2387369,31.75744064,,上海市,,上海市,,崇明区,,"{'cost': , 'rating': }"
BV10034494,,海桥镇(公交站),交通设施服务;公交车站;公交车站相关,南海二线;南海线;崇明乡村11路,,121.302589,31.79000767,,上海市,,上海市,,崇明区,,"{'cost': , 'rating': }"
B0FFG1P6EI,,西沙明珠湖公园景观车停放充电处,交通设施服务;停车场;专用停车场,三华公路333号明珠湖公园内,,121.2487013,31.75546151,,上海市,,上海市,,崇明区,,"{'cost': , 'rating': }"
BV11330540,,新海农场(招呼站)(公交站),交通设施服务;公交车站;公交车站相关,南跃线,,121.2974664,31.81992233,,上海市,,上海市,,崇明区,,"{'cost': , 'rating': }"
BV09211977,,新洲不锈钢厂(公交站),交通设施服务;公交车站;公交车站相关,南红专线,,121.263982,31.84323904,,上海市,,上海市,,崇明区,,"{'cost': , 'rating': }"
B00155DS86,,上海亚通股份有限公司牛棚港客运站,交通设施服务;港口码头;港口码头,跃进公路,,121.2174199,31.83647122,,上海市,,上海市,,崇明区,,"{'cost': , 'rating': }"
BV11106637,,华星村(公交站),交通设施服务;公交车站;公交车站相关,南牛线,,121.2227422,31.7599958,,上海市,,上海市,,崇明区,,"{'cost': , 'rating': }"
BV10036594,,陈海公路三华路(公交站),交通设施服务;公交车站;公交车站相关,南牛线;南牛线区间,,121.2614483,31.75398148,,上海市,,上海市,,崇明区,,"{'cost': , 'rating': }"
BV11486468,,华联超市(招呼站)(公交站),交通设施服务;公交车站;公交车站相关,南建专线;南牛线;南牛线区间;崇明乡村6路,,121.2098499,31.76918863,,上海市,,上海市,,崇明区,,"{'cost': , 'rating': }"
BV11556387,,联华超市(招呼站)(公交站),交通设施服务;公交车站;公交车站相关,崇明乡村6路区间,,121.2098499,31.76918863,,上海市,,上海市,,崇明区,,"{'cost': , 'rating': }"
B0FFIB1MIC,,新建公路-道路停车位,交通设施服务;停车场;路边停车场,新建公路与东福路交叉口北60米,,121.2097607,31.76909039,,上海市,,上海市,,崇明区,,"{'cost': , 'rating': }"
BV09211976,,新洲不锈钢厂(招呼站)(公交站),交通设施服务;公交车站;公交车站相关,南红专线,,121.2697272,31.84262771,,上海市,,上海市,,崇明区,,"{'cost': , 'rating': }"
BV11282335,,织布厂(公交站),交通设施服务;公交车站;公交车站相关,南海线,,121.3027726,31.78240473,,上海市,,上海市,,崇明区,,"{'cost': , 'rating': }"
BV11326289,,三条桥(招呼站)(公交站),交通设施服务;公交车站;公交车站相关,南建专线;南新专线,,121.2754609,31.75625599,,上海市,,上海市,,崇明区,,"{'cost': , 'rating': }"
BV11486748,,社西村(招呼站)(公交站),交通设施服务;公交车站;公交车站相关,南建专线;南新专线,,121.2754689,31.75632499,,上海市,,上海市,,崇明区,,"{'cost': , 'rating': }"
BV10027403,,绿华镇(公交站),交通设施服务;公交车站;公交车站相关,南建专线;南牛线;南牛线区间;崇明乡村6路;崇明乡村6路区间,,121.2095308,31.76577496,,上海市,,上海市,,崇明区,,"{'cost': , 'rating': }"
BV10385710,,新洲(公交站),交通设施服务;公交车站;公交车站相关,南红专线,,121.2777173,31.84178577,,上海市,,上海市,,崇明区,,"{'cost': , 'rating': }"
BV11038714,,界河桥(公交站),交通设施服务;公交车站;公交车站相关,南海线,,121.3019562,31.77635988,,上海市,,上海市,,崇明区,,"{'cost': , 'rating': }"
BV11481160,,大平村(招呼站)(公交站),交通设施服务;公交车站;公交车站相关,南海线,,121.3057727,31.77546888,,上海市,,上海市,,崇明区,,"{'cost': , 'rating': }"
BV11328798,,新庄(招呼站)(公交站),交通设施服务;公交车站;公交车站相关,南红专线,,121.2827313,31.84125156,,上海市,,上海市,,崇明区,,"{'cost': , 'rating': }"
B0FFFPAYTA,,桔香园农家乐停车场,交通设施服务;停车场;专用停车场,西沙绿港生态村建民713号,,121.2202811,31.75506868,,上海市,,上海市,,崇明区,,"{'cost': , 'rating': }"
BV11566614,,三华公路新建公路(公交站),交通设施服务;公交车站;公交车站相关,南牛线,,121.2111466,31.76059927,,上海市,,上海市,,崇明区,,"{'cost': , 'rating': }"
BV10036516,,新庄(公交站),交通设施服务;公交车站;公交车站相关,南红专线,,121.288501,31.84063968,,上海市,,上海市,,崇明区,,"{'cost': , 'rating': }"
BV10323257,,协进村(公交站),交通设施服务;公交车站;公交车站相关,南建专线;南新专线;崇明南新专线接驳线,,121.2785882,31.75185936,,上海市,,上海市,,崇明区,,"{'cost': , 'rating': }"
BV10029185,,新绿镇桥(公交站),交通设施服务;公交车站;公交车站相关,崇明乡村6路;崇明乡村6路区间,,121.1900043,31.78691144,,上海市,,上海市,,崇明区,,"{'cost': , 'rating': }"
BV10027514,,海洪港村(公交站),交通设施服务;公交车站;公交车站相关,南牛线;南牛线区间,,121.2666729,31.74775178,,上海市,,上海市,,崇明区,,"{'cost': , 'rating': }"
BV10034492,,北平村(公交站),交通设施服务;公交车站;公交车站相关,南海二线;崇明乡村11路,,121.3122862,31.78878158,,上海市,,上海市,,崇明区,,"{'cost': , 'rating': }"
BV11400651,,海桥八队(公交站),交通设施服务;公交车站;公交车站相关,崇明乡村11路,,121.3115691,31.78528123,,上海市,,上海市,,崇明区,,"{'cost': , 'rating': }"
BV11534948,,海桥八队(招呼站)(公交站),交通设施服务;公交车站;公交车站相关,南海二线,,121.311591,31.78532417,,上海市,,上海市,,崇明区,,"{'cost': , 'rating': }"
BV10758434,,十间楼房(招呼站)(公交站),交通设施服务;公交车站;公交车站相关,南红专线,,121.295017,31.83940955,,上海市,,上海市,,崇明区,,"{'cost': , 'rating': }"
B0FFFDG6EI,,平湖飞渡(出口),交通设施服务;港口码头;港口码头,三华公路333号明珠湖公园内,,121.2444955,31.74447802,,上海市,,上海市,,崇明区,,"{'cost': , 'rating': }"
BV10323245,,新建河口(公交站),交通设施服务;公交车站;公交车站相关,南建专线;崇明乡村6路;崇明乡村6路区间,,121.2084235,31.75682598,,上海市,,上海市,,崇明区,,"{'cost': , 'rating': }"
BV11038712,,老鲜行(公交站),交通设施服务;公交车站;公交车站相关,南海线,,121.309796,31.77457276,,上海市,,上海市,,崇明区,,"{'cost': , 'rating': }"
BV10036915,,界河新村(公交站),交通设施服务;公交车站;公交车站相关,南跃线,,121.3128794,31.81803386,,上海市,,上海市,,崇明区,,"{'cost': , 'rating': }"
BV10036518,,新国(公交站),交通设施服务;公交车站;公交车站相关,南红专线,,121.2987697,31.83863658,,上海市,,上海市,,崇明区,,"{'cost': , 'rating': }"
BV11326281,,草棚镇(招呼站)(公交站),交通设施服务;公交车站;公交车站相关,南新专线,,121.2794205,31.74745918,,上海市,,上海市,,崇明区,,"{'cost': , 'rating': }"
BV11417045,,三星镇政府(招呼站)(公交站),交通设施服务;公交车站;公交车站相关,南建专线,,121.2794473,31.74752013,,上海市,,上海市,,崇明区,,"{'cost': , 'rating': }"
B0I33SUHV0,,崇明区三星镇社区卫生服务中心地面停车场,交通设施服务;停车场;公共停车场,宏海公路4235-4237号崇明区三星镇社区卫生服务中心,,121.2788215,31.74647247,,上海市,,上海市,,崇明区,,"{'cost': , 'rating': }"
B0I33SRD8L,,崇明区三星镇社区卫生服务中心地面停车场(出入口),交通设施服务;停车场;停车场出入口,三星镇社区卫生服务中心地面停车场,,121.2788215,31.74647247,,上海市,,上海市,,崇明区,,"{'cost': , 'rating': }"
B0IRCH517T,,花溪站,交通设施服务;交通服务相关;交通服务相关,西沙明珠湖景区内(南侧),021-59603888,121.2518929,31.74183944,,上海市,,上海市,,崇明区,,"{'cost': , 'rating': }"
BV10323237,,草棚镇(公交站),交通设施服务;公交车站;公交车站相关,南建专线;南新专线;崇明乡村11路,,121.278777,31.74428307,,上海市,,上海市,,崇明区,,"{'cost': , 'rating': }"
B0I30CMCRD,,地面停车场,交通设施服务;停车场;公共停车场,星宇路与星虹路交叉口东北20米,,121.2773044,31.7451129,,上海市,,上海市,,崇明区,,"{'cost': , 'rating': }"
B0I30CL4ZB,,地面停车场(出入口),交通设施服务;停车场;停车场出入口,地面停车场,,121.2773044,31.7451129,,上海市,,上海市,,崇明区,,"{'cost': , 'rating': }"
BV10599631,,大同路口(招呼站)(公交站),交通设施服务;公交车站;公交车站相关,南建专线;崇明乡村6路区间,,121.2078608,31.75284662,,上海市,,上海市,,崇明区,,"{'cost': , 'rating': }"
BV11625226,,新国大队(招呼站)(公交站),交通设施服务;公交车站;公交车站相关,南红专线,,121.3033027,31.83769028,,上海市,,上海市,,崇明区,,"{'cost': , 'rating': }"
BV11287919,,竹园头(招呼站)(公交站),交通设施服务;公交车站;公交车站相关,南海线,,121.3140646,31.77498179,,上海市,,上海市,,崇明区,,"{'cost': , 'rating': }"
BV10027515,,海洪港桥(公交站),交通设施服务;公交车站;公交车站相关,南牛线;南牛线区间,,121.2710662,31.74237321,,上海市,,上海市,,崇明区,,"{'cost': , 'rating': }"
BV10034491,,永安镇(公交站),交通设施服务;公交车站;公交车站相关,南海二线;崇明乡村11路,,121.3187934,31.78393834,,上海市,,上海市,,崇明区,,"{'cost': , 'rating': }"
BV10036519,,新中(公交站),交通设施服务;公交车站;公交车站相关,南红专线,,121.3075939,31.83679732,,上海市,,上海市,,崇明区,,"{'cost': , 'rating': }"
BV10029187,,华西村(公交站),交通设施服务;公交车站;公交车站相关,崇明乡村6路;崇明乡村6路区间,,121.1798049,31.78773556,,上海市,,上海市,,崇明区,,"{'cost': , 'rating': }"
B0FFK6TV57,,上海明珠湖度假村停车场,交通设施服务;停车场;公共停车场,湖乐路与华丽路交叉口南500米,,121.243458,31.73793463,,上海市,,上海市,,崇明区,,"{'cost': , 'rating': }"
B0H2NLJQ68,,上海明珠湖生态服务中心(明珠湖度假村)停车场,交通设施服务;停车场;停车场相关,三星镇西沙路8号上海明珠湖生态服务中心(明珠湖度假村),,121.2435309,31.73817267,,上海市,,上海市,,崇明区,,"{'cost': , 'rating': }"
B00156GLBI,,光明瑞华果园停车场,交通设施服务;停车场;公共停车场,北沿公路3176光明瑞华果园(东南角),,121.322249,31.81515507,,上海市,,上海市,,崇明区,,"{'cost': , 'rating': }"
BV11038711,,海平村(公交站),交通设施服务;公交车站;公交车站相关,南海线,,121.319219,31.77455398,,上海市,,上海市,,崇明区,,"{'cost': , 'rating': }"
B0I3X55GL0,,地面停车场(暂停营业),交通设施服务;停车场;公共停车场,堡湖路与新堡路交叉口西南160米,,121.2240957,31.73971481,,上海市,,上海市,,崇明区,,"{'cost': , 'rating': }"
BV10036914,,新海果园(公交站),交通设施服务;公交车站;公交车站相关,南跃线,,121.3242043,31.81360905,,上海市,,上海市,,崇明区,,"{'cost': , 'rating': }"
BV11328799,,新中大队(招呼站)(公交站),交通设施服务;公交车站;公交车站相关,南红专线,,121.3123646,31.83579413,,上海市,,上海市,,崇明区,,"{'cost': , 'rating': }"
BV11623856,,界河桥(招呼站)(公交站),交通设施服务;公交车站;公交车站相关,南新专线,,121.2859923,31.74223602,,上海市,,上海市,,崇明区,,"{'cost': , 'rating': }"
BV10029179,,西来农庄(公交站),交通设施服务;公交车站;公交车站相关,崇明乡村6路;崇明乡村6路区间,,121.2170446,31.74156373,,上海市,,上海市,,崇明区,,"{'cost': , 'rating': }"
B001573VBK,,西沙明珠湖景区西沙湿地停车场,交通设施服务;停车场;公共停车场,绿华镇明珠湖西侧西沙国家湿地公园内,,121.2310534,31.73347938,,上海市,,上海市,,崇明区,,"{'cost': , 'rating': }"
BV11490276,,绿湖村(公交站),交通设施服务;公交车站;公交车站相关,崇明乡村6路;崇明乡村6路区间,,121.2312481,31.73573003,,上海市,,上海市,,崇明区,,"{'cost': , 'rating': }"
B0HKXRSLVZ,,西沙明珠湖景区西沙湿地停车点,交通设施服务;停车场;公共停车场,新堡路与星湖路交叉口西南40米,,121.2309372,31.73384635,,上海市,,上海市,,崇明区,,"{'cost': , 'rating': }"
B0IBFUZ3XT,,停车场,交通设施服务;停车场;停车场相关,新堡路与星湖路交叉口东南20米,,121.2314925,31.73495808,,上海市,,上海市,,崇明区,,"{'cost': , 'rating': }"
B0HKUHUT9I,,崇明荷花博览园西门北停车点,交通设施服务;停车场;公共停车场,新堡路与星湖路交叉口南100米,,121.2314925,31.73420791,,上海市,,上海市,,崇明区,,"{'cost': , 'rating': }"
B0H3D7SPFV,,荷花博览园停车场,交通设施服务;停车场;公共停车场,堡湖路367号崇明荷花博览园,,121.2311385,31.73290033,,上海市,,上海市,,崇明区,,"{'cost': , 'rating': }"
BV11492259,,西沙湿地(公交站),交通设施服务;公交车站;公交车站相关,崇明乡村6路;崇明乡村6路区间,,121.2308554,31.732534,,上海市,,上海市,,崇明区,,"{'cost': , 'rating': }"
B0FFGEOH5K,,西沙明珠湖景区西沙湿地停车场(出入口),交通设施服务;停车场;停车场出入口,新堡路与崇西公路交叉口西北20米,,121.2307804,31.73232189,,上海市,,上海市,,崇明区,,"{'cost': , 'rating': }"
B0H33HSOKL,,西沙明珠湖景区西沙湿地停车场(出口),交通设施服务;停车场;停车场出入口,新堡路与崇西公路交叉口东北100米,,121.2312476,31.73303945,,上海市,,上海市,,崇明区,,"{'cost': , 'rating': }"
BV10323246,,新建水闸(公交站),交通设施服务;公交车站;公交车站相关,南建专线;崇明乡村6路;崇明乡村6路区间,,121.2069119,31.743321,,上海市,,上海市,,崇明区,,"{'cost': , 'rating': }"
BV10029180,,南良种场桥(公交站),交通设施服务;公交车站;公交车站相关,崇明乡村6路;崇明乡村6路区间,,121.2097243,31.74256559,,上海市,,上海市,,崇明区,,"{'cost': , 'rating': }"
BV10034490,,永安村(公交站),交通设施服务;公交车站;公交车站相关,南海二线;崇明乡村11路,,121.3269203,31.78318598,,上海市,,上海市,,崇明区,,"{'cost': , 'rating': }"
BV11328788,,茅家小店(招呼站)(公交站),交通设施服务;公交车站;公交车站相关,南红专线,,121.3171002,31.83478576,,上海市,,上海市,,崇明区,,"{'cost': , 'rating': }"
BV10036520,,新村镇(公交站),交通设施服务;公交车站;公交车站相关,南红专线,,121.3201463,31.83413184,,上海市,,上海市,,崇明区,,"{'cost': , 'rating': }"
B0FFFPCOUX,,西沙明邸停车场,交通设施服务;停车场;公共停车场,绿港村堡镇521,,121.2141779,31.74063389,,上海市,,上海市,,崇明区,,"{'cost': , 'rating': }"
B0H0UAMEBG,,桃源水乡大酒店停车场,交通设施服务;停车场;公共停车场,环湖南路与新湖路交叉口东280米,,121.2167026,31.73747917,,上海市,,上海市,,崇明区,,"{'cost': , 'rating': }"
B0H0UAJNDZ,,桃源水乡大酒店地下停车场,交通设施服务;停车场;公共停车场,环湖南路与新湖路交叉口东南300米,,121.2168119,31.73735235,,上海市,,上海市,,崇明区,,"{'cost': , 'rating': }"
B0H0UAMT0W,,桃源水乡大酒店地下停车场(出入口),交通设施服务;停车场;停车场出入口,环湖南路与新湖路交叉口东300米,,121.2168068,31.73750037,,上海市,,上海市,,崇明区,,"{'cost': , 'rating': }"
B0H0UAJNDY,,桃源水乡大酒店停车场(出入口),交通设施服务;停车场;停车场出入口,环湖南路与新湖路交叉口东300米,,121.2168549,31.73747245,,上海市,,上海市,,崇明区,,"{'cost': , 'rating': }"
BV10034486,,新安镇(公交站),交通设施服务;公交车站;公交车站相关,南海二线;南海线;崇明乡村11路,,121.3211995,31.7655469,,上海市,,上海市,,崇明区,,"{'cost': , 'rating': }"
BV10027516,,洪海村(公交站),交通设施服务;公交车站;公交车站相关,南牛线;南牛线区间,,121.2770868,31.73483211,,上海市,,上海市,,崇明区,,"{'cost': , 'rating': }"
B0H1OCTKTM,,上海玉海棠景区新能源停车场,交通设施服务;停车场;公共停车场,三星镇北星公路1999号内上海玉海棠景区(新安古街),,121.3226454,31.76852916,,上海市,,上海市,,崇明区,,"{'cost': , 'rating': }"
B0I21DMN7E,,玉海棠棠果乐园停车场,交通设施服务;停车场;公共停车场,北星公路1999号东玉海棠棠果乐园,,121.3224046,31.76788591,,上海市,,上海市,,崇明区,,"{'cost': , 'rating': }"
BV10987643,,北星公路海大路(公交站),交通设施服务;公交车站;公交车站相关,崇明乡村11路,,121.3229569,31.76857497,,上海市,,上海市,,崇明区,,"{'cost': , 'rating': }"
B0G22ZU80K,,玉海棠心安里新能源停车场,交通设施服务;停车场;停车场相关,三星镇北星公路与海大路交叉口南80米北星公路路西,,121.3229619,31.76866899,,上海市,,上海市,,崇明区,,"{'cost': , 'rating': }"
BV11287914,,小横河(招呼站)(公交站),交通设施服务;公交车站;公交车站相关,南海二线;南海线,,121.3230087,31.7686528,,上海市,,上海市,,崇明区,,"{'cost': , 'rating': }"
B0H1XS3TPD,,上海玉海棠景区新能源停车场(入口),交通设施服务;停车场;停车场入口,三星镇北星公路与海大路交叉口南80米北星公路路西,,121.3229619,31.76875601,,上海市,,上海市,,崇明区,,"{'cost': , 'rating': }"
BV11490291,,北星公路海大路(招呼站)(公交站),交通设施服务;公交车站;公交车站相关,南海二线,,121.3236784,31.76974453,,上海市,,上海市,,崇明区,,"{'cost': , 'rating': }"
BV10323236,,清水官宫(公交站),交通设施服务;公交车站;公交车站相关,南建专线;南新专线;崇明乡村11路,,121.2936118,31.74078417,,上海市,,上海市,,崇明区,,"{'cost': , 'rating': }"
BV10034488,,茅家桥(公交站),交通设施服务;公交车站;公交车站相关,南海二线;南海线;崇明乡村11路,,121.3257951,31.77325741,,上海市,,上海市,,崇明区,,"{'cost': , 'rating': }"
B0H1XY1HY9,,南码头站,交通设施服务;交通服务相关;交通服务相关,三华公路333号明珠湖公园内,021-59603888,121.2420966,31.73010393,,上海市,,上海市,,崇明区,,"{'cost': , 'rating': }"
BV11481144,,秦家宅(招呼站)(公交站),交通设施服务;公交车站;公交车站相关,南海二线;南海线,,121.3181843,31.76024806,,上海市,,上海市,,崇明区,,"{'cost': , 'rating': }"
BV11412988,,安南村(公交站),交通设施服务;公交车站;公交车站相关,南海二线;南海线;崇明乡村11路,,121.3167553,31.75781591,,上海市,,上海市,,崇明区,,"{'cost': , 'rating': }"
BV10987647,,平安村六队(公交站),交通设施服务;公交车站;公交车站相关,崇明乡村11路,,121.3151312,31.75509141,,上海市,,上海市,,崇明区,,"{'cost': , 'rating': }"
BV11400650,,永安路横河桥(公交站),交通设施服务;公交车站;公交车站相关,崇明乡村11路,,121.3293708,31.77936455,,上海市,,上海市,,崇明区,,"{'cost': , 'rating': }"
BV10034489,,永安横河桥(公交站),交通设施服务;公交车站;公交车站相关,南海二线,,121.3293708,31.77936455,,上海市,,上海市,,崇明区,,"{'cost': , 'rating': }"
BV10036913,,新东牧场(公交站),交通设施服务;公交车站;公交车站相关,南跃线,,121.3327185,31.80957441,,上海市,,上海市,,崇明区,,"{'cost': , 'rating': }"
BV10029184,,建桥西桥(公交站),交通设施服务;公交车站;公交车站相关,崇明乡村6路;崇明乡村6路区间,,121.1688889,31.78860568,,上海市,,上海市,,崇明区,,"{'cost': , 'rating': }"
B0I0KH0QRS,,新村乡人民政府内部地面停车场,交通设施服务;停车场;专用停车场,星村公路2105号新村乡人民政府,,121.3231108,31.83305308,,上海市,,上海市,,崇明区,,"{'cost': , 'rating': }"
B0I0KHXFHK,,新村乡人民政府内部地面停车场(出入口),交通设施服务;停车场;停车场出入口,新村乡人民政府内部地面停车场,,121.3231108,31.83305308,,上海市,,上海市,,崇明区,,"{'cost': , 'rating': }"
B00156NQFQ,,停车场(卫付路),交通设施服务;停车场;公共停车场,星村公路与顺洲路交叉口西北80米,,121.3225582,31.83400054,,上海市,,上海市,,崇明区,,"{'cost': , 'rating': }"
B0FFG69VC8,,停车场(新村乡综治工作中心东),交通设施服务;停车场;公共停车场,星村公路2107号,,121.323296,31.83328945,,上海市,,上海市,,崇明区,,"{'cost': , 'rating': }"
BV09193693,,乡政府(招呼站)(公交站),交通设施服务;公交车站;公交车站相关,南红专线,,121.3242635,31.83328474,,上海市,,上海市,,崇明区,,"{'cost': , 'rating': }"
BV10987641,,平安村五队(公交站),交通设施服务;公交车站;公交车站相关,崇明乡村11路,,121.312677,31.75215599,,上海市,,上海市,,崇明区,,"{'cost': , 'rating': }"
B0IRODWPAI,,监测码头,交通设施服务;港口码头;港口码头,西沙明珠湖景区内(西南角),021-39633635,121.2210344,31.73194353,,上海市,,上海市,,崇明区,,"{'cost': , 'rating': }"
BV10987644,,平安村(公交站),交通设施服务;公交车站;公交车站相关,崇明乡村11路,,121.3095689,31.74694941,,上海市,,上海市,,崇明区,,"{'cost': , 'rating': }"
B0HKHUC4UC,,东码头,交通设施服务;港口码头;港口码头,西沙明珠湖景区内(西南角),021-39633635,121.2368646,31.72754104,,上海市,,上海市,,崇明区,,"{'cost': , 'rating': }"
BV10027432,,东安村(公交站),交通设施服务;公交车站;公交车站相关,南建专线;崇明乡村11路,,121.2994215,31.73859813,,上海市,,上海市,,崇明区,,"{'cost': , 'rating': }"
BV11326284,,东安村(招呼站)(公交站),交通设施服务;公交车站;公交车站相关,南新专线,,121.2991536,31.73899415,,上海市,,上海市,,崇明区,,"{'cost': , 'rating': }"
BV10036476,,望仓港(公交站),交通设施服务;公交车站;公交车站相关,南海二线;南海线,,121.3222684,31.75525412,,上海市,,上海市,,崇明区,,"{'cost': , 'rating': }"
BV10987645,,清平一队(公交站),交通设施服务;公交车站;公交车站相关,崇明乡村11路,,121.3059121,31.74154066,,上海市,,上海市,,崇明区,,"{'cost': , 'rating': }"
BV10385653,,新浜村(招呼站)(公交站),交通设施服务;公交车站;公交车站相关,南红专线,,121.3301918,31.83203071,,上海市,,上海市,,崇明区,,"{'cost': , 'rating': }"
BV10027518,,海坝镇(公交站),交通设施服务;公交车站;公交车站相关,南牛线;南牛线区间,,121.2836471,31.72726145,,上海市,,上海市,,崇明区,,"{'cost': , 'rating': }"
BV10987642,,北星公路南桥路(公交站),交通设施服务;公交车站;公交车站相关,崇明乡村11路,,121.3021236,31.73579803,,上海市,,上海市,,崇明区,,"{'cost': , 'rating': }"
BV10027383,,南星桥(公交站),交通设施服务;公交车站;公交车站相关,南建专线;南新专线,,121.3023588,31.73412484,,上海市,,上海市,,崇明区,,"{'cost': , 'rating': }"
BV11461896,,洪新(招呼站)(公交站),交通设施服务;公交车站;公交车站相关,南跃线,,121.3414321,31.80158413,,上海市,,上海市,,崇明区,,"{'cost': , 'rating': }"
BV11490288,,碾米厂(招呼站)(公交站),交通设施服务;公交车站;公交车站相关,南海二线,,121.3262903,31.75387937,,上海市,,上海市,,崇明区,,"{'cost': , 'rating': }"
BV11330390,,辗米厂(招呼站)(公交站),交通设施服务;公交车站;公交车站相关,南海二线;南海线,,121.3262903,31.75387937,,上海市,,上海市,,崇明区,,"{'cost': , 'rating': }"
BV10036521,,二分店(公交站),交通设施服务;公交车站;公交车站相关,南红专线,,121.3382604,31.83034327,,上海市,,上海市,,崇明区,,"{'cost': , 'rating': }"
BV10386274,,红西站(公交站),交通设施服务;公交车站;公交车站相关,南跃线,,121.346867,31.79631687,,上海市,,上海市,,崇明区,,"{'cost': , 'rating': }"
B0FFHHSY0Q,,蒙骏骑马场停车场,交通设施服务;停车场;公共停车场,径八路与纬二路交叉口西南60米,,121.5100183,31.72806378,,上海市,,上海市,,崇明区,,"{'cost': , 'rating': }"
BV10323292,,庙港村(公交站),交通设施服务;公交车站;公交车站相关,崇明乡村5路,,121.2990923,31.69009765,,上海市,,上海市,,崇明区,,"{'cost': , 'rating': }"
BV10038747,,南新镇(公交站),交通设施服务;公交车站;公交车站相关,崇明乡村5路,,121.3024116,31.6938225,,上海市,,上海市,,崇明区,,"{'cost': , 'rating': }"
BV10034462,,谢家镇(公交站),交通设施服务;公交车站;公交车站相关,崇明乡村10路,,121.5328847,31.64183397,,上海市,,上海市,,崇明区,,"{'cost': , 'rating': }"
BV10034461,,十五考场(公交站),交通设施服务;公交车站;公交车站相关,崇明乡村10路,,121.5347824,31.64963816,,上海市,,上海市,,崇明区,,"{'cost': , 'rating': }"
BV10034463,,卫东村(公交站),交通设施服务;公交车站;公交车站相关,崇明乡村10路,,121.5319972,31.63740763,,上海市,,上海市,,崇明区,,"{'cost': , 'rating': }"
BV10034460,,长江童伞厂(公交站),交通设施服务;公交车站;公交车站相关,崇明乡村10路,,121.5360738,31.65525939,,上海市,,上海市,,崇明区,,"{'cost': , 'rating': }"
BV10034464,,北新公路草港公路(公交站),交通设施服务;公交车站;公交车站相关,崇明乡村10路,,121.5303719,31.62934267,,上海市,,上海市,,崇明区,,"{'cost': , 'rating': }"
BV10339434,,新民镇(公交站),交通设施服务;公交车站;公交车站相关,南堡支线,,121.5307482,31.62858151,,上海市,,上海市,,崇明区,,"{'cost': , 'rating': }"
BV11622276,,理发店(招呼站)(公交站),交通设施服务;公交车站;公交车站相关,南堡支线,,121.5240302,31.63027855,,上海市,,上海市,,崇明区,,"{'cost': , 'rating': }"
B0FFIBQBGI,,瀛新园停车场,交通设施服务;停车场;停车场相关,草港公路与新河进民路交叉口东北260米,,121.5172853,31.63405832,,上海市,,上海市,,崇明区,,"{'cost': , 'rating': }"
BV11539836,,平南村(公交站),交通设施服务;公交车站;公交车站相关,南堡支线,,121.5194562,31.63147017,,上海市,,上海市,,崇明区,,"{'cost': , 'rating': }"
BV10034048,,民生港(公交站),交通设施服务;公交车站;公交车站相关,堡胜专线;崇明乡村10路,,121.5380674,31.66390492,,上海市,,上海市,,崇明区,,"{'cost': , 'rating': }"
BV11634947,,应用科技学校(招呼站)(公交站),交通设施服务;公交车站;公交车站相关,堡胜专线,,121.5311696,31.66475596,,上海市,,上海市,,崇明区,,"{'cost': , 'rating': }"
BV10386658,,葡萄园(招呼站)(公交站),交通设施服务;公交车站;公交车站相关,南堡支线,,121.5391335,31.62637628,,上海市,,上海市,,崇明区,,"{'cost': , 'rating': }"
BV10339432,,群英村(公交站),交通设施服务;公交车站;公交车站相关,南堡支线,,121.5435761,31.62522697,,上海市,,上海市,,崇明区,,"{'cost': , 'rating': }"
BV11634941,,东轻村(招呼站)(公交站),交通设施服务;公交车站;公交车站相关,堡胜专线,,121.548054,31.66048845,,上海市,,上海市,,崇明区,,"{'cost': , 'rating': }"
B0HAVRC0SP,,北沿公路(西)停车场,交通设施服务;停车场;停车场相关,X501(北沿公路),,121.5491049,31.66069933,,上海市,,上海市,,崇明区,,"{'cost': , 'rating': }"
BV11539830,,一号桥(招呼站)(公交站),交通设施服务;公交车站;公交车站相关,南堡支线,,121.514698,31.63269391,,上海市,,上海市,,崇明区,,"{'cost': , 'rating': }"
BV11539832,,民生村(公交站),交通设施服务;公交车站;公交车站相关,南堡支线,,121.5112753,31.63357654,,上海市,,上海市,,崇明区,,"{'cost': , 'rating': }"
BV11548035,,刀剪厂(公交站),交通设施服务;公交车站;公交车站相关,堡胜专线,,121.5269204,31.66649799,,上海市,,上海市,,崇明区,,"{'cost': , 'rating': }"
BV10537028,,育苗小学(招呼站)(公交站),交通设施服务;公交车站;公交车站相关,南堡支线,,121.5466333,31.62444103,,上海市,,上海市,,崇明区,,"{'cost': , 'rating': }"
BV10034465,,新风镇(公交站),交通设施服务;公交车站;公交车站相关,崇明乡村10路,,121.5287604,31.62119978,,上海市,,上海市,,崇明区,,"{'cost': , 'rating': }"
B0GRLRM9MN,,新晨路-路侧停车位,交通设施服务;停车场;停车场相关,新晨路与北新公路交叉口东80米,,121.5296076,31.62153097,,上海市,,上海市,,崇明区,,"{'cost': , 'rating': }"
B0H69UKTHS,,新风商厦停车场(出入口),交通设施服务;停车场;停车场出入口,新风商厦停车场,,121.5287694,31.62164082,,上海市,,上海市,,崇明区,,"{'cost': , 'rating': }"
B0H69ULVE3,,新风商厦停车场,交通设施服务;停车场;公共停车场,新晨路57号新风商厦,,121.5287403,31.62150068,,上海市,,上海市,,崇明区,,"{'cost': , 'rating': }"
B0FFMFPDPJ,,上海娄氏中医医院停车场,交通设施服务;停车场;公共停车场,新晨路145-147上海娄氏中医医院,,121.5261441,31.62170654,,上海市,,上海市,,崇明区,,"{'cost': , 'rating': }"
BV11635331,,消防队(招呼站)(公交站),交通设施服务;公交车站;公交车站相关,堡胜专线,,121.5278021,31.6705208,,上海市,,上海市,,崇明区,,"{'cost': , 'rating': }"
BV11634945,,元件四厂(招呼站)(公交站),交通设施服务;公交车站;公交车站相关,堡胜专线,,121.5282958,31.67271648,,上海市,,上海市,,崇明区,,"{'cost': , 'rating': }"
BV10339447,,永丰村(公交站),交通设施服务;公交车站;公交车站相关,南堡支线,,121.5524029,31.62293388,,上海市,,上海市,,崇明区,,"{'cost': , 'rating': }"
BV11577238,,为民商店(公交站),交通设施服务;公交车站;公交车站相关,南堡支线,,121.5016014,31.63606817,,上海市,,上海市,,崇明区,,"{'cost': , 'rating': }"
B0G0K1WD9K,,东冉路-路侧停车位,交通设施服务;停车场;停车场相关,东冉路附近,,121.5291761,31.67355294,,上海市,,上海市,,崇明区,,"{'cost': , 'rating': }"
BV11569734,,进场路(二号门)(公交站),交通设施服务;公交车站;公交车站相关,南同专线区间,,121.5075226,31.66448927,,上海市,,上海市,,崇明区,,"{'cost': , 'rating': }"
BV11548037,,前进刀具厂(公交站),交通设施服务;公交车站;公交车站相关,堡胜专线,,121.5642598,31.65640204,,上海市,,上海市,,崇明区,,"{'cost': , 'rating': }"
BV11635325,,培训队(招呼站)(公交站),交通设施服务;公交车站;公交车站相关,堡胜专线,,121.5665113,31.65268301,,上海市,,上海市,,崇明区,,"{'cost': , 'rating': }"
B0GRLRNIY2,,育才路-路侧停车位,交通设施服务;停车场;停车场相关,育才路6号附近,,121.5307985,31.67601317,,上海市,,上海市,,崇明区,,"{'cost': , 'rating': }"
BV11635327,,德科(招呼站)(公交站),交通设施服务;公交车站;公交车站相关,堡胜专线,,121.5292539,31.67706469,,上海市,,上海市,,崇明区,,"{'cost': , 'rating': }"
BV11644879,,长江公路育才路(公交站),交通设施服务;公交车站;公交车站相关,堡胜专线;崇明乡村10路,,121.5292539,31.67706469,,上海市,,上海市,,崇明区,,"{'cost': , 'rating': }"
B00156EG3R,,崇明巴士长江汽车站,交通设施服务;长途汽车站;长途汽车站,黄河路附近,,121.5319736,31.67773234,310000,上海市,21,上海市,310151,崇明区,,
BV10034050,,长江农场(公交站),交通设施服务;公交车站;公交车站相关,南江专线;堡胜专线,,121.5319776,31.67783036,310000,上海市,21,上海市,310151,崇明区,,
BV10537010,,永丰小店(招呼站)(公交站),交通设施服务;公交车站;公交车站相关,南堡支线,,121.5569789,31.62174556,,上海市,,上海市,,崇明区,,"{'cost': , 'rating': }"
BV10480234,,瀛都小区(公交站),交通设施服务;公交车站;公交车站相关,崇明乡村10路;崇明乡村7路,,121.5387408,31.67710508,,上海市,,上海市,,崇明区,,"{'cost': , 'rating': }"
BV10034466,,东义小学(公交站),交通设施服务;公交车站;公交车站相关,崇明乡村10路,,121.5272403,31.61378034,,上海市,,上海市,,崇明区,,"{'cost': , 'rating': }"
BV10862202,,东义桥(公交站),交通设施服务;公交车站;公交车站相关,南堡二线,,121.5277728,31.61247708,,上海市,,上海市,,崇明区,,"{'cost': , 'rating': }"
BV11625618,,窑厂(招呼站)(公交站),交通设施服务;公交车站;公交车站相关,南堡支线,,121.4950911,31.63812144,,上海市,,上海市,,崇明区,,"{'cost': , 'rating': }"
BV11539831,,东南路(招呼站)(公交站),交通设施服务;公交车站;公交车站相关,南堡支线,,121.4943619,31.63837809,,上海市,,上海市,,崇明区,,"{'cost': , 'rating': }"
BV10862204,,义化桥(公交站),交通设施服务;公交车站;公交车站相关,南堡二线,,121.5138217,31.61611316,,上海市,,上海市,,崇明区,,"{'cost': , 'rating': }"
BV10480233,,黄河路桂林路(公交站),交通设施服务;公交车站;公交车站相关,崇明乡村10路;崇明乡村7路,,121.5329146,31.67884464,,上海市,,上海市,,崇明区,,"{'cost': , 'rating': }"
B0FFIB4CZ2,,农工商超市停车场,交通设施服务;停车场;公共停车场,崇明区-东平社区的长江电影院,,121.529973,31.67924147,,上海市,,上海市,,崇明区,,"{'cost': , 'rating': }"
B0FFHB2R2P,,瀛都宾馆停车场,交通设施服务;停车场;公共停车场,长江农场黄河路8号瀛都宾馆,,121.5312758,31.67978389,,上海市,,上海市,,崇明区,,"{'cost': , 'rating': }"
B0FFIB0CLY,,东冉路-道路停车位,交通设施服务;停车场;路边停车场,东冉路与平悦路交叉口北60米,,121.5298923,31.6803752,,上海市,,上海市,,崇明区,,"{'cost': , 'rating': }"
BV11553300,,邮局(招呼站)(公交站),交通设施服务;公交车站;公交车站相关,南江专线,,121.530211,31.68193194,,上海市,,上海市,,崇明区,,"{'cost': , 'rating': }"
B0FFIB09G2,,东平镇社区-文化活动中心停车场,交通设施服务;停车场;公共停车场,东平镇东冉路886号东平镇社区文化活动中心,,121.5301597,31.68185768,,上海市,,上海市,,崇明区,,"{'cost': , 'rating': }"
BV11634948,,长江农场(下客站)(公交站),交通设施服务;公交车站;公交车站相关,堡胜专线,,121.528359,31.68001355,,上海市,,上海市,,崇明区,,"{'cost': , 'rating': }"
BV11611305,,长江汽车站(公交站),交通设施服务;公交车站;公交车站相关,崇明乡村10路;崇明乡村7路,,121.528359,31.68001355,,上海市,,上海市,,崇明区,,"{'cost': , 'rating': }"
BV10862200,,进化村(公交站),交通设施服务;公交车站;公交车站相关,南堡二线,,121.5072436,31.6178204,,上海市,,上海市,,崇明区,,"{'cost': , 'rating': }"
BV10862206,,黄依相桥(公交站),交通设施服务;公交车站;公交车站相关,南堡二线,,121.4968728,31.627742,,上海市,,上海市,,崇明区,,"{'cost': , 'rating': }"
BV11548036,,前进粮油站(公交站),交通设施服务;公交车站;公交车站相关,堡胜专线,,121.5742196,31.64989425,,上海市,,上海市,,崇明区,,"{'cost': , 'rating': }"
BV10635697,,大椿村小店(公交站),交通设施服务;公交车站;公交车站相关,南堡支线,,121.563064,31.62050839,,上海市,,上海市,,崇明区,,"{'cost': , 'rating': }"
BV11556979,,新民二队(公交站),交通设施服务;公交车站;公交车站相关,南堡二线,,121.5339081,31.60945207,,上海市,,上海市,,崇明区,,"{'cost': , 'rating': }"
B0FFG253XI,,蟠龙生态园停车场,交通设施服务;停车场;停车场相关,蟠龙公路2688号上海名阳生态园内,,121.4927558,31.65858337,,上海市,,上海市,,崇明区,,"{'cost': , 'rating': }"
BV11549374,,崇明机场(公交站),交通设施服务;公交车站;公交车站相关,南江专线;堡胜专线,,121.5003058,31.67241651,,上海市,,上海市,,崇明区,,"{'cost': , 'rating': }"
BV10862201,,进艺桥(公交站),交通设施服务;公交车站;公交车站相关,南堡二线,,121.4985874,31.6200613,,上海市,,上海市,,崇明区,,"{'cost': , 'rating': }"
BV10386711,,大椿车口(招呼站)(公交站),交通设施服务;公交车站;公交车站相关,南堡支线,,121.5674656,31.61981159,,上海市,,上海市,,崇明区,,"{'cost': , 'rating': }"
B0HAVRBDU0,,花博会东区停车场,交通设施服务;停车场;专用停车场,X501(北沿公路),,121.5783759,31.64939479,,上海市,,上海市,,崇明区,,"{'cost': , 'rating': }"
BV11569733,,进场路(一号门)(公交站),交通设施服务;公交车站;公交车站相关,南同专线区间,,121.4946408,31.66787134,,上海市,,上海市,,崇明区,,"{'cost': , 'rating': }"
BV10036840,,进场路(公交站),交通设施服务;公交车站;公交车站相关,南同专线;南同专线区间,,121.4921362,31.66712999,310000,上海市,21,上海市,310151,崇明区,,
BV11539835,,蟠龙村(公交站),交通设施服务;公交车站;公交车站相关,南堡支线,,121.4872355,31.63885557,,上海市,,上海市,,崇明区,,"{'cost': , 'rating': }"
BV10034467,,强民村(公交站),交通设施服务;公交车站;公交车站相关,崇明乡村10路,,121.5254976,31.60614677,,上海市,,上海市,,崇明区,,"{'cost': , 'rating': }"
BV11636114,,挑皮港(公交站),交通设施服务;公交车站;公交车站相关,崇明乡村10路,,121.5237136,31.60406962,,上海市,,上海市,,崇明区,,"{'cost': , 'rating': }"
BV11642002,,北新支路北群路(公交站),交通设施服务;公交车站;公交车站相关,1721路,,121.526741,31.60304431,,上海市,,上海市,,崇明区,,"{'cost': , 'rating': }"
BV10862203,,蟠中界河桥(公交站),交通设施服务;公交车站;公交车站相关,南堡二线,,121.4913862,31.62797821,,上海市,,上海市,,崇明区,,"{'cost': , 'rating': }"
BV11556977,,周家店(公交站),交通设施服务;公交车站;公交车站相关,南堡二线,,121.5405294,31.6062479,,上海市,,上海市,,崇明区,,"{'cost': , 'rating': }"
BV10036842,,浜镇(公交站),交通设施服务;公交车站;公交车站相关,南同专线;南同专线区间,,121.4846536,31.65245677,,上海市,,上海市,,崇明区,,"{'cost': , 'rating': }"
BV10036843,,浜西(公交站),交通设施服务;公交车站;公交车站相关,南同专线;南同专线区间,,121.4834089,31.64593311,,上海市,,上海市,,崇明区,,"{'cost': , 'rating': }"
BV10036841,,浜北(公交站),交通设施服务;公交车站;公交车站相关,南同专线;南同专线区间,,121.4856197,31.65755778,,上海市,,上海市,,崇明区,,"{'cost': , 'rating': }"
BV10635689,,大椿村一队(公交站),交通设施服务;公交车站;公交车站相关,南堡支线,,121.5717049,31.6191468,,上海市,,上海市,,崇明区,,"{'cost': , 'rating': }"
BV11539834,,大椿村一队(招呼站)(公交站),交通设施服务;公交车站;公交车站相关,南堡支线,,121.575253,31.61860246,,上海市,,上海市,,崇明区,,"{'cost': , 'rating': }"
BV10480237,,长江水产养殖场区(公交站),交通设施服务;公交车站;公交车站相关,崇明乡村7路,,121.5426581,31.68661981,,上海市,,上海市,,崇明区,,"{'cost': , 'rating': }"
BV11556976,,新新(公交站),交通设施服务;公交车站;公交车站相关,南堡二线,,121.5480896,31.60452922,,上海市,,上海市,,崇明区,,"{'cost': , 'rating': }"
BV11553304,,元件六厂(公交站),交通设施服务;公交车站;公交车站相关,南江专线;堡胜专线,,121.5095617,31.68408701,,上海市,,上海市,,崇明区,,"{'cost': , 'rating': }"
BV10025053,,陈家宅(公交站),交通设施服务;公交车站;公交车站相关,南同专线;南同专线区间;南堡二线,,121.481337,31.63565065,,上海市,,上海市,,崇明区,,"{'cost': , 'rating': }"
BV11520920,,蟠龙公路(公交站),交通设施服务;公交车站;公交车站相关,南堡二线,,121.4810412,31.63964801,,上海市,,上海市,,崇明区,,"{'cost': , 'rating': }"
BV11494701,,草港公路蟠龙公路(招呼站)(公交站),交通设施服务;公交车站;公交车站相关,南堡支线,,121.4807521,31.63968131,,上海市,,上海市,,崇明区,,"{'cost': , 'rating': }"
BV10034468,,金桥村(公交站),交通设施服务;公交车站;公交车站相关,崇明乡村10路,,121.5191875,31.60161758,,上海市,,上海市,,崇明区,,"{'cost': , 'rating': }"
B0FFH10ZPE,,5-6连村路与镇中路交叉口,交通设施服务;交通服务相关;交通服务相关,镇中路与5、6连村路交叉口西20米,,121.4804139,31.65117276,,上海市,,上海市,,崇明区,,"{'cost': , 'rating': }"
BV10028513,,蟠龙镇(公交站),交通设施服务;公交车站;公交车站相关,南同专线;南同专线区间;南堡二线,,121.4801376,31.6296606,,上海市,,上海市,,崇明区,,"{'cost': , 'rating': }"
B0FFIB0RCD,,停车场(蟠东路),交通设施服务;停车场;公共停车场,向蟠支路与蟠龙公路交叉口西北20米,,121.4798305,31.6293848,,上海市,,上海市,,崇明区,,"{'cost': , 'rating': }"
BV10339450,,育才村(公交站),交通设施服务;公交车站;公交车站相关,南堡支线,,121.5785944,31.61807175,,上海市,,上海市,,崇明区,,"{'cost': , 'rating': }"
BV10635692,,直河港(招呼站)(公交站),交通设施服务;公交车站;公交车站相关,南堡支线,,121.5812718,31.61764046,,上海市,,上海市,,崇明区,,"{'cost': , 'rating': }"
BV10036570,,东平商店(公交站),交通设施服务;公交车站;公交车站相关,南同专线;南江专线;堡胜专线,,121.4885185,31.67479042,,上海市,,上海市,,崇明区,,"{'cost': , 'rating': }"
B0FFFL37BR,,紫海鹭缘香草庄园东停车场,交通设施服务;停车场;公共停车场,东平镇北沿公路2018号(蟠龙公路口)紫海鹭缘浪漫爱情主题公园内,,121.4866518,31.67642948,,上海市,,上海市,,崇明区,,"{'cost': , 'rating': }"
BV10034005,,前进农场(公交站),交通设施服务;公交车站;公交车站相关,堡胜专线;堡进线,,121.5909853,31.64571101,,上海市,,上海市,,崇明区,,"{'cost': , 'rating': }"
BV11564210,,前进大街(招呼站)(公交站),交通设施服务;公交车站;公交车站相关,堡进线,,121.5907246,31.64885613,,上海市,,上海市,,崇明区,,"{'cost': , 'rating': }"
B0FFG7ICKE,,前进大街-道路停车位,交通设施服务;停车场;路边停车场,前进大街与北沿公路交叉口北320米,,121.5906786,31.64893113,,上海市,,上海市,,崇明区,,"{'cost': , 'rating': }"
BV11556980,,梅家庙(公交站),交通设施服务;公交车站;公交车站相关,南堡二线,,121.5578016,31.60040791,,上海市,,上海市,,崇明区,,"{'cost': , 'rating': }"
BV11642000,,北新支路为民路(公交站),交通设施服务;公交车站;公交车站相关,1721路,,121.5249469,31.5957296,,上海市,,上海市,,崇明区,,"{'cost': , 'rating': }"
B0G3SXZKW6,,大同新机站,交通设施服务;交通服务相关;交通服务相关,区蟠南北路,,121.4752944,31.63234562,,上海市,,上海市,,崇明区,,"{'cost': , 'rating': }"
BV09038813,,临时站1(公交站),交通设施服务;公交车站;公交车站相关,崇明乡村3路,,121.5844104,31.62020175,,上海市,,上海市,,崇明区,,"{'cost': , 'rating': }"
BV11331652,,前柴路北沿公路(招呼站)(公交站),交通设施服务;公交车站;公交车站相关,堡进线,,121.5929139,31.64605191,,上海市,,上海市,,崇明区,,"{'cost': , 'rating': }"
BV11634946,,前进锁厂(招呼站)(公交站),交通设施服务;公交车站;公交车站相关,堡胜专线,,121.5968155,31.64415863,,上海市,,上海市,,崇明区,,"{'cost': , 'rating': }"
B0HAVRA1PX,,紫海鹭缘香草庄园B区停车场,交通设施服务;停车场;公共停车场,东平镇北沿公路2018号(蟠龙公路口)紫海鹭缘香草庄园(西南角),,121.4858167,31.67689257,,上海市,,上海市,,崇明区,,"{'cost': , 'rating': }"
BV10385629,,北沿公路林风公路(招呼站)(公交站),交通设施服务;公交车站;公交车站相关,南同专线;南江专线,,121.4822724,31.67708166,,上海市,,上海市,,崇明区,,"{'cost': , 'rating': }"
BV09047154,,林风公路北沿公路招呼站(公交站),交通设施服务;公交车站;公交车站相关,堡胜专线,,121.4818998,31.67717348,,上海市,,上海市,,崇明区,,"{'cost': , 'rating': }"
BV11415959,,前柴路阿里山路(招呼站)(公交站),交通设施服务;公交车站;公交车站相关,堡进线,,121.5932384,31.64995802,,上海市,,上海市,,崇明区,,"{'cost': , 'rating': }"
BV11635049,,钱财公路阿里山路(招呼站)(公交站),交通设施服务;公交车站;公交车站相关,堡进线,,121.5932344,31.64988002,,上海市,,上海市,,崇明区,,"{'cost': , 'rating': }"
BV11494699,,西南路(招呼站)(公交站),交通设施服务;公交车站;公交车站相关,南堡二线;南堡支线,,121.4721464,31.64147694,,上海市,,上海市,,崇明区,,"{'cost': , 'rating': }"
B0FFG6VQ1E,,响椿公路-道路停车位,交通设施服务;停车场;路边停车场,响椿公路与光明中路交叉口东40米,,121.5874583,31.62015019,,上海市,,上海市,,崇明区,,"{'cost': , 'rating': }"
BV10028664,,竖新卫生院(公交站),交通设施服务;公交车站;公交车站相关,崇明乡村3路,,121.5893778,31.61977168,,上海市,,上海市,,崇明区,,"{'cost': , 'rating': }"
BV10034478,,金桥村1队(公交站),交通设施服务;公交车站;公交车站相关,崇明乡村10路,,121.5132899,31.59419837,,上海市,,上海市,,崇明区,,"{'cost': , 'rating': }"
BV10028666,,大棉桥(公交站),交通设施服务;公交车站;公交车站相关,崇明乡村3路,,121.5829649,31.61227402,,上海市,,上海市,,崇明区,,"{'cost': , 'rating': }"
BV10036844,,大同建筑站(公交站),交通设施服务;公交车站;公交车站相关,南同专线;南同专线区间,,121.4749347,31.6221016,,上海市,,上海市,,崇明区,,"{'cost': , 'rating': }"
BV11494700,,富安村(公交站),交通设施服务;公交车站;公交车站相关,南堡二线;南堡支线,,121.4677208,31.64235046,,上海市,,上海市,,崇明区,,"{'cost': , 'rating': }"
BV11138216,,喇叭镇(公交站),交通设施服务;公交车站;公交车站相关,堡胜专线,,121.5973426,31.63689219,,上海市,,上海市,,崇明区,,"{'cost': , 'rating': }"
BV11549372,,东纺厂(公交站),交通设施服务;公交车站;公交车站相关,南东专线;南同专线;堡胜专线,,121.4817814,31.6800811,,上海市,,上海市,,崇明区,,"{'cost': , 'rating': }"
BV10027241,,新河镇(公交站),交通设施服务;公交车站;公交车站相关,1721路;南堡专线;南裕专线;南裕专线(陈家镇枢纽站);崇明乡村9路,,121.512808,31.59123889,,上海市,,上海市,,崇明区,,"{'cost': , 'rating': }"
BV10039593,,团城公路北新公路(公交站),交通设施服务;公交车站;公交车站相关,崇明乡村10路,,121.5126378,31.59128992,,上海市,,上海市,,崇明区,,"{'cost': , 'rating': }"
B0H231TSMW,,路边停车场(新中路),交通设施服务;停车场;停车场相关,新中路与团城公路交叉口南60米,,121.5160041,31.58974098,,上海市,,上海市,,崇明区,,"{'cost': , 'rating': }"
B0FFIGNRM0,,新中路-道路停车位,交通设施服务;停车场;路边停车场,新中路与团城公路交叉口南100米,,121.5157545,31.58933663,,上海市,,上海市,,崇明区,,"{'cost': , 'rating': }"
BV11297506,,新中路新景路(公交站),交通设施服务;公交车站;公交车站相关,崇明E乘巴士1号线,,121.5153258,31.58832833,,上海市,,上海市,,崇明区,,"{'cost': , 'rating': }"
B0FFIB7SGA,,富民街-道路停车位,交通设施服务;停车场;路边停车场,富民路与草港公路交叉口北150米富民苑(草港公路)附近,,121.5897472,31.61842277,,上海市,,上海市,,崇明区,,"{'cost': , 'rating': }"
BV10339443,,富民街(公交站),交通设施服务;公交车站;公交车站相关,南堡支线,,121.5900658,31.61624787,,上海市,,上海市,,崇明区,,"{'cost': , 'rating': }"
BV11634942,,仙桥北路(招呼站)(公交站),交通设施服务;公交车站;公交车站相关,堡胜专线,,121.5967053,31.63342446,,上海市,,上海市,,崇明区,,"{'cost': , 'rating': }"
BV10028663,,大新镇(公交站),交通设施服务;公交车站;公交车站相关,堡胜专线;崇明乡村3路,,121.5928324,31.61915775,,上海市,,上海市,,崇明区,,"{'cost': , 'rating': }"
B0FFG69O8K,,道路停车位,交通设施服务;停车场;路边停车场,前竖公路与响椿公路交叉口东80米,,121.5948079,31.61854833,,上海市,,上海市,,崇明区,,"{'cost': , 'rating': }"
BV09209228,,大新十字路口(招呼站)(公交站),交通设施服务;公交车站;公交车站相关,南堡支线,,121.5938263,31.61562467,,上海市,,上海市,,崇明区,,"{'cost': , 'rating': }"
BV11635328,,春风公路(招呼站)(公交站),交通设施服务;公交车站;公交车站相关,堡胜专线,,121.5964626,31.63213956,,上海市,,上海市,,崇明区,,"{'cost': , 'rating': }"
B0HDRHTVG2,,崇明岛徐根宝足球基地停车场(出入口),交通设施服务;停车场;停车场出入口,秀林路191号上海根宝足球基地内崇明岛徐根宝足球基地停车场,,121.4760987,31.67479754,,上海市,,上海市,,崇明区,,"{'cost': , 'rating': }"
B0IA7CDP84,,龙群度假村地面停车场,交通设施服务;停车场;公共停车场,怡沁东路与怡沁南一路交叉口东280米,,121.4765537,31.6752742,,上海市,,上海市,,崇明区,,"{'cost': , 'rating': }"
B0H2VCVH2P,,根宝足球基地停车场(出入口),交通设施服务;停车场;停车场出入口,怡沁东路与怡沁南一路交叉口东240米,,121.4760987,31.67479754,,上海市,,上海市,,崇明区,,"{'cost': , 'rating': }"
B0IA7CEBDC,,龙群度假村地面停车场(出入口),交通设施服务;停车场;停车场出入口,怡沁东路与怡沁南一路交叉口东280米,,121.4765537,31.6752742,,上海市,,上海市,,崇明区,,"{'cost': , 'rating': }"
B00156EEIN,,东平国家森林公园1号门南停车场,交通设施服务;停车场;公共停车场,区北沿公路2188号,,121.4764729,31.6775755,310000,上海市,21,上海市,310151,崇明区,,
B0HRP610NE,,东平国家森林公园P3停车场,交通设施服务;停车场;停车场相关,北沿公路2188号,021-59338028,121.4762913,31.67761699,310000,上海市,21,上海市,310151,崇明区,,
BV11138217,,春风站(公交站),交通设施服务;公交车站;公交车站相关,堡胜专线,,121.5953996,31.626442,,上海市,,上海市,,崇明区,,"{'cost': , 'rating': }"
BV11641998,,北新支路新砖路(公交站),交通设施服务;公交车站;公交车站相关,1721路,,121.5221488,31.59038236,,上海市,,上海市,,崇明区,,"{'cost': , 'rating': }"
BV10027237,,八渡界(公交站),交通设施服务;公交车站;公交车站相关,南堡专线,,121.4958153,31.59756681,,上海市,,上海市,,崇明区,,"{'cost': , 'rating': }"
BV11368307,,新梅路(招呼站)(公交站),交通设施服务;公交车站;公交车站相关,南堡专线,,121.5025179,31.59500686,,上海市,,上海市,,崇明区,,"{'cost': , 'rating': }"
BV11368308,,新薇路(招呼站)(公交站),交通设施服务;公交车站;公交车站相关,南堡专线,,121.5085109,31.59272513,,上海市,,上海市,,崇明区,,"{'cost': , 'rating': }"
BV10034004,,前进锁厂(公交站),交通设施服务;公交车站;公交车站相关,堡进线,,121.6004666,31.64335528,,上海市,,上海市,,崇明区,,"{'cost': , 'rating': }"
BV11556978,,新烈路(公交站),交通设施服务;公交车站;公交车站相关,南堡二线,,121.5700503,31.59785583,,上海市,,上海市,,崇明区,,"{'cost': , 'rating': }"
B0H2VCX4DP,,根宝足球基地停车场,交通设施服务;停车场;公共停车场,秀林路191号上海根宝足球基地内,,121.474687,31.67472046,,上海市,,上海市,,崇明区,,"{'cost': , 'rating': }"
B0I6UZFQGW,,上海滨江度假中心停车场,交通设施服务;停车场;公共停车场,北沿公路与贞薇路交叉口南140米,,121.4752181,31.67751878,,上海市,,上海市,,崇明区,,"{'cost': , 'rating': }"
B0I6UZEOGN,,上海滨江度假中心停车场(出入口),交通设施服务;停车场;停车场出入口,北沿公路与贞薇路交叉口南140米,,121.47521,31.67750674,,上海市,,上海市,,崇明区,,"{'cost': , 'rating': }"
B0H237S0X5,,宝岛森林衡山酒店停车场,交通设施服务;停车场;公共停车场,北沿公路与水杉西路交叉口南220米,,121.4713165,31.67784077,,上海市,,上海市,,崇明区,,"{'cost': , 'rating': }"
BV10028667,,施家河沿(公交站),交通设施服务;公交车站;公交车站相关,崇明乡村3路,,121.5818665,31.60596145,,上海市,,上海市,,崇明区,,"{'cost': , 'rating': }"
BV09047155,,风伟新村(公交站),交通设施服务;公交车站;公交车站相关,南同专线;堡胜专线,,121.482657,31.68388768,,上海市,,上海市,,崇明区,,"{'cost': , 'rating': }"
BV10384343,,新河敬老院(招呼站)(公交站),交通设施服务;公交车站;公交车站相关,南裕专线;南裕专线(陈家镇枢纽站),,121.5251998,31.58761362,,上海市,,上海市,,崇明区,,"{'cost': , 'rating': }"
B0G3M94AX9,,上海协通众明汽车销售服务有限公司停车场,交通设施服务;停车场;停车场相关,新薇路与团城公路交叉口西南140米,,121.5070467,31.5918897,,上海市,,上海市,,崇明区,,"{'cost': , 'rating': }"
BV11368309,,井亭路(招呼站)(公交站),交通设施服务;公交车站;公交车站相关,南堡专线,,121.4906649,31.59952789,,上海市,,上海市,,崇明区,,"{'cost': , 'rating': }"
B00156EE3Z,,新河镇停车场,交通设施服务;停车场;公共停车场,北新支路158号,13817134830,121.5211367,31.58797119,,上海市,,上海市,,崇明区,,"{'cost': , 'rating': }"
BV11641996,,北新支路新景路(公交站),交通设施服务;公交车站;公交车站相关,1721路,,121.5192967,31.5864964,,上海市,,上海市,,崇明区,,"{'cost': , 'rating': }"
B0J6DABAGH,,中国建设银行(上海新河支行)地面停车场(出入口),交通设施服务;停车场;停车场出入口,中国建设银行(上海新河支行)地面停车场,,121.5179027,31.5853069,,上海市,,上海市,,崇明区,,"{'cost': , 'rating': }"
BV09168065,,竞存小学(公交站),交通设施服务;公交车站;公交车站相关,崇明乡村9路,,121.5212601,31.58370229,,上海市,,上海市,,崇明区,,"{'cost': , 'rating': }"
BV10027239,,新申路(公交站),交通设施服务;公交车站;公交车站相关,南堡专线,,121.5096878,31.58870329,,上海市,,上海市,,崇明区,,"{'cost': , 'rating': }"
B0IGVS12CL,,新河镇社区事务受理服务中心停车场,交通设施服务;停车场;停车场相关,新申公路与新河公路交叉口东北220米,,121.5096334,31.58891895,,上海市,,上海市,,崇明区,,"{'cost': , 'rating': }"
BV10027236,,东平大桥(公交站),交通设施服务;公交车站;公交车站相关,南堡专线,,121.4817817,31.60368595,,上海市,,上海市,,崇明区,,"{'cost': , 'rating': }"
B0FFFYFXL0,,东平国家森林公园P1停车场,交通设施服务;停车场;公共停车场,北沿公路2288号东平国家森林公园内(南侧),,121.4732331,31.67998077,,上海市,,上海市,,崇明区,,"{'cost': , 'rating': }"
BV11542173,,彩弹射击(公交站),交通设施服务;公交车站;公交车站相关,(停运)花博会园区游览车,,121.4752818,31.68144558,,上海市,,上海市,,崇明区,,"{'cost': , 'rating': }"
B0H6P5PV89,,东平国家森林公园P2停车场(房车专用停车场),交通设施服务;停车场;专用停车场,北沿公路2188号东平国家森林公园内(南侧),021-59338666,121.4715023,31.6805031,,上海市,,上海市,,崇明区,,"{'cost': , 'rating': }"
B0HRVODY2U,,东平国家森林公园P1停车场(出入口),交通设施服务;停车场;停车场出入口,北沿公路东平国家森林公园P1停车场,,121.4729432,31.6797791,,上海市,,上海市,,崇明区,,"{'cost': , 'rating': }"
B0FFFDLAY8,,崇明自行车旅游岛,交通设施服务;交通服务相关;交通服务相关,北沿公路与水杉西路交叉口西北20米,,121.4716011,31.67988157,,上海市,,上海市,,崇明区,,"{'cost': , 'rating': }"
B0H237RT6Q,,宝岛森林衡山酒店停车场(出入口),交通设施服务;停车场;停车场出入口,北沿公路与水杉东路交叉口东南40米,,121.472452,31.67935329,,上海市,,上海市,,崇明区,,"{'cost': , 'rating': }"
BV10024545,,森林公园(公交站),交通设施服务;公交车站;公交车站相关,南东专线;南江专线,,121.4713755,31.67985631,,上海市,,上海市,,崇明区,,"{'cost': , 'rating': }"
B0FFGECPB3,,东平国家森林公园停车场(出入口),交通设施服务;停车场;停车场出入口,东平国家森林公园1号门东停车场,,121.4716373,31.67972677,,上海市,,上海市,,崇明区,,"{'cost': , 'rating': }"
BV11542169,,南1号门(公交站),交通设施服务;公交车站;公交车站相关,(停运)花博会园区游览车,,121.4739265,31.6818019,,上海市,,上海市,,崇明区,,"{'cost': , 'rating': }"
B0FFLGLJ95,,停车场(出入口),交通设施服务;停车场;停车场出入口,北沿公路与水杉东路交叉口东20米,,121.4723774,31.67966391,,上海市,,上海市,,崇明区,,"{'cost': , 'rating': }"
BV11520763,,唐家宅(招呼站)(公交站),交通设施服务;公交车站;公交车站相关,南堡二线;南堡支线,,121.4623169,31.64374567,,上海市,,上海市,,崇明区,,"{'cost': , 'rating': }"
B0FFH0ZVFR,,中国建设银行(上海新河支行)地面停车场,交通设施服务;停车场;公共停车场,新开河路558号中国建设银行(上海新河支行),,121.5178221,31.58532247,,上海市,,上海市,,崇明区,,"{'cost': , 'rating': }"
B0H07A2L52,,新河大酒店新河镇店停车场,交通设施服务;停车场;公共停车场,新河公路与新中路交叉口西100米,,121.5132349,31.58572683,,上海市,,上海市,,崇明区,,"{'cost': , 'rating': }"
B0H07A3UXB,,新河大酒店新河镇店停车场(出入口),交通设施服务;停车场;停车场出入口,新河公路与新中路交叉口西80米,,121.5134041,31.58586677,,上海市,,上海市,,崇明区,,"{'cost': , 'rating': }"
B0FFIBEEHA,,停车场(崇明区新河镇少年之家东南),交通设施服务;停车场;公共停车场,新河公路与新影路交叉口西60米,,121.5160513,31.58516269,,上海市,,上海市,,崇明区,,"{'cost': , 'rating': }"
BV09168071,,新中路新河公路(公交站),交通设施服务;公交车站;公交车站相关,崇明乡村9路,,121.5138875,31.5849106,,上海市,,上海市,,崇明区,,"{'cost': , 'rating': }"
BV11638305,,新中路新河马路(公交站),交通设施服务;公交车站;公交车站相关,崇明乡村10路,,121.5137093,31.58457863,,上海市,,上海市,,崇明区,,"{'cost': , 'rating': }"
BV10036845,,建设村(公交站),交通设施服务;公交车站;公交车站相关,南同专线;南同专线区间,,121.4702502,31.61554238,,上海市,,上海市,,崇明区,,"{'cost': , 'rating': }"
BV11542172,,娱乐区(公交站),交通设施服务;公交车站;公交车站相关,(停运)花博会园区游览车,,121.4804248,31.68650591,,上海市,,上海市,,崇明区,,"{'cost': , 'rating': }"
B0FFG297UR,,东平国家森林公园-小火车2号停靠站,交通设施服务;交通服务相关;交通服务相关,东平东大道和棕榈路的交叉口附近,,121.4784916,31.68463743,,上海市,,上海市,,崇明区,,"{'cost': , 'rating': }"
BV11634944,,三号河南路(招呼站)(公交站),交通设施服务;公交车站;公交车站相关,堡胜专线;崇明乡村3路,,121.5926656,31.61177101,,上海市,,上海市,,崇明区,,"{'cost': , 'rating': }"
BV10027235,,二条竖河(公交站),交通设施服务;公交车站;公交车站相关,南堡专线,,121.4728076,31.60891594,,上海市,,上海市,,崇明区,,"{'cost': , 'rating': }"
BV10480239,,新光林家乐10号(公交站),交通设施服务;公交车站;公交车站相关,崇明乡村7路,,121.5409788,31.70701975,,上海市,,上海市,,崇明区,,"{'cost': , 'rating': }"
BV11549373,,强力站(公交站),交通设施服务;公交车站;公交车站相关,南东专线;南同专线;堡胜专线,,121.4845239,31.69216776,,上海市,,上海市,,崇明区,,"{'cost': , 'rating': }"
BV11479170,,竞存小学(招呼站)(公交站),交通设施服务;公交车站;公交车站相关,南堡专线,,121.5216065,31.58357315,,上海市,,上海市,,崇明区,,"{'cost': , 'rating': }"
B00156R2XT,,东旺沙港,交通设施服务;港口码头;港口码头,团旺北路东150米,,121.9062861,31.57320905,,上海市,,上海市,,崇明区,,"{'cost': , 'rating': }"
B0FFLAF3BC,,上海崇明东滩鸟类国家级自然保护区停车场,交通设施服务;停车场;公共停车场,东滩东旺大道上海崇明东滩鸟类国家级自然保护区,,121.9415463,31.49688468,,上海市,,上海市,,崇明区,,"{'cost': , 'rating': }"
B0FFG8C15L,,停车场(长江路),交通设施服务;停车场;公共停车场,长江东路与98大堤交叉口西北100米,,121.9422715,31.49672682,,上海市,,上海市,,崇明区,,"{'cost': , 'rating': }"
BV11421467,,团结沙(招呼站)(公交站),交通设施服务;公交车站;公交车站相关,崇明东滩2路(团结沙),,121.8643004,31.45628639,,上海市,,上海市,,崇明区,,"{'cost': , 'rating': }"
BV10441803,,东浜村路(公交站),交通设施服务;公交车站;公交车站相关,横沙2路,,121.8762878,31.34047787,,上海市,,上海市,,崇明区,,"{'cost': , 'rating': }"
B0I1J7HG4F,,天使海滩度假村地面停车场,交通设施服务;停车场;公共停车场,横沙岛东滨路2579号天使海滩度假村,,121.8761105,31.33954425,,上海市,,上海市,,崇明区,,"{'cost': , 'rating': }"
B0I1J7EQA3,,天使海滩度假村地面停车场(出入口),交通设施服务;停车场;停车场出入口,天使海滩度假村地面停车场,,121.8761105,31.33954425,,上海市,,上海市,,崇明区,,"{'cost': , 'rating': }"
B0HUR74E6Y,,东滩湿地公园西门停车场,交通设施服务;停车场;公共停车场,东滩东旺路风车处东滩湿地公园内(西侧),,121.9311814,31.52042985,,上海市,,上海市,,崇明区,,"{'cost': , 'rating': }"
B0015798U5,,东滩湿地公园地面停车场(暂停营业),交通设施服务;停车场;公共停车场,东滩东旺路风车处东滩湿地公园内(西侧),,121.930438,31.51739599,,上海市,,上海市,,崇明区,,"{'cost': , 'rating': }"
B0FFGEOH5N,,东滩湿地公园地面停车场(出入口)(暂停营业),交通设施服务;停车场;停车场出入口,东滩湿地公园地面停车场,,121.9302834,31.51782535,,上海市,,上海市,,崇明区,,"{'cost': , 'rating': }"
BV10781348,,东海村(公交站),交通设施服务;公交车站;公交车站相关,横沙2路,,121.8615564,31.34726547,,上海市,,上海市,,崇明区,,"{'cost': , 'rating': }"
BV10781340,,民建村(公交站),交通设施服务;公交车站;公交车站相关,横沙2路,,121.8556822,31.34782213,,上海市,,上海市,,崇明区,,"{'cost': , 'rating': }"
BV10441823,,东浜村部(公交站),交通设施服务;公交车站;公交车站相关,横沙2路,,121.8705438,31.33252233,,上海市,,上海市,,崇明区,,"{'cost': , 'rating': }"
B0FFL9QOBR,,观海楼游艇码头,交通设施服务;港口码头;港口码头,东滩东旺路风车处东滩湿地公园雨水收集区内,,121.9497989,31.52548716,,上海市,,上海市,,崇明区,,"{'cost': , 'rating': }"
B0H3D5R43C,,上海瀛东生态村东湖景区-专用停车场,交通设施服务;停车场;停车场相关,陈家镇瀛东村东湖游览区内(西南角),,121.8380945,31.46627149,,上海市,,上海市,,崇明区,,"{'cost': , 'rating': }"
B0H1USWB6F,,东湖游览区停车场,交通设施服务;停车场;公共停车场,陈家镇瀛东村东湖游览区内(西北角),,121.8365012,31.46854891,,上海市,,上海市,,崇明区,,"{'cost': , 'rating': }"
BV10781343,,新永村(公交站),交通设施服务;公交车站;公交车站相关,横沙2路,,121.848603,31.34558816,,上海市,,上海市,,崇明区,,"{'cost': , 'rating': }"
BV11386430,,东兴路(公交站),交通设施服务;公交车站;公交车站相关,横沙2路,,121.86518,31.32637322,,上海市,,上海市,,崇明区,,"{'cost': , 'rating': }"
BV10781341,,民永村(公交站),交通设施服务;公交车站;公交车站相关,横沙2路,,121.8422374,31.34614366,,上海市,,上海市,,崇明区,,"{'cost': , 'rating': }"
BV11362466,,殡仪馆(招呼站)(公交站),交通设施服务;公交车站;公交车站相关,横沙3路;横沙3路区间,,121.8223237,31.37671611,,上海市,,上海市,,崇明区,,"{'cost': , 'rating': }"
BV10384002,,瀛东村(公交站),交通设施服务;公交车站;公交车站相关,崇明东滩2路;崇明东滩2路(团结沙),,121.8304316,31.4695624,,上海市,,上海市,,崇明区,,"{'cost': , 'rating': }"
BV11273512,,层海路环瀛路(公交站),交通设施服务;公交车站;公交车站相关,崇明东滩5路,,121.8417207,31.48627769,,上海市,,上海市,,崇明区,,"{'cost': , 'rating': }"
BV10459096,,横沙岛汽车站(公交站),交通设施服务;公交车站;公交车站相关,横沙3路;横长线;申崇七线,,121.8328494,31.34559167,,上海市,,上海市,,崇明区,,"{'cost': , 'rating': }"
BV11412130,,横沙汽车站(公交站),交通设施服务;公交车站;公交车站相关,横沙2路,,121.8328947,31.34560183,,上海市,,上海市,,崇明区,,"{'cost': , 'rating': }"
BV10900882,,横沙新民镇汽车站(招呼站)(公交站),交通设施服务;公交车站;公交车站相关,横沙3路区间,,121.8327118,31.34556419,,上海市,,上海市,,崇明区,,"{'cost': , 'rating': }"
B0H3LZKMW3,,横沙汽车站(进站口),交通设施服务;长途汽车站;进站,民东路与新环路交叉口东40米,,121.8328052,31.34549058,,上海市,,上海市,,崇明区,,"{'cost': , 'rating': }"
BV11420733,,营房(公交站),交通设施服务;公交车站;公交车站相关,崇明东滩2路;崇明东滩2路(团结沙),,121.827129,31.4686355,,上海市,,上海市,,崇明区,,"{'cost': , 'rating': }"
B0FFL2V9S6,,横沙汽车站,交通设施服务;长途汽车站;长途汽车站,X904(民东路),,121.8330526,31.34534558,,上海市,,上海市,,崇明区,,"{'cost': , 'rating': }"
B0GKAU2BUH,,横沙汽车站候车室,交通设施服务;长途汽车站;候车室,民东路与新环路交叉口东南约40米,,121.8327992,31.34538163,,上海市,,上海市,,崇明区,,"{'cost': , 'rating': }"
BV10781342,,横沙卫生院(公交站),交通设施服务;公交车站;公交车站相关,横沙2路,,121.8361227,31.34629205,,上海市,,上海市,,崇明区,,"{'cost': , 'rating': }"
BV10441288,,红星村(公交站),交通设施服务;公交车站;公交车站相关,横沙3路;横沙3路区间;横长线,,121.8274794,31.35730287,,上海市,,上海市,,崇明区,,"{'cost': , 'rating': }"
BV11400202,,红星村(临时站)(公交站),交通设施服务;公交车站;公交车站相关,申崇七线,,121.827592,31.35693854,,上海市,,上海市,,崇明区,,"{'cost': , 'rating': }"
BV11127437,,红星村(招呼站)(公交站),交通设施服务;公交车站;公交车站相关,横长线,,121.827592,31.35693854,,上海市,,上海市,,崇明区,,"{'cost': , 'rating': }"
BV10441814,,丰庆路(公交站),交通设施服务;公交车站;公交车站相关,横沙2路,,121.8619615,31.31944755,,上海市,,上海市,,崇明区,,"{'cost': , 'rating': }"
B0JRBAO53X,,德流智慧食品科技(上海)有限公司崇明分公司停车场(出入口),交通设施服务;停车场;停车场出入口,团旺北路西40米,,121.9049942,31.5323887,,上海市,,上海市,,崇明区,,"{'cost': , 'rating': }"
BV10441303,,卫生站(公交站),交通设施服务;公交车站;公交车站相关,横沙3路;横沙3路区间;横长线,,121.8295088,31.35034011,,上海市,,上海市,,崇明区,,"{'cost': , 'rating': }"
BV09084531,,东滩(地铁站),交通设施服务;地铁站;地铁站,(在建)崇明线二期,,121.8478412,31.50463314,,上海市,,上海市,,崇明区,,"{'cost': , 'rating': }"
B0H3MC8BUQ,,上海永丰艺术田园景区停车点,交通设施服务;停车场;公共停车场,育贤南路与西兴路交叉口南180米,,121.8422022,31.33393514,,上海市,,上海市,,崇明区,,"{'cost': , 'rating': }"
B0H17C66V5,,自行车主题公园停车点,交通设施服务;停车场;公共停车场,东滩大道与东新路交叉口西北400米,,121.8309805,31.48710297,,上海市,,上海市,,崇明区,,"{'cost': , 'rating': }"
BV10441286,,四号桥(公交站),交通设施服务;公交车站;公交车站相关,横沙3路;横沙3路区间,,121.8325549,31.34006345,,上海市,,上海市,,崇明区,,"{'cost': , 'rating': }"
B0H0DH9Z8L,,新岛集贸市场停车场,交通设施服务;停车场;公共停车场,民惠路与新北南北路交叉口东北80米,,121.828794,31.34526194,,上海市,,上海市,,崇明区,,"{'cost': , 'rating': }"
BV10547185,,立新村(公交站),交通设施服务;公交车站;公交车站相关,陈前线,,121.8796422,31.52775019,,上海市,,上海市,,崇明区,,"{'cost': , 'rating': }"
B0HKDU0PDC,,上海崇明由由喜来登酒店地下停车场,交通设施服务;停车场;公共停车场,揽海路与中滨路交叉口东420米,,121.8146433,31.46717336,,上海市,,上海市,,崇明区,,"{'cost': , 'rating': }"
B0H0UHMU36,,上海崇明由由世御别墅酒店停车场,交通设施服务;停车场;公共停车场,由由世御别墅酒店,,121.8159377,31.46818078,,上海市,,上海市,,崇明区,,"{'cost': , 'rating': }"
B0HKYMQ6W8,,揽海国际高尔夫俱乐部停车场,交通设施服务;停车场;公共停车场,揽海路与中滨路交叉口东南360米,,121.8116988,31.4646155,,上海市,,上海市,,崇明区,,"{'cost': , 'rating': }"
B0HKYMPA51,,揽海国际高尔夫俱乐部停车场(入口),交通设施服务;停车场;停车场入口,揽海路与中滨路交叉口东南340米,,121.8131218,31.46588324,,上海市,,上海市,,崇明区,,"{'cost': , 'rating': }"
B0HKYMQ6W9,,揽海国际高尔夫俱乐部停车场(出口),交通设施服务;停车场;停车场出口,揽海路与中滨路交叉口东南340米,,121.8132354,31.46585267,,上海市,,上海市,,崇明区,,"{'cost': , 'rating': }"
B0IRMUK3WY,,上海外国语大学贤达经济人文学院崇明校区地面停车场,交通设施服务;停车场;公共停车场,中滨路与陈东路交叉口东北240米,,121.8250369,31.48861534,,上海市,,上海市,,崇明区,,"{'cost': , 'rating': }"
BV10384424,,上外贤达学院(公交站),交通设施服务;公交车站;公交车站相关,崇明东滩5路,,121.8257711,31.49244679,,上海市,,上海市,,崇明区,,"{'cost': , 'rating': }"
B0IRMUJGT2,,上海外国语大学贤达经济人文学院崇明校区地面停车场(入口),交通设施服务;停车场;停车场入口,上海外国语大学贤达经济人文学院崇明校区地面停车场,,121.8238541,31.48735035,,上海市,,上海市,,崇明区,,"{'cost': , 'rating': }"
BV10638675,,中滨路揽海路(公交站),交通设施服务;公交车站;公交车站相关,崇明东滩2路;崇明东滩2路(团结沙),,121.8116286,31.46980119,,上海市,,上海市,,崇明区,,"{'cost': , 'rating': }"
BV10028412,,前哨农场(公交站),交通设施服务;公交车站;公交车站相关,陈前线;陈前线区间,,121.8629544,31.52961877,,上海市,,上海市,,崇明区,,"{'cost': , 'rating': }"
B0H2G7VFLN,,东旺西路-道路停车位,交通设施服务;停车场;路边停车场,东旺大道与东瀛路交叉口东140米,,121.865909,31.52929088,,上海市,,上海市,,崇明区,,"{'cost': , 'rating': }"
BV10441292,,丰乐镇(公交站),交通设施服务;公交车站;公交车站相关,横沙3路;横沙3路区间,,121.8376481,31.32251657,,上海市,,上海市,,崇明区,,"{'cost': , 'rating': }"
BV10441299,,富民村(公交站),交通设施服务;公交车站;公交车站相关,横沙3路;横沙3路区间;横长线,,121.8035315,31.37510712,,上海市,,上海市,,崇明区,,"{'cost': , 'rating': }"
BV11143319,,安通东路中滨路(公交站),交通设施服务;公交车站;公交车站相关,东滩3路,,121.8482261,31.51577418,,上海市,,上海市,,崇明区,,"{'cost': , 'rating': }"
B00155N91S,,横沙客运站,交通设施服务;港口码头;客运港,富民沙路3203号,,121.7916321,31.37453214,,上海市,,上海市,,崇明区,,"{'cost': '18.00', 'rating': }"
BV10799673,,横沙客运站(轮渡站),交通设施服务;轮渡站;轮渡站,吴淞-横沙,,121.7898736,31.37390318,,上海市,,上海市,,崇明区,,"{'cost': , 'rating': }"
BV09084532,,裕安(地铁站),交通设施服务;地铁站;地铁站,(在建)崇明线二期,,121.8533475,31.52859474,,上海市,,上海市,,崇明区,,"{'cost': , 'rating': }"
BV11143321,,安瑞路中滨路(公交站),交通设施服务;公交车站;公交车站相关,东滩3路,,121.8497329,31.52127649,,上海市,,上海市,,崇明区,,"{'cost': , 'rating': }"
B0KB6A6JGL,,上海盒马NB崇明陈家镇店地面停车场,交通设施服务;停车场;公共停车场,安润路482号上海盒马NB崇明陈家镇店,,121.8466961,31.52203754,,上海市,,上海市,,崇明区,,"{'cost': , 'rating': }"
BV11273593,,卫生服务中心(公交站),交通设施服务;公交车站;公交车站相关,东滩3路,,121.8498531,31.52306041,,上海市,,上海市,,崇明区,,"{'cost': , 'rating': }"
B0KB6A3T68,,上海盒马NB崇明陈家镇店地面停车场(出入口),交通设施服务;停车场;停车场出入口,上海盒马NB崇明陈家镇店地面停车场,,121.8466961,31.52203754,,上海市,,上海市,,崇明区,,"{'cost': , 'rating': }"
B0KB6S6ZCB,,地下停车场,交通设施服务;停车场;公共停车场,安瑞路与安润路交叉口东60米,,121.8479307,31.52204955,,上海市,,上海市,,崇明区,,"{'cost': , 'rating': }"
BV10441296,,横沙码头(公交站),交通设施服务;公交车站;公交车站相关,横沙2路;横沙3路;横沙3路区间;横长线,,121.792325,31.3743364,,上海市,,上海市,,崇明区,,"{'cost': , 'rating': }"
BV11400201,,横沙码头(临时站)(公交站),交通设施服务;公交车站;公交车站相关,申崇七线,,121.7924948,31.3740811,,上海市,,上海市,,崇明区,,"{'cost': , 'rating': }"
B00155N9V4,,横沙客运站停车场,交通设施服务;停车场;公共停车场,横沙乡富民沙路横沙客运站,,121.7924988,31.3745668,,上海市,,上海市,,崇明区,,"{'cost': , 'rating': }"
BV11395054,,打捞局(招呼站)(公交站),交通设施服务;公交车站;公交车站相关,横沙2路,,121.8022949,31.36149151,,上海市,,上海市,,崇明区,,"{'cost': , 'rating': }"
BV10441293,,兴隆村(公交站),交通设施服务;公交车站;公交车站相关,横沙2路;横沙3路;横沙3路区间,,121.841916,31.30937749,,上海市,,上海市,,崇明区,,"{'cost': , 'rating': }"
BV11143318,,安通东路安瑞路(公交站),交通设施服务;公交车站;公交车站相关,东滩3路,,121.8436333,31.51944103,,上海市,,上海市,,崇明区,,"{'cost': , 'rating': }"
BV10385247,,织布厂(招呼站)(公交站),交通设施服务;公交车站;公交车站相关,陈前线;陈前线区间,,121.8651575,31.53501781,,上海市,,上海市,,崇明区,,"{'cost': , 'rating': }"
B0IBZZ4SHV,,上海崇明云朵·墅酒店地面停车点,交通设施服务;停车场;公共停车场,朝阳南路与漕河泾路交叉口东南300米,,121.8010126,31.46983534,,上海市,,上海市,,崇明区,,"{'cost': , 'rating': }"
BV11613160,,保亿小区(公交站),交通设施服务;公交车站;公交车站相关,崇明东滩2路,,121.8005865,31.47020575,,上海市,,上海市,,崇明区,,"{'cost': , 'rating': }"
B0FFM4YGFK,,上海海事局横沙基地,交通设施服务;港口码头;港口码头,红兴路与红胜路交叉口西200米,,121.8438653,31.30275729,,上海市,,上海市,,崇明区,,"{'cost': , 'rating': }"
BV11143316,,安寿路北沿公路(公交站),交通设施服务;公交车站;公交车站相关,东滩3路,,121.8525908,31.53097089,,上海市,,上海市,,崇明区,,"{'cost': , 'rating': }"
BV10828216,,裕鸿幼儿园分园(公交站),交通设施服务;公交车站;公交车站相关,东滩3路,,121.8403276,31.52454537,,上海市,,上海市,,崇明区,,"{'cost': , 'rating': }"
BV10441354,,航道公司(公交站),交通设施服务;公交车站;公交车站相关,横沙3路,,121.8365862,31.30822265,,上海市,,上海市,,崇明区,,"{'cost': , 'rating': }"
B0I19UXOUX,,海岛芳草地民宿停车场,交通设施服务;停车场;公共停车场,横沙乡新联村324号(邻增新路),,121.8237117,31.31739814,,上海市,,上海市,,崇明区,,"{'cost': , 'rating': }"
B00155N91M,,长兴对江渡客运站,交通设施服务;港口码头;客运港,长兴合作路,021-56896988,121.7780012,31.3650527,,上海市,,上海市,,崇明区,,"{'cost': , 'rating': }"
BV10380190,,长横渡口(公交站),交通设施服务;公交车站;公交车站相关,长兴4路,,121.7780354,31.36460706,,上海市,,上海市,,崇明区,,"{'cost': , 'rating': }"
B0H1VSPW7Z,,长兴对江渡客运站停车场,交通设施服务;停车场;公共停车场,长兴合作路辅路与永丰路交叉口北180米,,121.7778817,31.36500344,,上海市,,上海市,,崇明区,,"{'cost': , 'rating': }"
B0I03SZ6V6,,长兴对江渡客运站停车场(出入口),交通设施服务;停车场;停车场出入口,长兴对江渡客运站停车场,,121.777971,31.36486574,,上海市,,上海市,,崇明区,,"{'cost': , 'rating': }"
BV10638671,,凯悦金茂酒店(公交站),交通设施服务;公交车站;公交车站相关,崇明东滩2路;崇明东滩2路(团结沙),,121.7925357,31.47093811,,上海市,,上海市,,崇明区,,"{'cost': , 'rating': }"
BV10385281,,陈家镇(公交站),交通设施服务;公交车站;公交车站相关,(停运)崇明乡村1路;东滩1路;东滩3路;南裕专线;南裕专线(陈家镇枢纽站);堡陈专线;崇明东滩2路;崇明东滩2路(团结沙);崇明东滩4路;崇明东滩5路;陈前线;陈前线区间,,121.7981676,31.50301019,,上海市,,上海市,,崇明区,,"{'cost': , 'rating': }"
B0HKVA6Y2I,,上海崇明金茂凯悦酒店地下停车场,交通设施服务;停车场;公共停车场,陈家镇揽海路799弄上海崇明金茂凯悦酒店,,121.7919864,31.47052856,,上海市,,上海市,,崇明区,,"{'cost': , 'rating': }"
B0HKVA9AAG,,上海崇明金茂凯悦酒店停车场,交通设施服务;停车场;公共停车场,陈家镇揽海路799弄上海崇明金茂凯悦酒店,,121.7912913,31.47114918,,上海市,,上海市,,崇明区,,"{'cost': , 'rating': }"
BV10028411,,前哨七队(公交站),交通设施服务;公交车站;公交车站相关,陈前线;陈前线区间,,121.8630044,31.54297991,,上海市,,上海市,,崇明区,,"{'cost': , 'rating': }"
BV10441352,,新联村(公交站),交通设施服务;公交车站;公交车站相关,横沙3路,,121.8165654,31.32164017,,上海市,,上海市,,崇明区,,"{'cost': , 'rating': }"
BV10034445,,安振路裕国路(公交站),交通设施服务;公交车站;公交车站相关,东滩1路;东滩3路,,121.8352555,31.52565209,,上海市,,上海市,,崇明区,,"{'cost': , 'rating': }"
BV11143320,,安振路裕鸿路(公交站),交通设施服务;公交车站;公交车站相关,东滩3路,,121.8319313,31.52338456,,上海市,,上海市,,崇明区,,"{'cost': , 'rating': }"
B0FFL8FNI2,,麦盛莉陈家镇宝岛酒停车场,交通设施服务;停车场;停车场相关,裕盛路与安振路交叉口西140米,,121.8310516,31.52445605,,上海市,,上海市,,崇明区,,"{'cost': , 'rating': }"
BV11242266,,裕盛路安振路(公交站),交通设施服务;公交车站;公交车站相关,东滩1路,,121.8305459,31.52504203,,上海市,,上海市,,崇明区,,"{'cost': , 'rating': }"
B0FFL8H4Q9,,横沙渔港4号码头,交通设施服务;港口码头;货运港口码头,横沙渔港东侧130米,,121.7821702,31.35988949,,上海市,,上海市,,崇明区,,"{'cost': , 'rating': }"
B0HD0AWY8F,,东滩商务广场停车场,交通设施服务;停车场;公共停车场,安通路与裕政路交叉口东北100米,,121.8396762,31.53220523,,上海市,,上海市,,崇明区,,"{'cost': , 'rating': }"
B0FFH9RQE0,,长江第一滩停车场,交通设施服务;停车场;公共停车场,渔家乐路,,121.7813676,31.35133114,,上海市,,上海市,,崇明区,,"{'cost': , 'rating': }"
BV09167348,,渔翔路渔家乐路(公交站),交通设施服务;公交车站;公交车站相关,长兴1路,,121.7787691,31.35213309,,上海市,,上海市,,崇明区,,"{'cost': , 'rating': }"
BV10032497,,东滩大道北陈公路(公交站),交通设施服务;公交车站;公交车站相关,崇明东滩5路,,121.807573,31.50196321,,上海市,,上海市,,崇明区,,"{'cost': , 'rating': }"
B0H61SNROK,,名岛生活广场停车场,交通设施服务;停车场;公共停车场,崇明区-陈彷公路1弄1号,,121.805798,31.49845848,310000,上海市,21,上海市,310151,崇明区,陈家,
B0H0KHPAYP,,陈家镇集贸市场停车场,交通设施服务;停车场;公共停车场,陈彷公路与陈南北路交叉口东40米,,121.8039384,31.50035394,310000,上海市,21,上海市,310151,崇明区,陈家,
B0H0CCV6Q2,,上海东滩悦酒店停车场,交通设施服务;停车场;公共停车场,安通路1428号崇明东滩悦酒店(东滩商务广场店),,121.8421626,31.53551409,,上海市,,上海市,,崇明区,,"{'cost': , 'rating': }"
BV11136280,,体育训练中心(公交站),交通设施服务;公交车站;公交车站相关,东滩3路,,121.842534,31.53767788,,上海市,,上海市,,崇明区,,"{'cost': , 'rating': }"
B0HK3HLU6R,,陈家镇大酒店停车点,交通设施服务;停车场;公共停车场,北陈公路与陈彷公路交叉口西南140米,,121.8012456,31.49988458,,上海市,,上海市,,崇明区,,"{'cost': , 'rating': }"
B0H61SOMMF,,名岛生活广场地面停车场(出入口),交通设施服务;停车场;停车场出入口,陈彷公路与北陈公路交叉口西北140米,,121.8008494,31.50149071,,上海市,,上海市,,崇明区,,"{'cost': , 'rating': }"
BV10028406,,裕安镇(公交站),交通设施服务;公交车站;公交车站相关,南裕专线;堡陈北线;陈前线;陈前线区间,,121.824675,31.53080778,,上海市,,上海市,,崇明区,,"{'cost': , 'rating': }"
B0FFME1X94,,小型车辆停放点,交通设施服务;停车场;停车场相关,北陈公路与裕安西路交叉口西80米,,121.8243231,31.5310384,,上海市,,上海市,,崇明区,,"{'cost': , 'rating': }"
BV10638674,,陈家镇水厂(公交站),交通设施服务;公交车站;公交车站相关,崇明东滩2路;崇明东滩2路(团结沙),,121.788371,31.48288207,,上海市,,上海市,,崇明区,,"{'cost': , 'rating': }"
BV10028404,,北陈公路陈海公路(公交站),交通设施服务;公交车站;公交车站相关,东滩1路;东滩3路;南裕专线;堡陈中线;堡陈北线;陈前线;陈前线区间,,121.8082541,31.50905954,,上海市,,上海市,,崇明区,,"{'cost': , 'rating': }"
B0I1CS9ELY,,横沙渔港地面停车场,交通设施服务;停车场;公共停车场,渔港环路与渔家乐路交叉口东400米,,121.7800271,31.36038768,,上海市,,上海市,,崇明区,,"{'cost': , 'rating': }"
BV10027481,,窑厂(公交站),交通设施服务;公交车站;公交车站相关,东滩1路;东滩3路;堡陈北线;陈前线;陈前线区间,,121.8148399,31.51732339,,上海市,,上海市,,崇明区,,"{'cost': , 'rating': }"
BV11242265,,安崇路裕盛路(公交站),交通设施服务;公交车站;公交车站相关,东滩1路,,121.8251431,31.52609668,,上海市,,上海市,,崇明区,,"{'cost': , 'rating': }"
B0HKKSH7JQ,,鹿强市场停车场,交通设施服务;停车场;公共停车场,陈家镇裕安路66号鹿强市场,,121.8254593,31.5287692,,上海市,,上海市,,崇明区,,"{'cost': , 'rating': }"
B00156CLW1,,停车场(裕军路),交通设施服务;停车场;公共停车场,裕军路与北陈公路交叉口东120米,,121.8250169,31.52967733,,上海市,,上海市,,崇明区,,"{'cost': , 'rating': }"
BV11331301,,老窑厂(招呼站)(公交站),交通设施服务;公交车站;公交车站相关,东滩3路;南裕专线;堡陈中线;堡陈北线;陈前线区间,,121.8104255,31.51187062,,上海市,,上海市,,崇明区,,"{'cost': , 'rating': }"
B0H0PSFNF7,,雄耀农庄停车场,交通设施服务;停车场;公共停车场,北陈公路与陈东路交叉口西南200米,,121.7986719,31.49762956,,上海市,,上海市,,崇明区,,"{'cost': , 'rating': }"
BV10918703,,裕展路安岛路(公交站),交通设施服务;公交车站;公交车站相关,东滩1路,,121.8368516,31.53662523,,上海市,,上海市,,崇明区,,"{'cost': , 'rating': }"
BV10028405,,鸿田村(公交站),交通设施服务;公交车站;公交车站相关,东滩1路;东滩3路;堡陈北线;陈前线;陈前线区间,,121.8195026,31.52369313,,上海市,,上海市,,崇明区,,"{'cost': , 'rating': }"
BV11331300,,农机站(招呼站)(公交站),交通设施服务;公交车站;公交车站相关,南裕专线,,121.8195026,31.52369313,,上海市,,上海市,,崇明区,,"{'cost': , 'rating': }"
B0H0XU5FGU,,大龙农家乐停车场,交通设施服务;停车场;公共停车场,陈南公路与北陈公路交叉口西北140米,,121.7926007,31.49064319,,上海市,,上海市,,崇明区,,"{'cost': , 'rating': }"
BV11090599,,裕展北村汽车站(公交站),交通设施服务;公交车站;公交车站相关,东滩1路;东滩3路,,121.8395866,31.53900239,,上海市,,上海市,,崇明区,,"{'cost': , 'rating': }"
BV10918701,,安岛路北沿公路(公交站),交通设施服务;公交车站;公交车站相关,东滩1路,,121.8369214,31.53943087,,上海市,,上海市,,崇明区,,"{'cost': , 'rating': }"
BV10034429,,裕安农机站(公交站),交通设施服务;公交车站;公交车站相关,陈前线;陈前线区间,,121.8373954,31.54182505,,上海市,,上海市,,崇明区,,"{'cost': , 'rating': }"
BV10638673,,北陈公路揽海路(公交站),交通设施服务;公交车站;公交车站相关,崇明东滩2路;崇明东滩2路(团结沙),,121.783652,31.47671402,,上海市,,上海市,,崇明区,,"{'cost': , 'rating': }"
BV09084533,,陈家镇(地铁站),交通设施服务;地铁站;地铁站,(在建)崇明线二期,,121.7844049,31.49448385,,上海市,,上海市,,崇明区,,"{'cost': , 'rating': }"
B0I1CSB5VD,,横沙渔港地面停车场(出入口),交通设施服务;停车场;停车场出入口,横沙渔港地面停车场,,121.7805154,31.35735691,,上海市,,上海市,,崇明区,,"{'cost': , 'rating': }"
B0HKUSVJP4,,新虹楼饭庄(崇明店)停车场,交通设施服务;停车场;公共停车场,北陈公路与裕鸿路交叉口西北20米,,121.8208763,31.52578176,,上海市,,上海市,,崇明区,,"{'cost': , 'rating': }"
B0JGASGYY1,,东顺来专用停车场,交通设施服务;停车场;专用停车场,陈南村陈家镇134号,,121.7975553,31.50037597,,上海市,,上海市,,崇明区,,"{'cost': , 'rating': }"
BV10028410,,前哨八队(公交站),交通设施服务;公交车站;公交车站相关,陈前线;陈前线区间,,121.8570389,31.55230337,,上海市,,上海市,,崇明区,,"{'cost': , 'rating': }"
B0FFKBQR0W,,崇明海监码头,交通设施服务;交通服务相关;交通服务相关,国家海洋局崇明海洋站东南侧150米,,121.769084,31.46998437,,上海市,,上海市,,崇明区,,"{'cost': , 'rating': }"
BV10032496,,陈家镇小学(公交站),交通设施服务;公交车站;公交车站相关,东滩1路;东滩3路;崇明东滩2路;崇明东滩4路;崇明东滩5路,,121.7931637,31.50511033,,上海市,,上海市,,崇明区,,"{'cost': , 'rating': }"
BV10385172,,陈家镇小学(招呼站)(公交站),交通设施服务;公交车站;公交车站相关,南裕专线;南裕专线(陈家镇枢纽站);堡陈专线;崇明东滩2路(团结沙);陈前线;陈前线区间,,121.7931637,31.50511033,,上海市,,上海市,,崇明区,,"{'cost': , 'rating': }"
BV10555264,,裕安农机站(招呼站)(公交站),交通设施服务;公交车站;公交车站相关,堡陈北线;陈前线;陈前线区间,,121.831453,31.54022786,,上海市,,上海市,,崇明区,,"{'cost': , 'rating': }"
BV11631036,,渔歌路圆展路(公交站),交通设施服务;公交车站;公交车站相关,长兴4路,,121.7701249,31.36452414,,上海市,,上海市,,崇明区,,"{'cost': , 'rating': }"
BV11242391,,圆展路渔翔路(公交站),交通设施服务;公交车站;公交车站相关,长兴1路,,121.7683208,31.36421003,,上海市,,上海市,,崇明区,,"{'cost': , 'rating': }"
BV10028408,,德云村(公交站),交通设施服务;公交车站;公交车站相关,陈前线;陈前线区间,,121.8430164,31.54939212,,上海市,,上海市,,崇明区,,"{'cost': , 'rating': }"
BV11646881,,展鸿村(公交站),交通设施服务;公交车站;公交车站相关,堡陈中线,,121.8063708,31.52120543,,上海市,,上海市,,崇明区,,"{'cost': , 'rating': }"
BV11631038,,江南清水苑(公交站),交通设施服务;公交车站;公交车站相关,长兴4路,,121.769503,31.35341831,,上海市,,上海市,,崇明区,,"{'cost': , 'rating': }"
BV10498352,,潘圆公路合作路(公交站),交通设施服务;公交车站;公交车站相关,长兴2路,,121.7673755,31.35074432,,上海市,,上海市,,崇明区,,"{'cost': , 'rating': }"
BV09167350,,渔翔路圆芳路(公交站),交通设施服务;公交车站;公交车站相关,长兴1路,,121.7677859,31.36107114,,上海市,,上海市,,崇明区,,"{'cost': , 'rating': }"
B0K6UHMCZR,,圆展路-道路停车位,交通设施服务;停车场;路边停车场,圆展路与渔翔路交叉口东北60米,,121.7669344,31.36237981,,上海市,,上海市,,崇明区,,"{'cost': , 'rating': }"
BV10028409,,前哨十队(公交站),交通设施服务;公交车站;公交车站相关,陈前线;陈前线区间,,121.8501467,31.55754897,,上海市,,上海市,,崇明区,,"{'cost': , 'rating': }"
BV11242396,,圆瑞路渔歌路(公交站),交通设施服务;公交车站;公交车站相关,长兴1路;长兴4路,,121.7632192,31.36734881,,上海市,,上海市,,崇明区,,"{'cost': , 'rating': }"
B0H0ZZTJWT,,上海长岛海鲜工坊停车场,交通设施服务;停车场;停车场相关,长兴镇仁建路800弄12号楼101室,,121.7649398,31.36458615,,上海市,,上海市,,崇明区,,"{'cost': , 'rating': }"
BV10380185,,潘圆公路圆东二路(公交站),交通设施服务;公交车站;公交车站相关,长兴2路,,121.7688832,31.34781999,,上海市,,上海市,,崇明区,,"{'cost': , 'rating': }"
B0I6ZCE901,,宝隆居家酒店(长兴岛横沙渔港码头店)停车场,交通设施服务;停车场;公共停车场,长熙路与圆东五路交叉口北40米,,121.7697771,31.34614178,,上海市,,上海市,,崇明区,,"{'cost': , 'rating': }"
BV10026271,,陈家镇(长江大桥)(公交站),交通设施服务;公交车站;公交车站相关,东滩1路;东滩3路;南裕专线(陈家镇枢纽站);堡陈专线;堡陈中线;堡陈北线;崇明东滩2路;崇明东滩2路(团结沙);崇明东滩5路;申崇二线;陈前线;陈前线区间,,121.7785543,31.5174799,,上海市,,上海市,,崇明区,,"{'cost': , 'rating': }"
B0FFHS4EJI,,上海崇明长途汽车站,交通设施服务;长途汽车站;长途汽车站,S128(陈海公路),,121.7797867,31.517191,,上海市,,上海市,,崇明区,,"{'cost': '11.00', 'rating': }"
B001573WCL,,停车场(花漂村路),交通设施服务;停车场;公共停车场,花漂村路上海崇明长途汽车站,,121.7803165,31.5176602,,上海市,,上海市,,崇明区,,"{'cost': , 'rating': }"
B0FFM904HB,,出租车专用限时长停车位,交通设施服务;停车场;停车场相关,陈家镇临时公交枢纽站内,,121.7795629,31.51693651,,上海市,,上海市,,崇明区,,"{'cost': , 'rating': }"
BV11221367,,江南大道江堤路(公交站),交通设施服务;公交车站;公交车站相关,长兴2路,,121.7797238,31.33177769,,上海市,,上海市,,崇明区,,"{'cost': , 'rating': }"
BV10555263,,老庙路(公交站),交通设施服务;公交车站;公交车站相关,堡陈北线;崇明东滩4路,,121.8277965,31.54542524,,上海市,,上海市,,崇明区,,"{'cost': , 'rating': }"
BV11221368,,江南大道兴略路(公交站),交通设施服务;公交车站;公交车站相关,长兴2路,,121.7716934,31.33662917,,上海市,,上海市,,崇明区,,"{'cost': , 'rating': }"
BV11242390,,仁建路北圆沙路(公交站),交通设施服务;公交车站;公交车站相关,长兴1路;长兴4路,,121.7627561,31.36122513,,上海市,,上海市,,崇明区,,"{'cost': , 'rating': }"
B0J27UGR9C,,全季酒店上海崇明长兴岛店地面停车点,交通设施服务;停车场;公共停车场,长兴镇仁建路299弄2号全季酒店(上海崇明长兴岛店),,121.7627941,31.36143704,,上海市,,上海市,,崇明区,,"{'cost': , 'rating': }"
BV09167353,,仁建路渔傲路(公交站),交通设施服务;公交车站;公交车站相关,长兴1路,,121.7619795,31.35983097,,上海市,,上海市,,崇明区,,"{'cost': , 'rating': }"
BV10498372,,二号桥(公交站),交通设施服务;公交车站;公交车站相关,长兴2路,,121.7673307,31.34339331,,上海市,,上海市,,崇明区,,"{'cost': , 'rating': }"
B0I1SZJ020,,格林豪泰(上海崇明长兴岛店)地面停车点,交通设施服务;停车场;公共停车场,长兴镇潘园公路161号格林豪泰酒店(上海崇明长兴岛店),,121.7688446,31.34468008,,上海市,,上海市,,崇明区,,"{'cost': , 'rating': }"
BV10032494,,畜牧场(公交站),交通设施服务;公交车站;公交车站相关,东滩1路;东滩3路;堡陈专线;崇明东滩2路;崇明东滩2路(团结沙);崇明东滩4路;崇明东滩5路;陈前线;陈前线区间,,121.784026,31.50908131,,上海市,,上海市,,崇明区,,"{'cost': , 'rating': }"
BV10384374,,畜牧场(招呼站)(公交站),交通设施服务;公交车站;公交车站相关,南裕专线;南裕专线(陈家镇枢纽站),,121.784026,31.50908131,,上海市,,上海市,,崇明区,,"{'cost': , 'rating': }"
BV11634335,,南圆沙路圆芳路(公交站),交通设施服务;公交车站;公交车站相关,长兴4路,,121.7639777,31.3568118,,上海市,,上海市,,崇明区,,"{'cost': , 'rating': }"
BV10574390,,潘圆公路圆芳路(公交站),交通设施服务;公交车站;公交车站相关,长兴4路,,121.763471,31.35439467,,上海市,,上海市,,崇明区,,"{'cost': , 'rating': }"
BV09167349,,仁建路潘圆公路(公交站),交通设施服务;公交车站;公交车站相关,长兴1路,,121.7607191,31.35734298,,上海市,,上海市,,崇明区,,"{'cost': , 'rating': }"
BV10555265,,新出港路(公交站),交通设施服务;公交车站;公交车站相关,堡陈北线;崇明东滩4路,,121.8237082,31.54747155,,上海市,,上海市,,崇明区,,"{'cost': , 'rating': }"
BV10574392,,潘圆公路圆润路(公交站),交通设施服务;公交车站;公交车站相关,长兴4路,,121.7595497,31.35732558,,上海市,,上海市,,崇明区,,"{'cost': , 'rating': }"
BV11221369,,江南大道潘圆公路(公交站),交通设施服务;公交车站;公交车站相关,长兴2路,,121.7669913,31.34004108,,上海市,,上海市,,崇明区,,"{'cost': , 'rating': }"
B0FFIBYK8H,,停车场(农建路),交通设施服务;停车场;公共停车场,纬二路与经二路交叉口东南100米,,121.7698777,31.33808362,,上海市,,上海市,,崇明区,,"{'cost': , 'rating': }"
BV10829116,,丁丰村十队(招呼站)(公交站),交通设施服务;公交车站;公交车站相关,长兴2路,,121.76328,31.34549647,,上海市,,上海市,,崇明区,,"{'cost': , 'rating': }"
BV10498353,,中船四号门(公交站),交通设施服务;公交车站;公交车站相关,长兴1路;长兴2路,,121.750724,31.35665954,,上海市,,上海市,,崇明区,,"{'cost': , 'rating': }"
B0FFHJ33MU,,停车场(花漂南路),交通设施服务;停车场;路边停车场,花漂南1路与锦陈公路交叉口东40米,,121.7815588,31.5138974,,上海市,,上海市,,崇明区,,"{'cost': , 'rating': }"
BV10498366,,江南大道仁建路(公交站),交通设施服务;公交车站;公交车站相关,长兴2路,,121.7572816,31.3497622,,上海市,,上海市,,崇明区,,"{'cost': , 'rating': }"
B0I0KAY07D,,雅趣谷户外星空营地地面停车场,交通设施服务;停车场;公共停车场,X891(潘圆公路)雅趣谷户外星空营地,,121.7531039,31.36534829,,上海市,,上海市,,崇明区,,"{'cost': , 'rating': }"
B0I0KAXSPA,,雅趣谷户外星空营地地面停车场(出入口),交通设施服务;停车场;停车场出入口,雅趣谷户外星空营地地面停车场,,121.7531039,31.36534829,,上海市,,上海市,,崇明区,,"{'cost': , 'rating': }"
BV11496951,,锦陈路陈海公路(公交站),交通设施服务;公交车站;公交车站相关,崇明东滩4路,,121.7822912,31.51604971,,上海市,,上海市,,崇明区,,"{'cost': , 'rating': }"
BV11250510,,八滧形(公交站),交通设施服务;公交车站;公交车站相关,堡陈专线,,121.7760713,31.51333422,,上海市,,上海市,,崇明区,,"{'cost': , 'rating': }"
BV11331298,,八效形(招呼站)(公交站),交通设施服务;公交车站;公交车站相关,南裕专线,,121.776271,31.51322271,,上海市,,上海市,,崇明区,,"{'cost': , 'rating': }"
BV11431288,,八滧形(招呼站)(公交站),交通设施服务;公交车站;公交车站相关,南裕专线;南裕专线(陈家镇枢纽站),,121.7763844,31.51315798,,上海市,,上海市,,崇明区,,"{'cost': , 'rating': }"
B0FFGOY5CG,,瀛裕瞑园停车场,交通设施服务;停车场;公共停车场,陈家镇晨光村六队瀛裕瞑园,,121.7906289,31.52759137,,上海市,,上海市,,崇明区,,"{'cost': , 'rating': }"
BV11427432,,锦陈路先晨路(公交站),交通设施服务;公交车站;公交车站相关,崇明东滩4路,,121.7896617,31.52819331,,上海市,,上海市,,崇明区,,"{'cost': , 'rating': }"
B0IRF77T0G,,老滋味农家乐(崇明店)地面停车场,交通设施服务;停车场;公共停车场,八滧公路与陈彷公路交叉口西南220米,,121.7753362,31.51130514,,上海市,,上海市,,崇明区,,"{'cost': , 'rating': }"
B0IRF79Q84,,老滋味农家乐(崇明店)地面停车场(出入口),交通设施服务;停车场;停车场出入口,八滧公路与陈彷公路交叉口西南220米,,121.7753362,31.51130514,,上海市,,上海市,,崇明区,,"{'cost': , 'rating': }"
B0I177VAX1,,上海润稼国际农产品交易中心地面停车场,交通设施服务;停车场;公共停车场,,,121.7545029,31.36027165,,上海市,,上海市,,崇明区,,"{'cost': , 'rating': }"
BV10574391,,潘圆公路兴能路(公交站),交通设施服务;公交车站;公交车站相关,长兴4路,,121.7494933,31.36952357,,上海市,,上海市,,崇明区,,"{'cost': , 'rating': }"
BV10555259,,裕西村(公交站),交通设施服务;公交车站;公交车站相关,堡陈北线;崇明东滩4路,,121.8162643,31.55195683,,上海市,,上海市,,崇明区,,"{'cost': , 'rating': }"
BV10574394,,潘圆公路兴鹊路(公交站),交通设施服务;公交车站;公交车站相关,长兴4路,,121.7453902,31.37516189,,上海市,,上海市,,崇明区,,"{'cost': , 'rating': }"
BV10026057,,晨光村(公交站),交通设施服务;公交车站;公交车站相关,堡陈中线,,121.7915543,31.5309604,,上海市,,上海市,,崇明区,,"{'cost': , 'rating': }"
B0IG1ZCUOG,,妈妈的小作坊(陈家镇店)地面停车场,交通设施服务;停车场;公共停车场,草港公路与红星东路交叉口东南340米,,121.7885462,31.53282491,,上海市,,上海市,,崇明区,,"{'cost': , 'rating': }"
BV11090593,,锦陈路永东路(公交站),交通设施服务;公交车站;公交车站相关,崇明东滩4路,,121.7999142,31.54200004,,上海市,,上海市,,崇明区,,"{'cost': , 'rating': }"
BV10498358,,中船二号门(公交站),交通设施服务;公交车站;公交车站相关,长兴1路;长兴2路,,121.7404372,31.36410526,,上海市,,上海市,,崇明区,,"{'cost': , 'rating': }"
BV10574396,,潘圆公路兴奔路(公交站),交通设施服务;公交车站;公交车站相关,长兴4路,,121.7389767,31.38122095,,上海市,,上海市,,崇明区,,"{'cost': , 'rating': }"
BV11090602,,锦陈路北沿公路(公交站),交通设施服务;公交车站;公交车站相关,崇明东滩4路,,121.8104624,31.55511981,,上海市,,上海市,,崇明区,,"{'cost': , 'rating': }"
BV10555261,,养老公寓(招呼站)(公交站),交通设施服务;公交车站;公交车站相关,堡陈北线,,121.8104624,31.55511981,,上海市,,上海市,,崇明区,,"{'cost': , 'rating': }"
B0K6TAOXB8,,上海月伴湾农家乐地面停车点,交通设施服务;停车场;公共停车场,,,121.7371059,31.396072,,上海市,,上海市,,崇明区,,"{'cost': , 'rating': }"
BV10574398,,潘圆公路兴甘路(公交站),交通设施服务;公交车站;公交车站相关,长兴4路,,121.735505,31.38357925,,上海市,,上海市,,崇明区,,"{'cost': , 'rating': }"
BV10498364,,中船一号门(公交站),交通设施服务;公交车站;公交车站相关,长兴1路;长兴2路,,121.7349047,31.36811225,,上海市,,上海市,,崇明区,,"{'cost': , 'rating': }"
BV10498370,,中船西部生活区(公交站),交通设施服务;公交车站;公交车站相关,长兴1路;长兴2路,,121.7342969,31.36974679,310000,上海市,21,上海市,310151,崇明区,,
BV10498354,,中船零号门(招呼站)(公交站),交通设施服务;公交车站;公交车站相关,长兴1路;长兴2路,,121.7263859,31.37412687,,上海市,,上海市,,崇明区,,"{'cost': , 'rating': }"
B0H6JZBN6L,,长兴海洋商业广场M1综合商场停车场,交通设施服务;停车场;公共停车场,兴甘路与长兴江南大道交叉口东北160米,,121.7262827,31.37610877,,上海市,,上海市,,崇明区,,"{'cost': , 'rating': }"
BV10555262,,北八滧(公交站),交通设施服务;公交车站;公交车站相关,堡陈北线,,121.8035746,31.55973935,,上海市,,上海市,,崇明区,,"{'cost': , 'rating': }"
BV10026058,,永南村(公交站),交通设施服务;公交车站;公交车站相关,堡陈中线,,121.7803402,31.5375624,,上海市,,上海市,,崇明区,,"{'cost': , 'rating': }"
BV11250509,,红星小学(公交站),交通设施服务;公交车站;公交车站相关,堡陈专线,,121.7640903,31.51988679,,上海市,,上海市,,崇明区,,"{'cost': , 'rating': }"
BV11274219,,红星小学(招呼站)(公交站),交通设施服务;公交车站;公交车站相关,南裕专线;南裕专线(陈家镇枢纽站),,121.7640903,31.51988679,,上海市,,上海市,,崇明区,,"{'cost': , 'rating': }"
BV10583172,,滧中九队(公交站),交通设施服务;公交车站;公交车站相关,(停运)崇明乡村1路,,121.7490411,31.49690619,,上海市,,上海市,,崇明区,,"{'cost': , 'rating': }"
BV10583171,,红旗七队(公交站),交通设施服务;公交车站;公交车站相关,(停运)崇明乡村1路,,121.753475,31.50272986,,上海市,,上海市,,崇明区,,"{'cost': , 'rating': }"
B0H6J7EFL3,,长兴岛郊野公园1号停车场,交通设施服务;停车场;公共停车场,桔园路与长卫西路交叉口西北440米,,121.7059207,31.40075578,,上海市,,上海市,,崇明区,,"{'cost': , 'rating': }"
BV10498371,,长明村(公交站),交通设施服务;公交车站;公交车站相关,长兴2路;长兴4路,,121.7240356,31.38873924,,上海市,,上海市,,崇明区,,"{'cost': , 'rating': }"
B0H0TMO7N8,,桔园农庄旗舰店停车场,交通设施服务;停车场;公共停车场,,,121.7250708,31.39919571,,上海市,,上海市,,崇明区,,"{'cost': , 'rating': }"
B0FFK7SKVO,,长兴岛郊野公园1号停车场(出入口),交通设施服务;停车场;停车场出入口,秋柑路199号长兴岛郊野公园内(东南角),,121.7108182,31.39837626,310000,上海市,21,上海市,310151,崇明区,,
B0H6J7FA9M,,长兴岛郊野公园2号门停车场,交通设施服务;停车场;公共停车场,凤蓉路与光荣四路交叉口东260米,,121.6939876,31.40985562,310000,上海市,21,上海市,310151,崇明区,,
B0HKMU9RNK,,前小桔创意农场停车场,交通设施服务;停车场;公共停车场,凤凰公路1593号前小桔创意农场,,121.6932499,31.40901207,310000,上海市,21,上海市,310151,崇明区,,
B001546028,,新河轮站,交通设施服务;港口码头;客运港,新河镇新申公路1号,021-59689704,121.5054333,31.57253264,310000,上海市,21,上海市,310151,崇明区,,
BV11521759,,新河(轮渡站),交通设施服务;轮渡站;轮渡站,(停运)吴淞-新河线;新河-石洞口,,121.5052687,31.57246016,310000,上海市,21,上海市,310151,崇明区,,
BV10323372,,新河汽车站(公交站),交通设施服务;公交车站;公交车站相关,崇明乡村10路,,121.5065341,31.57425078,310000,上海市,21,上海市,310151,崇明区,,
BV11642001,,新河码头港区(公交站),交通设施服务;公交车站;公交车站相关,1721路,,121.5057143,31.57309743,310000,上海市,21,上海市,310151,崇明区,,
B001507A78,,南门港,交通设施服务;港口码头;客运港,南门支路25号(崇明南门路崇明西门路),,121.3890773,31.61913633,310000,上海市,21,上海市,310151,崇明区,城桥,
B00156Y101,,南门汽车站,交通设施服务;长途汽车站;长途汽车站,八一路11号,,121.389912,31.61895504,310000,上海市,21,上海市,310151,崇明区,城桥,
BV11066095,,南门码头(轮渡站),交通设施服务;轮渡站;轮渡站,南宝线高速客渡;南石线车客渡,,121.3885187,31.61779256,310000,上海市,21,上海市,310151,崇明区,,
B00155N77O,,南门港车渡,交通设施服务;港口码头;车渡口,崇明西门路与西门路交叉口南50米,021-69692825,121.3869574,31.61888221,310000,上海市,21,上海市,310151,崇明区,,
BV10323224,,南门汽车站(公交站),交通设施服务;公交车站;公交车站相关,南东专线;南同专线;南同专线区间;南堡二线;南建专线;南新专线;南江专线;南海二线;南海线;南牛线;南牛线区间;南红专线;南裕专线;南裕专线(陈家镇枢纽站);南跃线;南隆专线;南隆专线区间;南风线;南风线区间;城桥1路;城桥2路;长南线定班,,121.389861,31.61907305,310000,上海市,21,上海市,310151,崇明区,城桥,
B0H3DRTOWT,,南门汽车站(进站口),交通设施服务;长途汽车站;进站,八一路11号,,121.3901459,31.61908396,310000,上海市,21,上海市,310151,崇明区,城桥,
B0H1V5QRXG,,南门港(出港),交通设施服务;港口码头;出港,南门支路25号(崇明南门路崇明西门路),,121.3886655,31.61922048,310000,上海市,21,上海市,310151,崇明区,城桥,
B0FFM8SBI4,,八一路-道路停车位,交通设施服务;停车场;路边停车场,八一路2号附近(八一路西侧机动车道),,121.3905878,31.61906582,310000,上海市,21,上海市,310151,崇明区,城桥,
B0H1VZQL3P,,南门港停车场,交通设施服务;停车场;公共停车场,南门支路25号(崇明南门路崇明西门路),,121.3882147,31.61924266,310000,上海市,21,上海市,310151,崇明区,城桥,
B0G24ADPD6,,长兴岛汽车站,交通设施服务;长途汽车站;长途汽车站,长兴镇金岸路1688号,,121.6942665,31.3820391,310000,上海市,21,上海市,310151,崇明区,,
BV10436788,,长兴岛汽车站(公交站),交通设施服务;公交车站;公交车站相关,1731路(高峰线);横长线;申崇五线;申崇四线;长兴1路;长兴2路;长兴3路;长兴4路;长南线定班;陈凤线,,121.6941497,31.38172639,310000,上海市,21,上海市,310151,崇明区,,
BV10829171,,长兴岛公交枢纽站(公交站),交通设施服务;公交车站;公交车站相关,申崇五线,,121.693943,31.38207462,310000,上海市,21,上海市,310151,崇明区,,
B00156E64D,,堡镇港,交通设施服务;港口码头;客运港,堡镇南路1号,,121.6048636,31.52466851,310000,上海市,21,上海市,310151,崇明区,,
BV11066076,,堡镇码头(轮渡站),交通设施服务;轮渡站;轮渡站,堡宝线高速客渡,,121.6033202,31.52359735,310000,上海市,21,上海市,310151,崇明区,,
B0FFGRKAMG,,堡镇港停车场,交通设施服务;停车场;公共停车场,堡镇南路,,121.6044977,31.52510263,310000,上海市,21,上海市,310151,崇明区,,
BV10026087,,堡镇汽车站(公交站),交通设施服务;公交车站;公交车站相关,1712路;1713路;南堡专线;南堡二线;南堡支线;堡七线;堡四线;堡红线;堡胜专线;堡进线;堡陈专线;堡陈中线;堡陈北线;崇明乡村9路;申崇三线区间;申崇六线B线,,121.6058522,31.52533693,310000,上海市,21,上海市,310151,崇明区,,
B0FFG95XMW,,长兴岛客运站,交通设施服务;港口码头;客运港,凤凰公路,021-56854170;021-56858102,121.6841739,31.38192464,310000,上海市,21,上海市,310151,崇明区,,
B0GKV73KJI,,上海崇明万达广场停车场,交通设施服务;停车场;公共停车场,翠竹路与鼓浪屿路交叉口东120米,,121.4126749,31.62927567,310000,上海市,21,上海市,310151,崇明区,城桥,
B0GKV7520L,,上海崇明万达广场停车场(出入口),交通设施服务;停车场;停车场出入口,万达广场停车场,,121.4129861,31.62939588,310000,上海市,21,上海市,310151,崇明区,城桥,
BV11019341,,南门水陆换乘中心(公交站),交通设施服务;公交车站;公交车站相关,南堡专线;南堡支线;城桥4路(西圈);城桥5路;崇明E乘巴士1号线;申崇三线;申崇六线,,121.3877938,31.62018783,310000,上海市,21,上海市,310151,崇明区,城桥,
B0FFFA0G23,,崇明南门长途客运站,交通设施服务;长途汽车站;长途汽车站,西门路8号,,121.3880666,31.6214527,310000,上海市,21,上海市,310151,崇明区,城桥,
B0FFF4EK89,,申崇汽车站,交通设施服务;长途汽车站;长途汽车站,城桥镇南门支路45号,,121.387588,31.61980992,310000,上海市,21,上海市,310151,崇明区,城桥,
B0FFL82JFD,,车渡口,交通设施服务;港口码头;车渡口,崇明南门路,,121.3870062,31.62040917,310000,上海市,21,上海市,310151,崇明区,城桥,
B0FFF3XGHO,,崇明区南门水陆换乘中心,交通设施服务;交通服务相关;交通服务相关,南门支路45号,021-69698156,121.3878868,31.61990879,310000,上海市,21,上海市,310151,崇明区,城桥,
B0G0PPBVCB,,南石线车客渡,交通设施服务;港口码头;港口码头,南门支路35号,,121.3887215,31.61939846,310000,上海市,21,上海市,310151,崇明区,城桥,
B0H2UHPFG6,,崇明南门长途客运站停车场,交通设施服务;停车场;公共停车场,西门路8号,,121.3876688,31.62127387,310000,上海市,21,上海市,310151,崇明区,城桥,
BV10523395,,南门汽车站(南门水陆换乘中心)(公交站),交通设施服务;公交车站;公交车站相关,长南线定班,,121.3879268,31.62017277,310000,上海市,21,上海市,310151,崇明区,城桥,
BV10566169,,西门汽车站(公交站),交通设施服务;公交车站;公交车站相关,南风线;城桥3路;城桥4路(东圈);城桥5路,,121.3880038,31.61998474,310000,上海市,21,上海市,310151,崇明区,城桥,
B0FFGCXE4L,,新崇南路-道路停车位,交通设施服务;停车场;路边停车场,新崇南路与八一路交叉口西80米,,121.3902166,31.62212191,310000,上海市,21,上海市,310151,崇明区,城桥,
BV11694360,,油车湾(下客站)(公交站),交通设施服务;公交车站;公交车站相关,申崇六线,,121.399805,31.63822983,310000,上海市,21,上海市,310151,崇明区,城桥,
BV10536149,,油车湾(招呼站)(公交站),交通设施服务;公交车站;公交车站相关,南新专线;南海二线;南海线;南牛线;南牛线区间;南红专线;南隆专线;南隆专线区间,,121.399797,31.63824683,310000,上海市,21,上海市,310151,崇明区,城桥,
BV10027233,,侯家镇(公交站),交通设施服务;公交车站;公交车站相关,南同专线;南同专线区间;南堡专线;南裕专线;南裕专线(陈家镇枢纽站),,121.4553313,31.6180326,310000,上海市,21,上海市,310151,崇明区,,
B00150B5A5,,马家港码头,交通设施服务;港口码头;港口码头,凤凰公路,,121.686366,31.38122192,310000,上海市,21,上海市,310151,崇明区,,
BV10799672,,长兴岛客运站(轮渡站),交通设施服务;轮渡站;轮渡站,吴淞-马家港,,121.683036,31.3813129,310000,上海市,21,上海市,310151,崇明区,,
B0FFG7J36B,,上海彪威实业有限公司长兴岛码头,交通设施服务;港口码头;港口码头,凤凰公路与长兴南环路交叉口南240米,,121.6848587,31.38088672,310000,上海市,21,上海市,310151,崇明区,,
B0FFKZGUWW,,长兴岛郊野公园4号停车场,交通设施服务;停车场;专用停车场,长兴岛秋柑路199号长兴岛郊野公园内(南侧),,121.7062657,31.3983032,310000,上海市,21,上海市,310151,崇明区,,
B0FFLGWQ3C,,长兴岛郊野公园4号停车场(出入口),交通设施服务;停车场;停车场出入口,长兴岛郊野公园4号停车场,,121.7066222,31.39807278,310000,上海市,21,上海市,310151,崇明区,,
BV11494926,,长兴岛(地铁站),交通设施服务;地铁站;地铁站,(在建)崇明线一期;(在建)崇明线二期,,121.7168457,31.3912404,310000,上海市,21,上海市,310151,崇明区,,
BV10386944,,堡镇医院(公交站),交通设施服务;公交车站;公交车站相关,1711路;1712路;1713路;堡七线,,121.6195952,31.53108232,310000,上海市,21,上海市,310151,崇明区,,
B0H31HX6EB,,同济大学附属第十人民医院崇明分院停车场,交通设施服务;停车场;公共停车场,向阳路与长岛南路交叉口东80米,,121.6196031,31.53130229,310000,上海市,21,上海市,310151,崇明区,,
BV10026090,,向化镇(公交站),交通设施服务;公交车站;公交车站相关,南裕专线;南裕专线(陈家镇枢纽站);堡七线;堡红线;堡陈专线,,121.719721,31.522499,310000,上海市,21,上海市,310151,崇明区,,
BV10026281,,桥镇(公交站),交通设施服务;公交车站;公交车站相关,南东专线;南堡专线;南堡二线;南堡支线;南新专线;南江专线;南海二线;南海线;南牛线;南牛线区间;南红专线;南跃线;南隆专线;南隆专线区间,,121.4005944,31.63554189,310000,上海市,21,上海市,310151,崇明区,城桥,
BV10498365,,凤凰镇(公交站),交通设施服务;公交车站;公交车站相关,长兴2路;长兴3路;长兴4路,,121.6877998,31.3888431,310000,上海市,21,上海市,310151,崇明区,长兴镇/长兴岛,
BV10027248,,竖新镇(公交站),交通设施服务;公交车站;公交车站相关,南堡专线;南裕专线;南裕专线(陈家镇枢纽站);崇明乡村3路,,121.5771467,31.56586438,310000,上海市,21,上海市,310151,崇明区,,
BV10026080,,北堡镇(公交站),交通设施服务;公交车站;公交车站相关,南堡支线;南裕专线;南裕专线(陈家镇枢纽站);堡红线;堡进线;堡陈专线;堡陈中线;堡陈北线,,121.6300416,31.55887687,310000,上海市,21,上海市,310151,崇明区,,
BV10537012,,金珠花苑(公交站),交通设施服务;公交车站;公交车站相关,南堡支线,,121.4087054,31.64840559,310000,上海市,21,上海市,310151,崇明区,城桥,
BV10323170,,中兴镇(公交站),交通设施服务;公交车站;公交车站相关,(停运)崇明乡村1路;南裕专线;南裕专线(陈家镇枢纽站);堡七线;堡陈专线,,121.7456026,31.52231318,310000,上海市,21,上海市,310151,崇明区,,
B0H2K58I0Q,,上海交通大学医学院附属新华医院停车场,交通设施服务;停车场;公共停车场,南门路25号上海健康医学院附属崇明医院,,121.3944308,31.61926195,310000,上海市,21,上海市,310151,崇明区,城桥,
B0FFK9Q6HI,,新华医院崇明分院停车库,交通设施服务;交通服务相关;交通服务相关,崇明南门路与朝阳门路交叉口南140米,,121.3946908,31.61906292,310000,上海市,21,上海市,310151,崇明区,城桥,
BV11554506,,南堡镇(下客站)(公交站),交通设施服务;公交车站;公交车站相关,申崇三线区间;申崇六线B线,,121.6204182,31.54412003,310000,上海市,21,上海市,310151,崇明区,,
BV10026083,,南堡镇(公交站),交通设施服务;公交车站;公交车站相关,1711路;1712路,,121.6182633,31.54397028,310000,上海市,21,上海市,310151,崇明区,,
BV10386914,,博园新村(公交站),交通设施服务;公交车站;公交车站相关,1711路;1712路;南堡专线;南堡二线;南堡支线;堡胜专线,,121.6219187,31.54341446,310000,上海市,21,上海市,310151,崇明区,,
BV10034059,,合兴镇(公交站),交通设施服务;公交车站;公交车站相关,堡四线,,121.7069108,31.58592522,310000,上海市,21,上海市,310151,崇明区,,
BV11612785,,长兴医院(公交站),交通设施服务;公交车站;公交车站相关,横长线;长兴1路;长兴4路,,121.7016931,31.39473772,310000,上海市,21,上海市,310151,崇明区,,
BV11624201,,丰福路潘圆公路(公交站),交通设施服务;公交车站;公交车站相关,申崇四线,,121.7016991,31.3947747,310000,上海市,21,上海市,310151,崇明区,,
BV11576557,,长兴人民医院站(临时站)(公交站),交通设施服务;公交车站;公交车站相关,横长线;申崇五线;长兴1路,,121.7016931,31.39473772,310000,上海市,21,上海市,310151,崇明区,,
B0FFFDHCVS,,东平国家森林公园P8停车场,交通设施服务;停车场;公共停车场,东平林场东平国家森林公园内(西侧),,121.4664932,31.68508941,310000,上海市,21,上海市,310151,崇明区,,
B0FFF4F6W5,,潘石码头,交通设施服务;港口码头;货运港口码头,粮站路附近,,121.6328039,31.41311926,310000,上海市,21,上海市,310151,崇明区,,
BV10027228,,丁家桥(公交站),交通设施服务;公交车站;公交车站相关,南东专线;南堡专线;南堡支线;南江专线;南裕专线;南裕专线(陈家镇枢纽站);南跃线;城桥5路,,121.4063959,31.63983243,310000,上海市,21,上海市,310151,崇明区,城桥,
BV10518117,,育林中学(招呼站)(公交站),交通设施服务;公交车站;公交车站相关,南东专线;南堡专线;南堡二线;南堡支线;南江专线;南跃线,,121.4030218,31.63761335,310000,上海市,21,上海市,310151,崇明区,城桥,
BV10383864,,五滧镇(公交站),交通设施服务;公交车站;公交车站相关,堡四线,,121.670821,31.53724462,310000,上海市,21,上海市,310151,崇明区,,
B0FFG08T4C,,停车场(天鹤大酒店东北),交通设施服务;停车场;公共停车场,城桥镇南门路178号,,121.3916082,31.62124451,310000,上海市,21,上海市,310151,崇明区,城桥,
B00155JSJE,,上海市崇明区城桥镇富民街新崇地面停车场,交通设施服务;停车场;公共停车场,富民街5号,,121.392219,31.62160235,310000,上海市,21,上海市,310151,崇明区,城桥,
B0FFGTI5TP,,上海天鹤大酒店停车场(出入口),交通设施服务;停车场;停车场出入口,城桥镇南门路178号停车场(天鹤大酒店东北),,121.3915073,31.62133053,310000,上海市,21,上海市,310151,崇明区,城桥,
BV10384380,,中心医院(招呼站)(公交站),交通设施服务;公交车站;公交车站相关,南东专线;南同专线;南同专线区间;南堡专线;南堡二线;南堡支线;南建专线;南新专线;南江专线;南海二线;南海线;南红专线;南裕专线;南裕专线(陈家镇枢纽站);南跃线;南隆专线;南隆专线区间;南风线;南风线区间;城桥4路(东圈);城桥5路,,121.3940807,31.62049399,310000,上海市,21,上海市,310151,崇明区,城桥,
B0H69DJ1E1,,8壹广场东停车场,交通设施服务;停车场;公共停车场,8壹广场,,121.3923549,31.62273431,310000,上海市,21,上海市,310151,崇明区,城桥,
B001503DB5,,上海崇明国际货运码头,交通设施服务;港口码头;港口码头,新河镇富临路上海崇明国际货运码头,,121.5008174,31.5760837,310000,上海市,21,上海市,310151,崇明区,,
B0FFMCVVN8,,航环码头,交通设施服务;港口码头;港口码头,江万公路与联益东路交叉口西南120米,,121.3387903,31.65051617,310000,上海市,21,上海市,310151,崇明区,,
BV10036479,,猛将庙(公交站),交通设施服务;公交车站;公交车站相关,南海二线;南海线;南红专线,,121.3605919,31.74306022,310000,上海市,21,上海市,310151,崇明区,,
B0IRZ51P10,,万达广场(崇明店)地下停车场,交通设施服务;停车场;公共停车场,崇州路与崇明大道交叉口北140米,,121.4148129,31.6270932,310000,上海市,21,上海市,310151,崇明区,城桥,
BV10036419,,静南小区(公交站),交通设施服务;公交车站;公交车站相关,南堡支线;南江专线,,121.4156725,31.6522782,310000,上海市,21,上海市,310151,崇明区,,
B0FFG14ZQT,,瀛洲公园停车点,交通设施服务;停车场;公共停车场,鳌山路679号瀛洲公园内(北侧),,121.3966485,31.62001073,310000,上海市,21,上海市,310151,崇明区,城桥,
B0FFG7H23S,,崇明学宫停车场,交通设施服务;停车场;公共停车场,鳌山路696崇明学宫(西南角),,121.3966955,31.62039173,310000,上海市,21,上海市,310151,崇明区,城桥,
BV10498359,,大华小区(公交站),交通设施服务;公交车站;公交车站相关,1731路(高峰线);长兴2路;长兴3路,,121.6972576,31.39572324,310000,上海市,21,上海市,310151,崇明区,长兴镇/长兴岛,
BV10498367,,凤晨小区(公交站),交通设施服务;公交车站;公交车站相关,长兴2路;长兴3路,,121.6922465,31.39788483,310000,上海市,21,上海市,310151,崇明区,长兴镇/长兴岛,
B0FFG83VFR,,上海市崇明区行政服务中心停车场,交通设施服务;停车场;公共停车场,城桥镇翠竹路1501号上海市崇明区行政服务中心,,121.4225227,31.62675743,310000,上海市,21,上海市,310151,崇明区,,
BV10027234,,朱家沟头(公交站),交通设施服务;公交车站;公交车站相关,南同专线;南同专线区间;南堡专线,,121.4709291,31.61058679,310000,上海市,21,上海市,310151,崇明区,,
B0HKP596D8,,长兴公共货运码头,交通设施服务;港口码头;港口码头,南河北路与通闸路交叉路口往西南约280米,,121.6242017,31.41764048,310000,上海市,21,上海市,310151,崇明区,,
BV10026078,,二号机耕路(公交站),交通设施服务;公交车站;公交车站相关,南堡支线;堡进线;堡陈中线;堡陈北线,,121.6424161,31.57642168,310000,上海市,21,上海市,310151,崇明区,,
B0FFGB79WC,,上海市崇明区中心医院停车场,交通设施服务;停车场;公共停车场,中津桥路与八一路交叉口西60米,,121.3944055,31.63417093,310000,上海市,21,上海市,310151,崇明区,城桥,
BV10027251,,财贸中学(公交站),交通设施服务;公交车站;公交车站相关,南堡专线;南堡二线;堡胜专线,,121.6012617,31.55811252,310000,上海市,21,上海市,310151,崇明区,,
BV10385551,,竖河镇(公交站),交通设施服务;公交车站;公交车站相关,堡胜专线;崇明乡村3路,,121.5938677,31.59322468,310000,上海市,21,上海市,310151,崇明区,,
BV10385590,,长征农场(公交站),交通设施服务;公交车站;公交车站相关,南隆专线;南隆专线区间,,121.4117614,31.7617744,310000,上海市,21,上海市,310151,崇明区,,
BV10337979,,虹桥(公交站),交通设施服务;公交车站;公交车站相关,南东专线,,121.453207,31.67896603,310000,上海市,21,上海市,310151,崇明区,,
BV10027380,,庙镇(公交站),交通设施服务;公交车站;公交车站相关,南建专线;南新专线;南海线;南红专线;崇明乡村4路;崇明乡村5路,,121.3460504,31.71437299,310000,上海市,21,上海市,310151,崇明区,,
BV10036909,,小竖河(公交站),交通设施服务;公交车站;公交车站相关,南跃线,,121.3965974,31.73398167,310000,上海市,21,上海市,310151,崇明区,,
BV10031737,,北四滧(公交站),交通设施服务;公交车站;公交车站相关,堡四线;堡陈北线,,121.7153555,31.5970034,310000,上海市,21,上海市,310151,崇明区,,
B0H3JS5KTH,,长兴岛湿地公园停车场,交通设施服务;停车场;公共停车场,金岸路与月牙港路交叉口西240米,,121.7018042,31.37999792,310000,上海市,21,上海市,310151,崇明区,,
BV10027227,,东门路北门路(公交站),交通设施服务;公交车站;公交车站相关,南东专线;南堡专线;南堡支线;南新专线;南江专线;南海二线;南牛线;南牛线区间;南红专线;南隆专线区间;城桥1路;城桥4路(东圈);城桥4路(西圈),,121.3995539,31.62832075,310000,上海市,21,上海市,310151,崇明区,城桥,
BV10026287,,东门(公交站),交通设施服务;公交车站;公交车站相关,南东专线;南同专线;南同专线区间;南堡专线;南堡二线;南堡支线;南建专线;南新专线;南江专线;南海二线;南海线;南红专线;南跃线;南隆专线;南隆专线区间;南风线;南风线区间;城桥4路(西圈);城桥5路,,121.3976141,31.62491768,310000,上海市,21,上海市,310151,崇明区,城桥,
BV10036527,,红星农场(公交站),交通设施服务;公交车站;公交车站相关,南红专线;南跃线,,121.3635131,31.78986365,310000,上海市,21,上海市,310151,崇明区,,
BV10385501,,沈家湾(公交站),交通设施服务;公交车站;公交车站相关,南建专线;南新专线;南牛线;南牛线区间;南红专线,,121.3765965,31.67403021,310000,上海市,21,上海市,310151,崇明区,,
B0IBSHQLUR,,前卫双蝶广场地面停车场,交通设施服务;停车场;公共停车场,长橘东路与丰福路交叉口西100米,,121.7007944,31.39538888,310000,上海市,21,上海市,310151,崇明区,长兴镇/长兴岛,
BV10498368,,潘圆公路丰福路(公交站),交通设施服务;公交车站;公交车站相关,长兴2路;长兴3路,,121.7012188,31.39537924,310000,上海市,21,上海市,310151,崇明区,长兴镇/长兴岛,
BV11572898,,江南汽渡口(公交站),交通设施服务;公交车站;公交车站相关,启东339路;海门333路;海门333路(绿地长岛),,121.3919593,31.82168599,310000,上海市,21,上海市,310151,崇明区,,
BV10026084,,小菜场(公交站),交通设施服务;公交车站;公交车站相关,1711路;1712路,,121.6142063,31.5377047,310000,上海市,21,上海市,310151,崇明区,,
B0FFIMTPF7,,长兴岛服务区停车场,交通设施服务;停车场;公共停车场,长兴镇长兴岛服务区,,121.716873,31.39941404,310000,上海市,21,上海市,310151,崇明区,,
BV10027244,,东新镇(公交站),交通设施服务;公交车站;公交车站相关,南堡专线,,121.5466238,31.57708339,310000,上海市,21,上海市,310151,崇明区,,
BV11565996,,凤凰公路凤滨路(公交站),交通设施服务;公交车站;公交车站相关,长兴2路;长兴3路;长兴4路,,121.6886281,31.39225065,310000,上海市,21,上海市,310151,崇明区,长兴镇/长兴岛,
BV10033975,,四滧河(公交站),交通设施服务;公交车站;公交车站相关,南裕专线;南裕专线(陈家镇枢纽站);堡四线;堡红线;堡陈专线,,121.684453,31.55135867,310000,上海市,21,上海市,310151,崇明区,,
BV10027249,,高石桥(公交站),交通设施服务;公交车站;公交车站相关,南堡专线;南堡二线;堡胜专线,,121.5870058,31.56241362,310000,上海市,21,上海市,310151,崇明区,,
BV10029209,,万安镇(公交站),交通设施服务;公交车站;公交车站相关,崇明乡村4路;崇明乡村4路区间,,121.3436485,31.65519858,310000,上海市,21,上海市,310151,崇明区,,
B0FFG69Z2I,,崇明区人民体育场停车场,交通设施服务;停车场;公共停车场,崇明北门路崇明区人民体育场,,121.3951429,31.62846182,310000,上海市,21,上海市,310151,崇明区,城桥,
B0FFGQIQ95,,元宝弄-道路停车位,交通设施服务;停车场;路边停车场,元宝弄与崇明人民路交叉口北40米,,121.3946193,31.62448489,310000,上海市,21,上海市,310151,崇明区,城桥,
BV10027262,,北双小学(公交站),交通设施服务;公交车站;公交车站相关,南海二线;南海线;南隆专线;南隆专线区间;南风线;南风线区间,,121.4098945,31.67826437,310000,上海市,21,上海市,310151,崇明区,,
BV10026085,,体育场(公交站),交通设施服务;公交车站;公交车站相关,1713路;南堡专线;南堡二线;南堡支线;堡七线;堡四线;堡红线;堡胜专线;堡进线;堡陈专线;堡陈中线;堡陈北线,,121.6103013,31.53293227,310000,上海市,21,上海市,310151,崇明区,,
BV10323233,,小高桥(公交站),交通设施服务;公交车站;公交车站相关,南建专线;南新专线;南牛线;南牛线区间;南红专线;崇明乡村4路,,121.3387851,31.69900662,310000,上海市,21,上海市,310151,崇明区,,
B0FFGTHL4W,,崇明新城公园停车场,交通设施服务;停车场;公共停车场,江帆路崇明新城公园(东侧),,121.4214868,31.62179532,310000,上海市,21,上海市,310151,崇明区,,
B0FFIB1BFB,,体育路-道路停车位,交通设施服务;停车场;路边停车场,体育路22-26号附近,,121.3987236,31.6309537,310000,上海市,21,上海市,310151,崇明区,城桥,
BV10384381,,东门路玉环路(招呼站)(公交站),交通设施服务;公交车站;公交车站相关,南东专线;南堡专线;南堡二线;南堡支线;南新专线;南江专线;南海二线;南海线;南牛线;南牛线区间;南红专线;南裕专线;南裕专线(陈家镇枢纽站);南跃线;南隆专线;南隆专线区间,,121.4003197,31.63150383,310000,上海市,21,上海市,310151,崇明区,城桥,
B0HGSU4Z8G,,海上花岛生态度假村停车场,交通设施服务;停车场;公共停车场,纬十路竖新镇前卫村海上花岛,,121.505226,31.71948371,310000,上海市,21,上海市,310151,崇明区,,
B0FFIP4VKW,,上海长兴公路交通事故违法停车场,交通设施服务;停车场;专用停车场,长兴中心校教育集团前卫校区西北门西南70米,,121.7169729,31.38720645,310000,上海市,21,上海市,310151,崇明区,,
BV10027376,,西三江口(公交站),交通设施服务;公交车站;公交车站相关,南建专线;南新专线;南红专线;崇明乡村4路,,121.3557715,31.68290188,310000,上海市,21,上海市,310151,崇明区,,
BV10027301,,黄家弄(公交站),交通设施服务;公交车站;公交车站相关,南东专线,,121.4459697,31.63827191,310000,上海市,21,上海市,310151,崇明区,,
BV10602330,,小洪桥(公交站),交通设施服务;公交车站;公交车站相关,长兴3路,,121.6458311,31.41139487,310000,上海市,21,上海市,310151,崇明区,,
BV10034433,,海岛星城(公交站),交通设施服务;公交车站;公交车站相关,南同专线;南同专线区间;南堡专线;城桥1路;城桥3路,,121.4324125,31.62612049,310000,上海市,21,上海市,310151,崇明区,,
BV10033971,,小洋桥(公交站),交通设施服务;公交车站;公交车站相关,堡红线;堡陈专线,,121.6564332,31.558455,310000,上海市,21,上海市,310151,崇明区,,
BV10036471,,南盘滧(公交站),交通设施服务;公交车站;公交车站相关,南隆专线;南隆专线区间;南风线区间,,121.4116739,31.68773497,310000,上海市,21,上海市,310151,崇明区,,
BV10031744,,黄岸头(公交站),交通设施服务;公交车站;公交车站相关,堡进线;堡陈北线;崇明乡村8路,,121.6621534,31.60331467,310000,上海市,21,上海市,310151,崇明区,,
BV10028529,,竖河职校(公交站),交通设施服务;公交车站;公交车站相关,南堡二线;崇明乡村3路,,121.5811517,31.57529929,310000,上海市,21,上海市,310151,崇明区,,
BV10498357,,长兴消防中队(公交站),交通设施服务;公交车站;公交车站相关,长兴2路;长兴4路,,121.708704,31.39412714,310000,上海市,21,上海市,310151,崇明区,,
BV10385603,,向阳路(招呼站)(公交站),交通设施服务;公交车站;公交车站相关,1713路;南堡专线;南堡二线;南堡支线;堡七线;堡四线;堡红线;堡胜专线;堡进线;堡陈专线;堡陈中线;堡陈北线,,121.6120961,31.53457376,310000,上海市,21,上海市,310151,崇明区,,
BV10323251,,王家桥(公交站),交通设施服务;公交车站;公交车站相关,南建专线;南新专线;崇明乡村4路,,121.348363,31.68870807,310000,上海市,21,上海市,310151,崇明区,,
BV10027264,,中双港(公交站),交通设施服务;公交车站;公交车站相关,南新专线;南海二线;南海线;南红专线;南隆专线;南隆专线区间;南风线;南风线区间,,121.4032937,31.661985,310000,上海市,21,上海市,310151,崇明区,,
BV10029223,,丁棚镇(公交站),交通设施服务;公交车站;公交车站相关,崇明乡村5路,,121.311903,31.69805846,310000,上海市,21,上海市,310151,崇明区,,
BV10031729,,北七滧(公交站),交通设施服务;公交车站;公交车站相关,堡七线;堡陈北线,,121.7821982,31.56837335,310000,上海市,21,上海市,310151,崇明区,,
BV10386860,,东风小学(公交站),交通设施服务;公交车站;公交车站相关,堡陈北线,,121.7281107,31.59383222,310000,上海市,21,上海市,310151,崇明区,,
BV10033978,,蔡家堂(公交站),交通设施服务;公交车站;公交车站相关,堡红线;堡陈专线,,121.6881487,31.54794941,310000,上海市,21,上海市,310151,崇明区,,
