id,行业类型,名称,类型,地址,联系电话,lng,lat,省份代码,省份名称,城市代码,城市名称,区域代码,区域名称,所在商圈,rating
B0HAO5J4W0,,水影星光小院,体育休闲服务;娱乐场所;娱乐场所,三星镇西新村西光626号,13788916668,121.2644049,31.7847427,,上海市,,上海市,,崇明区,,"{'cost': , 'rating': }"
B0HR5DB8BS,,豫轩熙生态园,体育休闲服务;体育休闲服务场所;体育休闲服务场所,三星镇育新村七队,18101611379,121.2402088,31.78726061,,上海市,,上海市,,崇明区,,"{'cost': , 'rating': '3.8'}"
B0JG0ADI4T,,(济檬园)森林生态氧吧,体育休闲服务;休闲场所;休闲场所,三星镇西新村1221号,,121.2420664,31.78182807,,上海市,,上海市,,崇明区,,"{'cost': , 'rating': '3.8'}"
B0FFGIJCG2,,小陈螃蟹垂钓,体育休闲服务;休闲场所;垂钓园,育徳村村委会西北500米,15001884195,121.2527822,31.76952537,,上海市,,上海市,,崇明区,,"{'cost': '43.00', 'rating': '4.0'}"
B0GKK4V24M,,ZH农家生态园,体育休闲服务;休闲场所;采摘园,三星镇育德北路1115号,15112081115,121.2634521,31.76967018,,上海市,,上海市,,崇明区,,"{'cost': , 'rating': '3.8'}"
B0FFFQ4UV9,,汉忠柑橘采摘园,体育休闲服务;休闲场所;采摘园,绿华镇华荣村建城704号,13472763980;13601640987,121.2167651,31.78337165,,上海市,,上海市,,崇明区,,"{'cost': '136.00', 'rating': '3.9'}"
B0FFGNLC9Z,,荣美田园,体育休闲服务;休闲场所;休闲场所,绿华镇华荣村建城207号,021-59351988;18616855471,121.2169748,31.77865216,,上海市,,上海市,,崇明区,,"{'cost': , 'rating': '4.2'}"
B0FFGOF8F4,,崇明新海怡心养老院,体育休闲服务;度假疗养场所;疗养院,新海镇兴阔路189号,,121.2915106,31.82307875,,上海市,,上海市,,崇明区,,"{'cost': , 'rating': }"
B0FFHIVU1A,hotel,春楠农家乐(烈士路分店),住宿服务;住宿服务相关;住宿服务相关|体育休闲服务;休闲场所;休闲场所,烈士路三星镇育德烈士村1201号,"021-59602265;17317350671;+861056320612,89224",121.2541288,31.75506303,,上海市,,上海市,,崇明区,,"{'cost': , 'star': , 'opentime2': , 'rating': '4.3', 'lowest_price': , 'hotel_ordering': '1', 'open_time': }"
B0FFG95ZBF,,天鹅苑垂钓中心,体育休闲服务;休闲场所;垂钓园,三华公路南50米,021-39633666,121.2449626,31.75501056,,上海市,,上海市,,崇明区,,"{'cost': , 'rating': '4.1'}"
B0FFF3OLYQ,hotel,上海星育农家乐茅家小院,住宿服务;住宿服务相关;住宿服务相关|体育休闲服务;休闲场所;休闲场所,三星镇三华公路403号,021-59601183,121.257482,31.75387353,,上海市,,上海市,,崇明区,,"{'cost': , 'star': , 'opentime2': '00:00-24:00', 'rating': '4.3', 'lowest_price': , 'hotel_ordering': '1', 'open_time': '24小时营业'}"
B0FFHW25HI,,朕格农家乐,体育休闲服务;休闲场所;休闲场所,绿华镇华星村城北2队,13817274524;18221370896,121.2303351,31.75981206,,上海市,,上海市,,崇明区,,"{'cost': , 'rating': '3.8'}"
B0FFGRCUWT,,崇明星育屋里人家农家乐,体育休闲服务;休闲场所;休闲场所,区育德烈士村826号,13764419560,121.2513801,31.75457376,,上海市,,上海市,,崇明区,,"{'cost': , 'rating': '3.7'}"
B00156EF3R,hotel,屋里人家3号绿色园饭店,住宿服务;住宿服务相关;住宿服务相关|体育休闲服务;休闲场所;休闲场所,三星镇三华公路411号(近陈海公路),18019096817;18930477798,121.2561559,31.75326804,,上海市,,上海市,,崇明区,,"{'cost': , 'star': , 'opentime2': '07:00-19:00', 'rating': '4.4', 'lowest_price': , 'hotel_ordering': '0', 'open_time': '07:00-19:00'}"
B0FFFFQF0L,hotel,明珠湖天鹅苑度假村,住宿服务;住宿服务相关;住宿服务相关|体育休闲服务;休闲场所;休闲场所,三华公路777号,021-39633666,121.2459386,31.75351836,,上海市,,上海市,,崇明区,,"{'cost': , 'star': , 'opentime2': , 'rating': '4.4', 'lowest_price': , 'hotel_ordering': '1', 'open_time': }"
B00156EFIU,,绿华敬老院,体育休闲服务;度假疗养场所;疗养院,新建公路894号,,121.2147861,31.77009866,,上海市,,上海市,,崇明区,,"{'cost': , 'rating': }"
B0FFIA2NKI,,蓓佳农家乐,体育休闲服务;体育休闲服务场所;体育休闲服务场所,绿华镇华星村719号,"15316878065;18916311800;+862126137886,82086",121.2217179,31.76041506,,上海市,,上海市,,崇明区,,"{'cost': , 'rating': '4.2'}"
B0FFKDVQWG,,水上娱乐游艺船,体育休闲服务;体育休闲服务场所;体育休闲服务场所,三华公路333号明珠湖公园内,021-59603888,121.2552957,31.74933589,,上海市,,上海市,,崇明区,,"{'cost': , 'rating': '3.7'}"
B00156ZL6V,hotel,桔香园农家乐饭店,住宿服务;住宿服务相关;住宿服务相关|体育休闲服务;休闲场所;休闲场所,绿港生态村建民路713号,021-59353001;13701650803;13816914121,121.2248421,31.75302162,,上海市,,上海市,,崇明区,,"{'cost': , 'star': , 'opentime2': '10:30-16:00', 'rating': '4.6', 'lowest_price': , 'hotel_ordering': '0', 'open_time': '10:30-16:00'}"
B0FFKF0OAO,,敬友农家乐(三星镇店),体育休闲服务;体育休闲服务场所;体育休闲服务场所,海洪港村817号,13818918227,121.2615967,31.74608135,,上海市,,上海市,,崇明区,,"{'cost': '87.00', 'rating': '4.3'}"
B00155FJ30,,三星敬老院,体育休闲服务;度假疗养场所;疗养院,协进村496,021-59601521,121.2861224,31.752991,,上海市,,上海市,,崇明区,,"{'cost': , 'rating': }"
B00156NAY2,hotel,崇明湖西农庄,住宿服务;住宿服务相关;住宿服务相关|体育休闲服务;休闲场所;休闲场所,绿华镇绿港村建民102号,021-59351717;13003191706,121.2343468,31.74871458,,上海市,,上海市,,崇明区,,"{'cost': , 'star': , 'opentime2': , 'rating': '4.2', 'lowest_price': , 'hotel_ordering': '1', 'open_time': }"
B0KB69A5V6,,桔香园采摘基地,体育休闲服务;休闲场所;采摘园,民柒路与绿港北路交叉口北200米,,121.2246511,31.75211736,,上海市,,上海市,,崇明区,,"{'cost': , 'rating': '3.7'}"
B00155ND91,,三毛农家乐,体育休闲服务;休闲场所;休闲场所,三星镇海洪港村原村民委员会办事处,021-59601000;13003215179,121.2711491,31.74511874,,上海市,,上海市,,崇明区,,"{'cost': '76.00', 'rating': '4.7'}"
B0FFIU70EP,,思乡园农庄,体育休闲服务;体育休闲服务场所;体育休闲服务场所,绿华镇绿港北路建民668号,021-59607799;13818527109;13916141201,121.2260862,31.75040019,,上海市,,上海市,,崇明区,,"{'cost': , 'rating': '4.2'}"
B0FFH854H2,hotel,富氧农庄,住宿服务;住宿服务相关;住宿服务相关|体育休闲服务;休闲场所;休闲场所,海洪港村草棚141号,021-59601687;13816338629;18016289018,121.2758958,31.74690308,,上海市,,上海市,,崇明区,,"{'cost': , 'star': , 'opentime2': '00:00-24:00', 'rating': '4.1', 'lowest_price': , 'hotel_ordering': '1', 'open_time': '24小时营业'}"
B0IRCD7IML,,滑索,体育休闲服务;休闲场所;休闲场所,西沙明珠湖景区内(西南角),021-59603888,121.2498895,31.74457785,,上海市,,上海市,,崇明区,,"{'cost': , 'rating': '3.5'}"
B0FFGJQRSZ,,华煜农家乐,体育休闲服务;休闲场所;休闲场所,星虹路223号,021-59609777,121.2746347,31.74492221,,上海市,,上海市,,崇明区,,"{'cost': '103.00', 'rating': '4.5'}"
B0FFKT3CSY,,上海来钿休闲生态园农庄,体育休闲服务;体育休闲服务场所;体育休闲服务场所|餐饮服务;餐饮相关场所;餐饮相关,区崇明区绿华镇绿湖村湖滨616号,13816731038,121.2396975,31.74419568,,上海市,,上海市,,崇明区,,"{'cost': , 'opentime2': , 'rating': '4.2', 'open_time': , 'meal_ordering': '0'}"
B0FFH60LXG,hotel,上海沁香农家旅馆,住宿服务;住宿服务相关;住宿服务相关|体育休闲服务;休闲场所;休闲场所,绿港村建同402号,13506197913;18221270478;18918960978,121.2164167,31.74968571,,上海市,,上海市,,崇明区,,"{'cost': , 'star': , 'opentime2': , 'rating': '2.7', 'lowest_price': , 'hotel_ordering': '1', 'open_time': }"
B0FFIWTABZ,,百友居农庄,体育休闲服务;体育休闲服务场所;体育休闲服务场所,绿华镇绿湖村大新201号,15800547380,121.2461427,31.74028577,,上海市,,上海市,,崇明区,,"{'cost': , 'rating': '3.9'}"
B0GKN78SAO,,瀛西风情农家乐,体育休闲服务;休闲场所;休闲场所,三星镇宏海公路4225弄2号崇明岛自种蔬菜散养鸡鸭鹅休闲娱乐度假住宿K歌棋牌室,13701766384,121.2827678,31.74402045,,上海市,,上海市,,崇明区,,"{'cost': , 'rating': '4.0'}"
B0FFG1P1P0,,鱼标本馆,体育休闲服务;休闲场所;休闲场所|风景名胜;风景名胜相关;旅游景点,三华公路333号明珠湖公园内,021-59603888,121.2489132,31.73941641,,上海市,,上海市,,崇明区,,"{'cost': , 'opentime2': , 'level': , 'rating': '3.6', 'open_time': , 'ticket_ordering': '0'}"
B0JKBCP5UV,,三星镇市民健身驿站,体育休闲服务;运动场馆;健身中心,宏海公路4291号三星镇社区党群服务中心3层,,121.2836342,31.74544848,,上海市,,上海市,,崇明区,,"{'cost': , 'rating': '3.1'}"
B0FFF9VXXX,hotel,上海兴瀛农庄,住宿服务;住宿服务相关;住宿服务相关|体育休闲服务;休闲场所;休闲场所,三星镇海洪港村427号,,121.2742027,31.73976307,,上海市,,上海市,,崇明区,,"{'cost': , 'star': , 'opentime2': '09:00-21:00', 'rating': '3.8', 'lowest_price': , 'hotel_ordering': '0', 'open_time': '09:00-21:00'}"
B0H0BL06VS,,川海奇遇主题亲子乐园,体育休闲服务;休闲场所;游乐场,三华公路333号明珠湖公园内,021-59602009;021-59603888,121.2478667,31.73729731,,上海市,,上海市,,崇明区,,"{'cost': , 'rating': '4.1'}"
B0FFG1MGSL,,智能平衡车,体育休闲服务;运动场馆;运动场所,三华公路333号明珠湖公园,021-59603888,121.2483865,31.73733125,,上海市,,上海市,,崇明区,,"{'cost': , 'rating': '3.4'}"
B0I1JZDJ3C,,绿华镇华西村多功能市民球场(文体广场),体育休闲服务;体育休闲服务场所;体育休闲服务场所,绿华镇华西村建桥1088号(北侧),,121.184649,31.78619279,,上海市,,上海市,,崇明区,,"{'cost': , 'rating': '3.6'}"
B0JA17SLFC,,Y·Camping·优客美露营地,体育休闲服务;体育休闲服务场所;体育休闲服务场所,北沿公路3176号,15021332337,121.3247413,31.81639203,,上海市,,上海市,,崇明区,,"{'cost': , 'rating': '3.8'}"
B0FFH0T7UV,,小六农家乐(崇明西沙湿地店),体育休闲服务;休闲场所;休闲场所,绿华镇绿港村堡镇903号,021-59352644;18017035125,121.2246011,31.73957783,,上海市,,上海市,,崇明区,,"{'cost': '70.00', 'rating': '4.6'}"
B0HDGUPB9N,,光明瑞华果园游客中心,体育休闲服务;休闲场所;采摘园|生活服务;信息咨询中心;服务中心,北沿公路3176号新海农场,021-59658558,121.3269485,31.8135173,,上海市,,上海市,,崇明区,,"{'cost': , 'rating': }"
B0FFHUU0YW,hotel,上海国军农家乐,住宿服务;住宿服务相关;住宿服务相关|体育休闲服务;休闲场所;休闲场所,绿港村堡镇409号,021-59352396;18930089719,121.2207838,31.74008275,,上海市,,上海市,,崇明区,,"{'cost': , 'star': , 'opentime2': '10:00-20:00', 'rating': '4.2', 'lowest_price': , 'hotel_ordering': '1', 'open_time': '10:00-20:00'}"
B00155R3U2,,西来农庄,体育休闲服务;休闲场所;休闲场所,绿华镇绿港村堡镇五队525号,021-59353399,121.220945,31.73951283,,上海市,,上海市,,崇明区,,"{'cost': , 'rating': '4.7'}"
B0KBBAOO30,,漫屿户外运动营地,体育休闲服务;体育休闲服务场所;体育休闲服务场所,新堡路988号,13601694101;19116340931,121.2224984,31.73948915,,上海市,,上海市,,崇明区,,"{'cost': , 'rating': '4.4'}"
B0FFL02SH4,,水上运动基地,体育休闲服务;体育休闲服务场所;体育休闲服务场所,三华公路333号西沙明珠湖景区(西南角),18018556769,121.2474691,31.73333991,,上海市,,上海市,,崇明区,,"{'cost': , 'rating': '3.8'}"
B0FFFEMTO7,hotel,杜娘娘农家乐,住宿服务;住宿服务相关;住宿服务相关|体育休闲服务;休闲场所;休闲场所,绿华镇绿港村堡镇408号,13818165381;13916508907,121.2204896,31.73986446,,上海市,,上海市,,崇明区,,"{'cost': , 'star': , 'opentime2': '00:00-24:00', 'rating': '4.0', 'lowest_price': , 'hotel_ordering': '0', 'open_time': '24小时营业'}"
B0I2DRXG43,,春野秋梦·崇明玉海棠湖畔星空营地,体育休闲服务;休闲场所;露营地,北星公路秦庐向西50米(海棠湖东门),13795275705,121.3169433,31.75856618,,上海市,,上海市,,崇明区,,"{'cost': , 'rating': '4.0'}"
B0FFHKK1EP,,崇明郝来志草莓采摘园,体育休闲服务;休闲场所;采摘园,绿华镇大新村,15800803036;18317129978,121.2429136,31.73391998,,上海市,,上海市,,崇明区,,"{'cost': , 'rating': '3.6'}"
B0FFG6JC9R,,老陆农家乐,体育休闲服务;休闲场所;休闲场所,绿华镇绿港村堡镇404号,13816711089;15900975287,121.2200702,31.73992409,,上海市,,上海市,,崇明区,,"{'cost': , 'rating': '3.9'}"
B0FFG8XPHC,,兴家农家乐,体育休闲服务;休闲场所;休闲场所,新堡路与星湖路交叉口东北40米,15000940852,121.2361547,31.73353851,,上海市,,上海市,,崇明区,,"{'cost': , 'rating': '4.5'}"
B0FFHWGPMT,,一德园,体育休闲服务;休闲场所;采摘园,绿华西路67号,,121.1857694,31.77127358,,上海市,,上海市,,崇明区,,"{'cost': , 'rating': '3.3'}"
B0FFIP7AZP,,崇明怡钦农家乐,体育休闲服务;体育休闲服务场所;体育休闲服务场所,绿华镇绿湖村大新411号,13917665117,121.2369369,31.73346276,,上海市,,上海市,,崇明区,,"{'cost': , 'rating': '4.3'}"
B0FFGB98NX,,忠效农家乐饭店,体育休闲服务;休闲场所;休闲场所|餐饮服务;中餐厅;中餐厅,星湖路503号,15821299266,121.2348523,31.73351204,,上海市,,上海市,,崇明区,,"{'cost': '47.00', 'opentime2': , 'rating': '4.1', 'open_time': , 'meal_ordering': '0'}"
B0H61AP6X5,,网红摇摇桥,体育休闲服务;体育休闲服务场所;体育休闲服务场所,星湖路与湖新中路交叉口东南200米,021-39633585,121.2398986,31.73122827,,上海市,,上海市,,崇明区,,"{'cost': , 'rating': }"
B0J0U58MHH,,崇明科技科技小院,体育休闲服务;体育休闲服务场所;体育休闲服务场所,环湖西路1号,,121.2188242,31.73756767,,上海市,,上海市,,崇明区,,"{'cost': , 'rating': '3.7'}"
B0FFL7ESLR,,以恒水上运动俱乐部,体育休闲服务;休闲场所;水上活动中心,崇西公路与堡湖路交叉口东北20米,18018556769,121.244759,31.72793944,,上海市,,上海市,,崇明区,,"{'cost': , 'rating': '4.0'}"
B0JAAOQO7Z,,上海玉海棠科技园区公益电影放映点,体育休闲服务;影剧院;影剧院相关,新安村,,121.32643,31.7652449,,上海市,,上海市,,崇明区,,"{'cost': , 'opentime2': , 'seat_ordering': '0', 'rating': '1.4', 'open_time': }"
B00156NQFL,,新村敬老院,体育休闲服务;度假疗养场所;疗养院,新浜村新村1476,021-59651541,121.3274936,31.83295069,,上海市,,上海市,,崇明区,,"{'cost': , 'rating': }"
B0I3ZUV074,,海门三厂小雷钓场,体育休闲服务;休闲场所;垂钓园,三厂镇镇西村59组,15366388759,121.2221894,31.86380184,,江苏省,,南通市,,海门区,,"{'cost': , 'rating': '4.2'}"
B0FFF5N9CM,,苇岸坊,体育休闲服务;休闲场所;休闲场所,堡湖路588号西沙明珠湖景区-西沙湿地内(东侧),,121.2431824,31.72451103,,上海市,,上海市,,崇明区,,"{'cost': '19.00', 'rating': '3.7'}"
B0FFK8S9MK,,崇明岛日落点,体育休闲服务;体育休闲服务场所;体育休闲服务场所,绿华西路与上景路交叉口西120米,,121.1658705,31.79437242,,上海市,,上海市,,崇明区,,"{'cost': , 'rating': '4.3'}"
B0FFFE03W9,,梁家生态农庄,体育休闲服务;休闲场所;休闲场所,平安村安南113号,021-59303169,121.3261408,31.75200274,,上海市,,上海市,,崇明区,,"{'cost': , 'rating': '4.0'}"
B0H2H5HX4P,,鹿鸣舍鹿韵农家乐,体育休闲服务;休闲场所;休闲场所,新村乡新中村耀洲路176号,,121.3290681,31.84235542,,上海市,,上海市,,崇明区,,"{'cost': , 'rating': '4.0'}"
B0J2T9QRZ2,,上海市崇明区崇尚笙活农家乐服务部,体育休闲服务;休闲场所;休闲场所,三星镇南桥村徐泉801号,15901618283,121.2949355,31.72647772,,上海市,,上海市,,崇明区,,"{'cost': , 'rating': '3.9'}"
B0H0O704JV,,南通墨川垂钓(海门塘),体育休闲服务;休闲场所;垂钓园,香港路北10米,13773854756,121.173187,31.84595416,,江苏省,,南通市,,海门区,,"{'cost': , 'rating': '4.4'}"
B0FFF9VRZT,,南通市海门自行车训练基地,体育休闲服务;运动场馆;运动场所,广州路688号,,121.1585008,31.82445071,,江苏省,,南通市,,海门区,,"{'cost': , 'rating': '4.4'}"
B0JK211368,,YX俱乐部,体育休闲服务;体育休闲服务场所;体育休闲服务场所,仁恒公园四季西门办公楼一楼,15335086988,121.191756,31.8697559,,江苏省,,南通市,,海门区,,"{'cost': , 'rating': '4.2'}"
B0H0AHUGJP,,海门保利大剧院,体育休闲服务;体育休闲服务场所;体育休闲服务场所,东布州中路88号,,121.1768208,31.86366136,,江苏省,,南通市,,海门区,,"{'cost': , 'rating': '4.8'}"
B0HUBSD0Z8,,龙信玉园养老驿站,体育休闲服务;体育休闲服务场所;体育休闲服务场所,嘉陵江南路与南京中路交叉口,0513-81235111,121.186841,31.86911544,,江苏省,,南通市,,海门区,,"{'cost': , 'rating': '4.1'}"
B0J1Y5N0C1,,海门文化中心影城,体育休闲服务;影剧院;影剧院相关,东布洲中路88号,,121.1766034,31.86353593,,江苏省,,南通市,,海门区,,"{'cost': , 'opentime2': '14:00-23:00', 'seat_ordering': '1', 'rating': '4.3', 'open_time': '14:00-23:00'}"
B0FFI6MHI4,hotel,上海香朵开心农场,住宿服务;住宿服务相关;住宿服务相关|体育休闲服务;休闲场所;休闲场所,小星公路1500号,021-69629715;13301752094,121.3495007,31.74517039,,上海市,,上海市,,崇明区,,"{'cost': , 'star': , 'opentime2': , 'rating': '4.5', 'lowest_price': , 'hotel_ordering': '1', 'open_time': }"
B0J69HU4D1,,發發棋牌娱乐,体育休闲服务;娱乐场所;棋牌室,龙信御园西大门北侧长江南路652号21-305,,121.1830949,31.86797362,,江苏省,,南通市,,海门区,,"{'cost': , 'rating': '3.6'}"
B0JUUSHO7X,,謇公湖全民健身中心(江海大厦店),体育休闲服务;运动场馆;健身中心,广州路999号江海大厦,15796183974,121.1459109,31.81968639,,江苏省,,南通市,,海门区,,"{'cost': , 'rating': '4.4'}"
B0JD47FTB3,,发发国粹馆,体育休闲服务;娱乐场所;棋牌室,长江南路与南京中路交叉口东60米,,121.1831279,31.86800568,,江苏省,,南通市,,海门区,,"{'cost': , 'rating': '3.6'}"
B0JR4XCQ24,,海门市文化中心剧院,体育休闲服务;影剧院;剧场,张謇大道辅路与东布洲中路交叉口东南160米,,121.1766034,31.86355593,,江苏省,,南通市,,海门区,,"{'cost': , 'opentime2': , 'seat_ordering': '0', 'rating': '3.7', 'open_time': }"
B0J6HUEB5T,cinema,海门科技馆特效影院,体育休闲服务;影剧院;电影院,济南路与滨河东路交叉口东北100米,,121.1721114,31.8621653,,江苏省,,南通市,,海门区,,"{'cost': , 'opentime2': , 'seat_ordering': '0', 'rating': '3.9', 'open_time': }"
B0HRSDQVCZ,cinema,5D影院,体育休闲服务;影剧院;电影院,海门科技馆,,121.1719971,31.8622141,,江苏省,,南通市,,海门区,,"{'cost': , 'opentime2': , 'seat_ordering': '0', 'rating': '3.5', 'open_time': }"
B0FFI2N55H,,首开紫郡健身会所,体育休闲服务;运动场馆;健身中心,东江路与广州路交叉口西北120米,,121.1402203,31.81356594,,江苏省,,南通市,,海门区,,"{'cost': , 'rating': '3.7'}"
B0JBPLA6S7,,八零后的回忆农家乐,体育休闲服务;休闲场所;休闲场所,保民南路与保民北路交叉口西260米,,121.3617023,31.76261814,,上海市,,上海市,,崇明区,,"{'cost': , 'rating': '3.4'}"
B00156ZZ2V,,方顺养老院,体育休闲服务;度假疗养场所;疗养院,宏海公路2568号,021-59362428;021-59363237,121.3310484,31.72062791,,上海市,,上海市,,崇明区,,"{'cost': , 'rating': }"
B00156ZZ2V,,方顺养老院,体育休闲服务;度假疗养场所;疗养院,宏海公路2568号,021-59362428;021-59363237,121.3310484,31.72062791,,上海市,,上海市,,崇明区,,"{'cost': , 'rating': }"
B0IGYUI0FL,,子轩家的草莓园,体育休闲服务;休闲场所;采摘园,高店村,,121.1562319,31.85170559,,江苏省,,南通市,,海门区,,"{'cost': , 'rating': '3.4'}"
B0J2DHG1TH,,OG健身,体育休闲服务;运动场馆;健身中心,锦尚名苑商铺30幢213室,15951332838,121.1723951,31.87156372,,江苏省,,南通市,,海门区,,"{'cost': , 'rating': '4.0'}"
B0JD07ZFGO,,云秋卡牌丨桌游,体育休闲服务;体育休闲服务场所;体育休闲服务场所,海门街道锦尚名苑29幢121室,13122179888,121.1716657,31.87109126,,江苏省,,南通市,,海门区,,"{'cost': , 'rating': '4.0'}"
B0J10Z9JZW,,柒星棋牌,体育休闲服务;娱乐场所;棋牌室,春江花园47号楼二层(北钢楼梯),18912892633,121.1625726,31.86401477,,江苏省,,南通市,,海门区,,"{'cost': , 'rating': '4.3'}"
B0IRDSKKDD,,謇公湖星途露营基地,体育休闲服务;体育休闲服务场所;体育休闲服务场所,黄浦江路699号,18262016671,121.1398748,31.83495719,,江苏省,,南通市,,海门区,,"{'cost': , 'rating': '4.7'}"
B0FFMBCZYT,,简瑜伽精品馆,体育休闲服务;运动场馆;健身中心,海门高新区锦尚名苑商业27幢213号,,121.1715585,31.87101004,,江苏省,,南通市,,海门区,,"{'cost': , 'rating': '4.0'}"
B0JAA1L1JA,,庙西村公益电影放映点,体育休闲服务;影剧院;影剧院相关,庙西村,,121.3318615,31.72060237,,上海市,,上海市,,崇明区,,"{'cost': , 'opentime2': , 'seat_ordering': '0', 'rating': '3.0', 'open_time': }"
B0J2DLJ9C0,,益智游戏,体育休闲服务;体育休闲服务场所;体育休闲服务场所,海门日报社北门旁,,121.1719072,31.8710367,,江苏省,,南通市,,海门区,,"{'cost': , 'rating': '3.6'}"
B0H01LQGSJ,,江海都会,体育休闲服务;体育休闲服务场所;体育休闲服务场所,张謇大道辅路与闻海路交叉口西北120米,,121.1724993,31.87204401,,江苏省,,南通市,,海门区,,"{'cost': , 'rating': '3.7'}"
B02010VQCU,,证大十里童话欢乐世界,体育休闲服务;休闲场所;游乐场,大拇指广场对面,18652951737,121.1355469,31.82130006,,江苏省,,南通市,,海门区,,"{'cost': , 'rating': '4.5'}"
B02010UN2M,,盛世皇宫商务会所,体育休闲服务;娱乐场所;娱乐场所,北京中路777号,15162713111,121.1736113,31.8745436,,江苏省,,南通市,,海门区,,"{'cost': , 'rating': '4.4'}"
B0JKU5LW0V,,海门十里童话欢乐世界,体育休闲服务;休闲场所;游乐场,香港路999号大拇指广场对面,13513896585,121.1346105,31.81992443,,江苏省,,南通市,,海门区,,"{'cost': , 'rating': '4.4'}"
B0FFLHUZJB,,海门体育中心,体育休闲服务;运动场馆;综合体育馆,黄浦江路上海路岔路口,17368673320,121.1395776,31.84325526,,江苏省,,南通市,,海门区,,"{'cost': , 'rating': '4.7'}"
B0JKNUIP45,,莉凤草莓园采摘基地,体育休闲服务;休闲场所;采摘园,富江南路路口路西边,15601460029,121.1456189,31.84664982,,江苏省,,南通市,,海门区,,"{'cost': , 'rating': '4.0'}"
B0FFH9ZAIU,,庙镇江合养护院,体育休闲服务;度假疗养场所;疗养院,庙镇合作公路1293号,,121.3602105,31.74255569,,上海市,,上海市,,崇明区,,"{'cost': , 'rating': }"
B00156EFV6,,上海崇明合作敬老院,体育休闲服务;度假疗养场所;疗养院,合作公路1318号,021-59382287,121.3625915,31.74464569,,上海市,,上海市,,崇明区,,"{'cost': , 'rating': }"
B0K625BLV4,,妙趣岛亲子乐园,体育休闲服务;休闲场所;游乐场,黄浦江路699号,,121.140328,31.84213324,,江苏省,,南通市,,海门区,,"{'cost': , 'rating': '4.6'}"
B0FFIHECG5,,东利草莓园,体育休闲服务;体育休闲服务场所;体育休闲服务场所,富江路与三圩南路交叉口东60米,15716297888,121.1460735,31.84975619,,江苏省,,南通市,,海门区,,"{'cost': , 'rating': '3.9'}"
B0K6OARIHC,,奥飞体育中心羽毛球馆,体育休闲服务;运动场馆;羽毛球场,海门体育中心上海西路188号,19850393111,121.1413877,31.84339819,,江苏省,,南通市,,海门区,,"{'cost': , 'rating': '4.3'}"
B0K6OARIHC,,奥飞体育中心羽毛球馆,体育休闲服务;运动场馆;羽毛球场,海门体育中心上海西路188号,19850393111,121.1413877,31.84339819,,江苏省,,南通市,,海门区,,"{'cost': , 'rating': '4.3'}"
B001502273,,猛将庙理发店,体育休闲服务;休闲场所;休闲场所,小星公路与合作公路交叉口西60米,,121.3610831,31.74257648,,上海市,,上海市,,崇明区,,"{'cost': , 'rating': }"
B0JULZNT4B,,星火网球(海门体育中心店),体育休闲服务;运动场馆;网球场,上海路黄浦江路交叉口海门体育中心体育公园网球场,19851333176,121.1395968,31.84059679,,江苏省,,南通市,,海门区,,"{'cost': , 'rating': '3.8'}"
B0J0RZJS0S,,海门体育中心游泳馆,体育休闲服务;运动场馆;游泳馆,黄浦江路699号,19850393111,121.1412725,31.843374,,江苏省,,南通市,,海门区,,"{'cost': , 'rating': '3.7'}"
B0J0RDMSD7,,海门体育中心篮球馆,体育休闲服务;运动场馆;篮球场馆,黄浦江路699号,19850393111,121.1413836,31.84392828,,江苏省,,南通市,,海门区,,"{'cost': , 'rating': '4.0'}"
B0JAAOKONB,,新卫村村委会公益电影放映点,体育休闲服务;影剧院;影剧院相关,新卫村,,121.377037,31.82083711,,上海市,,上海市,,崇明区,,"{'cost': , 'opentime2': , 'seat_ordering': '0', 'rating': '3.7', 'open_time': }"
B0GDS1SSSK,,海门辰语,体育休闲服务;度假疗养场所;疗养院,南京中路与岷江南路交叉口东北260米,15262823858;15262825858,121.1590072,31.86629058,,江苏省,,南通市,,海门区,,"{'cost': , 'rating': }"
B0JK55BZ93,,海门草莓园,体育休闲服务;休闲场所;采摘园,三圩村3组三圩南路向南100米,13621575862;18506127741,121.1412411,31.8473667,,江苏省,,南通市,,海门区,,"{'cost': , 'rating': '4.3'}"
B0J0RHI2QB,,海门体育中心乒乓球馆,体育休闲服务;运动场馆;乒乓球馆,黄浦江路699号,19850393111,121.1407195,31.84322808,,江苏省,,南通市,,海门区,,"{'cost': , 'rating': '3.6'}"
B0K61UU8HS,,繁星羽毛球(海门体育中心店),体育休闲服务;体育休闲服务场所;体育休闲服务场所,上海路黄浦江路交叉口海门体育中心,17696762852;19850393111,121.1407806,31.84342821,,江苏省,,南通市,,海门区,,"{'cost': , 'rating': '3.7'}"
B0I0KS13AS,,兰博台球室,体育休闲服务;运动场馆;台球厅,海兴路景瑞御江山448号二楼,,121.1611732,31.87117259,,江苏省,,南通市,,海门区,,"{'cost': , 'rating': '4.3'}"
B0H0BSZ0Q5,,幸福原生态葡萄园,体育休闲服务;休闲场所;采摘园,新秀中路与双智路交叉口南20米,,121.1560254,31.86448873,,江苏省,,南通市,,海门区,,"{'cost': , 'rating': '3.9'}"
B0FFHQSNYI,,海门区青少年足球训练基地,体育休闲服务;运动场馆;足球场,张謇技术学院西侧,,121.1306455,31.8316369,,江苏省,,南通市,,海门区,,"{'cost': , 'rating': '4.7'}"
B0FFH9EEEC,,珂缔缘足球俱乐部,体育休闲服务;运动场馆;足球场,海门区经济技术开发区黄浦江路699号张謇职业技术学校4号楼,,121.134462,31.83414877,,江苏省,,南通市,,海门区,,"{'cost': , 'rating': '4.0'}"
B0JDFBPUS1,,G20花莳精致农家餐厅,体育休闲服务;休闲场所;休闲场所|餐饮服务;中餐厅;中餐厅,庙镇永新路与走花巷交叉口西北140米,,121.3734061,31.75176702,,上海市,,上海市,,崇明区,,"{'cost': , 'opentime2': , 'rating': '4.2', 'open_time': , 'meal_ordering': '0'}"
B0K657JMZ8,,首届ACCN动漫游戏嘉年华,体育休闲服务;娱乐场所;游戏厅,上海路与黄浦江路交叉口东340米,,121.1402266,31.84458654,,江苏省,,南通市,,海门区,,"{'cost': , 'rating': '3.4'}"
B0FFHW3L5D,,珂缔缘足球训练基地,体育休闲服务;运动场馆;足球场,苏州路北,,121.130942,31.83148928,,江苏省,,南通市,,海门区,,"{'cost': , 'rating': '3.9'}"
B0JA9RC5XT,,崇明区庙镇庙中村村民委员会公益电影放映点,体育休闲服务;影剧院;影剧院相关,庙中村,,121.3456706,31.72092826,,上海市,,上海市,,崇明区,,"{'cost': , 'opentime2': , 'seat_ordering': '0', 'rating': '3.5', 'open_time': }"
B0IUH5OKC6,,海门晨熙钓场,体育休闲服务;休闲场所;垂钓园,黄浦江路与上海路交叉口往北492米沿江渔场隔壁路西,18957013111;13813622462,121.1361465,31.84828292,,江苏省,,南通市,,海门区,,"{'cost': , 'rating': '4.5'}"
B0FFK6TADM,,金牛寨度假农庄,体育休闲服务;休闲场所;休闲场所,富江南路三民南路路口,0513-82312777,121.141546,31.85454558,,江苏省,,南通市,,海门区,,"{'cost': , 'rating': '4.3'}"
B0FFK6TADM,,金牛寨度假农庄,体育休闲服务;休闲场所;休闲场所,富江南路三民南路路口,0513-82312777,121.141546,31.85454558,,江苏省,,南通市,,海门区,,"{'cost': , 'rating': '4.3'}"
B02010WEDI,,沿江渔村,体育休闲服务;休闲场所;垂钓园|风景名胜;风景名胜相关;旅游景点,沿江淡水养殖场,,121.1324248,31.84745433,,江苏省,,南通市,,海门区,,"{'cost': , 'opentime2': , 'level': 'AA', 'rating': '4.6', 'open_time': , 'ticket_ordering': '0'}"
B0FFICBK4O,,海门市养老中心,体育休闲服务;度假疗养场所;疗养院,海门市经济技术开发区嫩江路与苏州路交界处海宁寺对面,,121.1285977,31.83078301,,江苏省,,南通市,,海门区,,"{'cost': , 'rating': }"
B0HRDAW2N2,,西瓜草莓采摘园,体育休闲服务;休闲场所;采摘园,新民路与富江路交叉口西360米,,121.1410993,31.85346965,,江苏省,,南通市,,海门区,,"{'cost': , 'rating': '3.6'}"
B0JR9MFXF9,,森合博度假农庄森合博建筑劳务,体育休闲服务;体育休闲服务场所;体育休闲服务场所,富江南路三民南路口向西500米,,121.1414929,31.85454049,,江苏省,,南通市,,海门区,,"{'cost': , 'rating': '3.6'}"
B0JRJLJRTA,,皇家钓场,体育休闲服务;休闲场所;垂钓园,上海路与东沿路交叉口东南100米,,121.1280199,31.84333158,,江苏省,,南通市,,海门区,,"{'cost': , 'rating': '4.3'}"
B0H6HOJDB8,,乐颐农庄,体育休闲服务;休闲场所;休闲场所,崇明岛长征农场北首海永镇,,121.3913755,31.7886337,,上海市,,上海市,,崇明区,,"{'cost': , 'rating': }"
B0FFMHTWFI,,湖光楼酒吧 The Lakeview,体育休闲服务;体育休闲服务场所;体育休闲服务场所,临江新区洞庭湖路99号11号楼,18003550669,121.3750998,31.85711156,,江苏省,,南通市,,海门区,,"{'cost': '39.00', 'rating': '3.9'}"
B0JDHA4IFN,,百花休闲钓鱼场,体育休闲服务;休闲场所;垂钓园,上海路东沿路新远村50-1,13057068813,121.1263835,31.84581598,,江苏省,,南通市,,海门区,,"{'cost': , 'rating': '4.5'}"
B0IB9D67LH,,星火网球(海门科技园店),体育休闲服务;运动场馆;网球场,临江镇科技园海创路玲珑湖公园网球场,19851333176,121.3760326,31.85928515,,江苏省,,南通市,,海门区,,"{'cost': , 'rating': '3.8'}"
B02010URA6,,队长小农庄(大灶农家菜馆),体育休闲服务;休闲场所;休闲场所,三和镇新远村6组,13862887997;13962991939,121.1184904,31.84600618,,江苏省,,南通市,,海门区,,"{'cost': '215.00', 'rating': '4.8'}"
B0FFMC6F1D,,银波生态农庄,体育休闲服务;休闲场所;休闲场所|公司企业;农林牧渔基地;其它农林牧渔基地,海门市经济技术开发区三和镇三圩村,,121.1338198,31.85987074,,江苏省,,南通市,,海门区,,"{'cost': , 'rating': '3.8'}"
B0J3LZAJQN,,瀛洲花仙子乐园,体育休闲服务;休闲场所;游乐场,和平村1150号,,121.3697956,31.72775705,,上海市,,上海市,,崇明区,,"{'cost': , 'rating': '3.7'}"
B0J06SO85N,,电路客厅,体育休闲服务;体育休闲服务场所;体育休闲服务场所,海创路与洞庭湖路交叉口北320米,,121.3743511,31.86262735,,江苏省,,南通市,,海门区,,"{'cost': , 'rating': '3.7'}"
B0HD3AO699,,上海三莓桃园农庄,体育休闲服务;休闲场所;采摘园,庙镇小竖村鸽东1238号,13524934626,121.3880846,31.7345667,,上海市,,上海市,,崇明区,,"{'cost': , 'rating': '3.9'}"
B0IBTS3SYV,,小陆巨物钓场,体育休闲服务;体育休闲服务场所;体育休闲服务场所,浒江路与大港路交叉口西320米,15162840222,121.1138722,31.85748621,,江苏省,,南通市,,海门区,,"{'cost': , 'rating': '3.8'}"
B0FFHETSBK,,艺网艺嘉网咖,体育休闲服务;娱乐场所;网吧,海门港新区大港路4269号,,121.1157213,31.87443519,,江苏省,,南通市,,海门区,,"{'cost': , 'rating': '4.1'}"
B0JBOZMT5K,,无公害有机神农葡萄园,体育休闲服务;休闲场所;采摘园,园区路与大港路交叉口西180米,,121.1149945,31.86520969,,江苏省,,南通市,,海门区,,"{'cost': , 'rating': '3.5'}"
B0JK6BTOUI,,日间照料中心,体育休闲服务;度假疗养场所;疗养院|生活服务;生活服务场所;生活服务场所,临江新区旭日花园73号楼,,121.3897605,31.87274235,,江苏省,,南通市,,海门区,,"{'cost': , 'rating': }"
B0JBOZMT5K,,无公害有机神农葡萄园,体育休闲服务;休闲场所;采摘园,园区路与大港路交叉口西180米,,121.1149945,31.86520969,,江苏省,,南通市,,海门区,,"{'cost': , 'rating': '3.5'}"
B0JK6BTOUI,,日间照料中心,体育休闲服务;度假疗养场所;疗养院|生活服务;生活服务场所;生活服务场所,临江新区旭日花园73号楼,,121.3897605,31.87274235,,江苏省,,南通市,,海门区,,"{'cost': , 'rating': }"
B0J16AWPC4,,禾雨小院,体育休闲服务;体育休闲服务场所;体育休闲服务场所,民安街3号,,121.5573707,31.78521072,,江苏省,,南通市,,启东市,,"{'cost': , 'rating': '3.9'}"
B0JD5MAEFC,,目田农场,体育休闲服务;体育休闲服务场所;体育休闲服务场所,红阳路与新红路交叉口西南300米,,121.5569567,31.77498256,,江苏省,,南通市,,启东市,,"{'cost': , 'rating': '4.0'}"
B0KDG1WSU4,,康乐休闲会所,生活服务;洗浴推拿场所;洗浴推拿场所|体育休闲服务;体育休闲服务场所;体育休闲服务场所,北新镇人民政府南侧180米,,121.5025212,31.82447229,,江苏省,,南通市,,启东市,,"{'cost': , 'rating': }"
B0JBZSJGXH,,辉辉草莓园,体育休闲服务;休闲场所;采摘园,新港加油站对面,18094382110,121.5453922,31.84340888,,江苏省,,南通市,,启东市,,"{'cost': , 'rating': '4.0'}"
B0FFK2SKOK,,老单奶油草莓自摘园,体育休闲服务;体育休闲服务场所;体育休闲服务场所,海四达东300米,13862874772;15190906399;18994194665,121.5342282,31.84465924,,江苏省,,南通市,,启东市,,"{'cost': , 'rating': '4.4'}"
B0GD2CTNNK,,三升生态农庄,体育休闲服务;体育休闲服务场所;体育休闲服务场所,336省道南100米,0513-85395777,121.5689596,31.83745202,,江苏省,,南通市,,启东市,,"{'cost': , 'rating': '4.0'}"
B0FFLG4RN1,,启东市北新镇文化体育中心,体育休闲服务;运动场馆;综合体育馆,北新镇川洪港桥北远路,,121.4925728,31.82972148,,江苏省,,南通市,,启东市,,"{'cost': , 'rating': '3.6'}"
B0FFG0QU68,,亲家公生态农业观光园,体育休闲服务;休闲场所;休闲场所,民主工业区118号南通申东冶金机械有限公司对面,,121.5755603,31.83610499,,江苏省,,南通市,,启东市,,"{'cost': , 'rating': '4.0'}"
B0FFIOY4YD,,老袁奶油草莓采摘园,体育休闲服务;休闲场所;采摘园,336省道与汇联路交叉口往北50米,13962901697;18862809918,121.580143,31.8346439,,江苏省,,南通市,,启东市,,"{'cost': , 'rating': '3.8'}"
B0JAAOJGWR,,老年活动室公益电影放映点,体育休闲服务;影剧院;影剧院相关,汇龙镇汇东村(老年活动室),,121.5857196,31.8297196,,江苏省,,南通市,,启东市,,"{'cost': , 'opentime2': , 'seat_ordering': '0', 'rating': '1.4', 'open_time': }"
B0KBRKGX8R,,西北敬老院,体育休闲服务;度假疗养场所;疗养院,北新镇黄仓镇轶昌五路新时代购物广场,,121.5402941,31.84979524,,江苏省,,南通市,,启东市,,"{'cost': , 'rating': }"
B0J0FKL3AN,,棋牌室,体育休闲服务;娱乐场所;棋牌室,北新镇民主路绿洲嘉园13号楼,,121.5901992,31.82493981,,江苏省,,南通市,,启东市,,"{'cost': , 'rating': '3.0'}"
B0I0NOO2IM,,南通·速uD83CuDFB1台球俱乐部,体育休闲服务;运动场馆;台球厅,久新线与为民街交叉口北200米,,121.5428559,31.85147613,,江苏省,,南通市,,启东市,,"{'cost': , 'rating': '3.5'}"
B0JUXRLE24,,CK台球俱乐部,体育休闲服务;运动场馆;台球厅,名人路与民主路交叉口东南220米,,121.5916836,31.82692932,,江苏省,,南通市,,启东市,,"{'cost': , 'rating': '3.9'}"
B0JUR1HM49,,江海星辰(健身会所大厅),体育休闲服务;运动场馆;健身中心,华石路与世纪大道交叉口南20米,,121.6076227,31.80739467,,江苏省,,南通市,,启东市,,"{'cost': , 'rating': '3.3'}"
B0FFG8UGAJ,,绿地长岛正事壹号会所,体育休闲服务;娱乐场所;娱乐场所,绿地长岛,,121.4635467,31.78968322,,江苏省,,南通市,,启东市,,"{'cost': , 'rating': '5.0'}"
B0FFKI3HSN,,梦幻岛,体育休闲服务;休闲场所;游乐场,绿地长岛内,,121.4606123,31.79498557,,江苏省,,南通市,,启东市,,"{'cost': , 'rating': '4.5'}"
B0FFHB3QBW,,绿地长岛汗血马马术俱乐部,体育休闲服务;运动场馆;马术俱乐部,启隆镇,18221092806,121.4609319,31.79832491,,江苏省,,南通市,,启东市,,"{'cost': '308.00', 'rating': '4.4'}"
B0JAA1QEQQ,cinema,科创嘉园安居房公益电影放映点,体育休闲服务;影剧院;电影院,启东市开发区小效科创嘉苑,,121.6112366,31.80824438,,江苏省,,南通市,,启东市,,"{'cost': , 'opentime2': , 'seat_ordering': '0', 'rating': '1.1', 'open_time': }"
B0HR5UBOO1,,云扬国际汗血马俱乐部(云扬马会),体育休闲服务;体育休闲服务场所;体育休闲服务场所,南侧190米,13813685222,121.4611957,31.79833557,,江苏省,,南通市,,启东市,,"{'cost': , 'rating': '3.8'}"
B0JU55G3G6,,觅友24h自助台球(阳光城海悦府店),体育休闲服务;运动场馆;台球厅,牡丹江西路3023号二楼,15050616006,121.6118898,31.81235058,,江苏省,,南通市,,启东市,,"{'cost': , 'rating': '4.3'}"
B0JUHC279A,,摩号匯玩长岛屋,体育休闲服务;娱乐场所;娱乐场所,绿地长岛蝴蝶溪谷04-47-108室,13122116508,121.4588341,31.79299484,,江苏省,,南通市,,启东市,,"{'cost': , 'rating': '3.9'}"
B0JAA1NUB6,,启东文峰伟博汽车销售服务有限公司公益电影放映点,体育休闲服务;影剧院;影剧院相关,启东市开发区海洪小区,,121.6082776,31.82833488,,江苏省,,南通市,,启东市,,"{'cost': , 'opentime2': , 'seat_ordering': '0', 'rating': '3.7', 'open_time': }"
B0HA3Z4IXK,,浮·極限运动馆,体育休闲服务;运动场馆;综合体育馆,纬二路,,121.5090417,31.72984496,,上海市,,上海市,,崇明区,,"{'cost': , 'rating': '4.1'}"
B0H2TKOO90,,龙信健身(启东龙馨家园会所),体育休闲服务;运动场馆;健身中心,林洋路333号,0513-83350333,121.6224991,31.80432406,,江苏省,,南通市,,启东市,,"{'cost': , 'rating': '4.4'}"
B0JU1HTVQW,,滨江绿廊游牧营地,体育休闲服务;体育休闲服务场所;体育休闲服务场所,惠鹤西路,13914402487,121.6021567,31.74734271,,江苏省,,南通市,,启东市,,"{'cost': , 'rating': '4.4'}"
B020107W1X,,启东中学体育馆,体育休闲服务;运动场馆;运动场所,汇龙镇人民西路2188号,,121.6141339,31.82814751,,江苏省,,南通市,,启东市,,"{'cost': , 'rating': '4.2'}"
B0FFH8MK59,,蒙骏骑马场,体育休闲服务;运动场馆;马术俱乐部,纬二路与径八路交汇处,17717678780,121.5161771,31.72533801,,上海市,,上海市,,崇明区,,"{'cost': , 'rating': '4.6'}"
B0GK0H9ERO,,海上花岛生态度假村,体育休闲服务;度假疗养场所;度假村,竖新镇前卫村805号,021-57231111;021-59649261,121.5065281,31.72575017,,上海市,,上海市,,崇明区,,"{'cost': , 'rating': '4.6'}"
B0G2Y9SUDF,,海上花岛玫瑰庄园,体育休闲服务;体育休闲服务场所;体育休闲服务场所,前卫村雷锋纪念馆北侧正东方向116米,021-31031928;4000218060,121.5068733,31.72705432,,上海市,,上海市,,崇明区,,"{'cost': '39.00', 'rating': '4.5'}"
B02010UN4C,hotel,南通江天生态园,住宿服务;住宿服务相关;住宿服务相关|体育休闲服务;休闲场所;休闲场所,江海南路与惠丰路路口向南200米路西,0513-83663333;0513-83839777,121.6183285,31.76694792,,江苏省,,南通市,,启东市,,"{'cost': , 'star': , 'opentime2': , 'rating': '3.9', 'lowest_price': , 'hotel_ordering': '1', 'open_time': }"
B0J1VM61WV,,姚记扑克,体育休闲服务;娱乐场所;棋牌室,汇龙镇启东经济开发区世纪大道与华石路交汇处,,121.6240902,31.80652456,,江苏省,,南通市,,启东市,,"{'cost': , 'rating': '3.8'}"
B0FFI7ZHZQ,,百悦国际大酒店-游泳池,体育休闲服务;运动场馆;游泳馆,人民西路2008号百悦国际大酒店2层(启东中学东侧),0513-83193333;0513-83302222,121.618945,31.82556254,,江苏省,,南通市,,启东市,,"{'cost': , 'rating': '3.7'}"
B0H2DZDECK,,星期八璟点台球俱乐部,体育休闲服务;运动场馆;台球厅,牡丹江西路2188号2层,13228822222;13813614560,121.6256353,31.80722179,,江苏省,,南通市,,启东市,,"{'cost': , 'rating': '4.5'}"
B0JG7SS22H,,景区之家国际房车营地,体育休闲服务;体育休闲服务场所;体育休闲服务场所,前卫生态村村史馆路停车场,,121.5073801,31.72635573,,上海市,,上海市,,崇明区,,"{'cost': , 'rating': '3.8'}"
B0J1RMLHWM,,遇见花海露营公园,体育休闲服务;体育休闲服务场所;体育休闲服务场所,结缘桥西南50米(近纬四路),,121.5067157,31.72682483,,上海市,,上海市,,崇明区,,"{'cost': , 'rating': '4.0'}"
B0IRVMRVZA,,江天马场,体育休闲服务;体育休闲服务场所;体育休闲服务场所,惠丰路118号,17721638360,121.6186701,31.76765567,,江苏省,,南通市,,启东市,,"{'cost': , 'rating': '3.7'}"
B0FFFAMDCK,,上海崇明前卫红土网球中心,体育休闲服务;运动场馆;网球场,东方农场北首前卫生态村,021-59649119,121.5093081,31.72490123,,上海市,,上海市,,崇明区,,"{'cost': '157.00', 'rating': '4.3'}"
B0J677RH6D,,海上花岛世界木化石中国奇石馆自然奇景探险乐园,体育休闲服务;体育休闲服务场所;体育休闲服务场所,上海雷锋纪念馆东南门旁,,121.5075418,31.7252331,,上海市,,上海市,,崇明区,,"{'cost': , 'rating': '3.8'}"
B0KBYSA7UK,,109羽毛球馆,体育休闲服务;运动场馆;羽毛球场,恒丰路109号,13962744141,121.6266629,31.80860073,,江苏省,,南通市,,启东市,,"{'cost': , 'rating': '4.4'}"
B0K6LSIAVJ,,青春台球室,体育休闲服务;运动场馆;台球厅,建新路与大华路交叉口西180米,,121.4942268,31.86394794,,江苏省,,南通市,,启东市,,"{'cost': , 'rating': '3.3'}"
B0HGXZXHL0,,林洋生态庄园,体育休闲服务;休闲场所;休闲场所,永兴东路与新江路交叉口东南320米,,121.5653465,31.72495141,,江苏省,,南通市,,启东市,,"{'cost': , 'rating': '3.6'}"
B0FFH2HYDX,,启东市北新镇轶昌村老年关爱之家,体育休闲服务;度假疗养场所;疗养院,北新镇黄仓镇轶昌村,,121.4877667,31.86143816,,江苏省,,南通市,,启东市,,"{'cost': , 'rating': }"
B0FFGZYPQ8,,龙裔福满苑,体育休闲服务;休闲场所;休闲场所,亚苗公路与村史馆路交叉口南60米,021-59641088,121.5069428,31.72393521,,上海市,,上海市,,崇明区,,"{'cost': '97.00', 'rating': '4.3'}"
B0KB6R6E6I,,金徽红土网球俱乐部,体育休闲服务;运动场馆;网球场,亚苗公路与村史馆路交叉口西北200米,,121.5092579,31.72493909,,上海市,,上海市,,崇明区,,"{'cost': , 'rating': '3.6'}"
B0J3B72FP3,,荷姿庄园,体育休闲服务;体育休闲服务场所;体育休闲服务场所,竖新镇前卫村882号,18151707799,121.5046063,31.72455937,,上海市,,上海市,,崇明区,,"{'cost': , 'rating': '4.2'}"
B00157GCMN,,悠哉农庄,体育休闲服务;休闲场所;采摘园,前卫村810号,18018689866,121.5133967,31.72205878,,上海市,,上海市,,崇明区,,"{'cost': , 'rating': '3.8'}"
B02010WW8P,hotel,启东福来顿休闲会所,住宿服务;宾馆酒店;宾馆酒店|体育休闲服务;休闲场所;休闲场所,人民西路果园路600号福来顿休闲会所1层,0513-83107778;0513-83650888,121.6273689,31.82175107,,江苏省,,南通市,,启东市,,"{'cost': , 'star': , 'opentime2': '周一至周日 00:00-24:00', 'rating': '4.7', 'lowest_price': , 'hotel_ordering': '1', 'open_time': '24小时营业'}"
B0FFGZWI5P,,东石搏击,体育休闲服务;运动场馆;运动场所,人民西路1977号,13801898198,121.6245093,31.82311989,,江苏省,,南通市,,启东市,,"{'cost': '195.00', 'rating': '3.7'}"
B0H3T5H4B6,,垂钓中心,体育休闲服务;休闲场所;垂钓园,纬十路竖新镇前卫村海上花岛,,121.5068645,31.72365495,,上海市,,上海市,,崇明区,,"{'cost': , 'rating': '3.7'}"
B0J6CCHZEU,,海上花岛开心农场,体育休闲服务;休闲场所;休闲场所,海上花岛景区内,,121.5151529,31.72155574,,上海市,,上海市,,崇明区,,"{'cost': , 'rating': '4.1'}"
B0JKNUGJ91,,海上花岛风云崇明岛大型古装马战实景剧,体育休闲服务;影剧院;剧场,纬八路与同良路交叉口北160米,,121.5102577,31.72229674,,上海市,,上海市,,崇明区,,"{'cost': , 'opentime2': , 'seat_ordering': '0', 'rating': '3.8', 'open_time': }"
B0FFH07G8Q,hotel,上海瀛昌农家乐,住宿服务;住宿服务相关;住宿服务相关|体育休闲服务;休闲场所;休闲场所,前卫村573-1,021-59649145;13585623076;13817141351,121.5070734,31.72157136,,上海市,,上海市,,崇明区,,"{'cost': , 'star': , 'opentime2': '08:00-21:00', 'rating': '4.4', 'lowest_price': , 'hotel_ordering': '1', 'open_time': '08:00-21:00'}"
B00156ZJWN,,瀛宾农家乐,体育休闲服务;休闲场所;休闲场所,竖新镇前卫村326-2号,021-59649105;13331916958,121.5041158,31.72208267,,上海市,,上海市,,崇明区,,"{'cost': , 'rating': '4.0'}"
B0HGTD7A5S,,海上花岛游客中心,体育休闲服务;度假疗养场所;度假村,竖新镇前卫生态村801号,,121.505833,31.7215447,,上海市,,上海市,,崇明区,,"{'cost': , 'rating': '4.5'}"
B00155QXYC,hotel,瀛春农家乐,住宿服务;住宿服务相关;住宿服务相关|体育休闲服务;休闲场所;休闲场所,前卫村575-1号,021-59649185;13472604116,121.5058973,31.72055079,,上海市,,上海市,,崇明区,,"{'cost': , 'star': , 'opentime2': '08:00-22:00', 'rating': '4.6', 'lowest_price': , 'hotel_ordering': '1', 'open_time': '08:00-22:00'}"
B0JAL4Y1RR,,华石新村公益电影放映点,体育休闲服务;影剧院;影剧院相关,启东市开发区华石村华石小区,,121.6258029,31.82042983,,江苏省,,南通市,,启东市,,"{'cost': , 'opentime2': , 'seat_ordering': '0', 'rating': '1.1', 'open_time': }"
B0JBPL9JUL,,北京德戎教育(上海)营地,体育休闲服务;休闲场所;休闲场所,村史馆路与同良路交叉口北60米,,121.5037967,31.7218267,,上海市,,上海市,,崇明区,,"{'cost': , 'rating': '4.1'}"
B0FFGF0VUB,hotel,蛮灵阁农家休闲中心,住宿服务;住宿服务相关;住宿服务相关|体育休闲服务;休闲场所;休闲场所,前卫村568,021-59649141;13761774357,121.5067514,31.72070633,,上海市,,上海市,,崇明区,,"{'cost': , 'star': , 'opentime2': '00:00-24:00', 'rating': '4.3', 'lowest_price': , 'hotel_ordering': '0', 'open_time': '24小时营业'}"
B0H1XB13JO,,射击体验馆,体育休闲服务;体育休闲服务场所;体育休闲服务场所,纬十路竖新镇前卫村海上花岛儿童乐园,,121.5086179,31.72211994,,上海市,,上海市,,崇明区,,"{'cost': , 'rating': '3.4'}"
B0FFF546VA,diner,琴乐农家乐,餐饮服务;中餐厅;浙江菜|体育休闲服务;休闲场所;休闲场所,前卫村322号,021-59649324;13818005389,121.5039091,31.721444,,上海市,,上海市,,崇明区,,"{'cost': , 'opentime2': , 'rating': '3.8', 'open_time': , 'meal_ordering': '0'}"
B0015747QT,hotel,囡囡农家乐,住宿服务;住宿服务相关;住宿服务相关|体育休闲服务;休闲场所;休闲场所,前卫村214-5号,021-59649363,121.5016078,31.7218802,,上海市,,上海市,,崇明区,,"{'cost': , 'star': , 'opentime2': '00:00-24:00', 'rating': '4.0', 'lowest_price': , 'hotel_ordering': '1', 'open_time': '24小时营业'}"
B0FFF5XPQ1,hotel,崇明六加伊农家乐(纬十路1号分店),住宿服务;住宿服务相关;住宿服务相关|体育休闲服务;休闲场所;休闲场所,前卫村214号(东风农场北首),"021-59649220;13761643018;+861056320612,77653",121.5018808,31.72175,,上海市,,上海市,,崇明区,,"{'cost': , 'star': , 'opentime2': , 'rating': '4.5', 'lowest_price': , 'hotel_ordering': '1', 'open_time': }"
B0FFFVD1O2,diner,崇明岳都饭店,餐饮服务;中餐厅;中餐厅|体育休闲服务;休闲场所;休闲场所,建设镇前卫村207号,021-59649256,121.5041972,31.7209408,,上海市,,上海市,,崇明区,,"{'cost': , 'opentime2': '请确认后前往', 'rating': '3.8', 'open_time': , 'meal_ordering': '0'}"
B0JDZCJQ4G,,强哥农家乐,体育休闲服务;休闲场所;休闲场所,前卫村517号,15026481585,121.5054909,31.72042658,,上海市,,上海市,,崇明区,,"{'cost': , 'rating': '4.0'}"
B0FFFWQ278,hotel,叔季嘉苑,住宿服务;住宿服务相关;住宿服务相关|体育休闲服务;休闲场所;休闲场所,前卫村212-3号,13816125972,121.5028413,31.72136382,,上海市,,上海市,,崇明区,,"{'cost': , 'star': , 'opentime2': , 'rating': '3.9', 'lowest_price': , 'hotel_ordering': '0', 'open_time': }"
B0J6356930,,龙鑫羽毛球馆,体育休闲服务;运动场馆;羽毛球场,南苑西路999号,13906282345,121.6335504,31.80991849,,江苏省,,南通市,,启东市,,"{'cost': , 'rating': '3.8'}"
B0KBU9FROM,,撸撸将24h智能自助棋牌(申港城店),体育休闲服务;娱乐场所;棋牌室,灵峰路613号,,121.6257143,31.82899046,,江苏省,,南通市,,启东市,,"{'cost': , 'rating': '4.2'}"
B0JRU7YOHE,,花都会音乐俱乐部,体育休闲服务;娱乐场所;KTV,人民西路与果园路交叉口东100米,4008165319,121.6305856,31.82238186,,江苏省,,南通市,,启东市,,"{'cost': , 'rating': '4.5'}"
B0FFHERFS1,,爱尚网咖(人民西路店),体育休闲服务;娱乐场所;网吧,启东经济开发区申港购物中心,18901466266,121.6310549,31.82255824,,江苏省,,南通市,,启东市,,"{'cost': , 'rating': '4.5'}"
B0FFL70WOI,,都唛量贩KTV(启东店),体育休闲服务;娱乐场所;KTV,人民西路1668号启东欧伟仕超市(申港城店),0513-83992777,121.6309041,31.8222794,,江苏省,,南通市,,启东市,,"{'cost': , 'rating': '4.4'}"
B0JU3ZAQMC,,上海至尊36号庄园,体育休闲服务;休闲场所;休闲场所,汇龙镇江海南路666号北,,121.6306411,31.780372,,江苏省,,南通市,,启东市,,"{'cost': , 'rating': '3.6'}"
B0HBB75DQ1,cinema,米高梅国际影城(申港城启东欧伟仕超市店),体育休闲服务;影剧院;电影院,汇龙镇人民西路1668号吉买盛大卖场1层,0513-69813311,121.6314224,31.82204063,,江苏省,,南通市,,启东市,,"{'cost': , 'opentime2': '09:00-23:00', 'seat_ordering': '1', 'rating': '4.5', 'open_time': '09:00-23:00'}"
B0JRP1OXG7,,江天亲子乐园,体育休闲服务;休闲场所;游乐场,江海南路与惠丰路路口向南200米路西,17312034016,121.6172945,31.76712096,,江苏省,,南通市,,启东市,,"{'cost': , 'rating': '4.7'}"
B0G1XZI83I,,启东保利大剧院,体育休闲服务;体育休闲服务场所;体育休闲服务场所,江海南路东侧、钱塘江路北侧,0513-83408888,121.6367466,31.78576983,,江苏省,,南通市,,启东市,,"{'cost': , 'rating': '4.6'}"
B0JKZHR8OD,,江南汇影院足道·(启东申港城旗舰店),体育休闲服务;体育休闲服务场所;体育休闲服务场所,汇龙镇人民西路1668号申港城大卖场麦当劳3层,,121.6316252,31.82205135,,江苏省,,南通市,,启东市,,"{'cost': , 'rating': '4.5'}"
B0JAA1M58Y,,南郊家园-东区公益电影放映点,体育休闲服务;影剧院;影剧院相关,汇龙镇南郊村南郊家园,,121.6324659,31.78778253,,江苏省,,南通市,,启东市,,"{'cost': , 'opentime2': , 'seat_ordering': '0', 'rating': '1.2', 'open_time': }"
B0JK3UGCSF,,Man8星牌台球俱乐部,体育休闲服务;运动场馆;台球厅,林洋路与民丰路交叉口西北220米,18001667188,121.6313896,31.82051441,,江苏省,,南通市,,启东市,,"{'cost': , 'rating': '4.3'}"
B0I3FLXYWT,,大菠萝精酿啤酒屋,体育休闲服务;娱乐场所;酒吧,南苑西路997号大菠萝啤酒屋,13776976888,121.6339798,31.80965481,,江苏省,,南通市,,启东市,,"{'cost': , 'rating': '4.2'}"
B0J3BMS4ZG,,Irish Pub(爱尔兰酒吧),体育休闲服务;娱乐场所;酒吧,人民西路1688号申港城商铺86,,121.6308092,31.82302366,,江苏省,,南通市,,启东市,,"{'cost': , 'rating': '4.1'}"
B0G2347XF8,,绅仕台球俱乐部(启东欧伟仕超市店),体育休闲服务;运动场馆;台球厅,申港城人民西路1668号,15167771092,121.6309121,31.8223404,,江苏省,,南通市,,启东市,,"{'cost': , 'rating': '4.2'}"
B02010W2JE,,海盗酒吧,体育休闲服务;娱乐场所;酒吧,申港城8号楼,,121.6311008,31.82307427,,江苏省,,南通市,,启东市,,"{'cost': , 'rating': '3.9'}"
B0KBTNTZQ7,,镭战越野基地,体育休闲服务;娱乐场所;娱乐场所,纬十路与村史馆路交叉口西360米,,121.4998123,31.72171482,,上海市,,上海市,,崇明区,,"{'cost': , 'rating': '3.2'}"
B0JBDMYL3E,,星辉国会(启东欧伟仕超市店),购物服务;超级市场;超市|体育休闲服务;体育休闲服务场所;体育休闲服务场所,人民西路1668号申港城大卖场,0513-83219666,121.6314444,31.82199959,,江苏省,,南通市,,启东市,,"{'cost': , 'rating': '4.3'}"
B0FFHDEF4F,,上海恒人农业合作社,体育休闲服务;休闲场所;休闲场所,建粮桥附近,13816888956,121.4782774,31.73174004,,上海市,,上海市,,崇明区,,"{'cost': , 'rating': }"
B0JU3MWRM3,,睿博体育中心,体育休闲服务;体育休闲服务场所;体育休闲服务场所,人民西路3999号,,121.6314485,31.82041231,,江苏省,,南通市,,启东市,,"{'cost': , 'rating': '4.0'}"
B0JUF7W5PA,,后海一号酒吧,体育休闲服务;娱乐场所;酒吧,申港城3号商铺80号,,121.6307823,31.82288068,,江苏省,,南通市,,启东市,,"{'cost': , 'rating': '3.8'}"
B0JD4MSQ43,,玖遇音乐酒吧,体育休闲服务;娱乐场所;酒吧,申港城7号楼148号,,121.6313684,31.82376701,,江苏省,,南通市,,启东市,,"{'cost': , 'rating': '3.7'}"
B0FFI5A3NK,,等一个人酒吧,体育休闲服务;娱乐场所;酒吧,申港城7号楼139号店铺,,121.6312425,31.82371018,,江苏省,,南通市,,启东市,,"{'cost': , 'rating': '3.8'}"
B0HKUZQRI2,,欢乐大本营儿童乐园(启东欧伟仕超市店),体育休闲服务;休闲场所;游乐场,人民西路1668号启东欧伟仕超市(申港城店),,121.6314414,31.82239167,,江苏省,,南通市,,启东市,,"{'cost': , 'rating': '3.6'}"
B0H0VC1K0G,,党群活动中心职工之家,体育休闲服务;体育休闲服务场所;体育休闲服务场所,清风路凯洪家园-B区,,121.6285699,31.82738549,,江苏省,,南通市,,启东市,,"{'cost': , 'rating': '3.3'}"
B0G1K53FOU,,启东市文化体育中心南区,体育休闲服务;体育休闲服务场所;体育休闲服务场所,钱塘江路,,121.6360969,31.78306842,,江苏省,,南通市,,启东市,,"{'cost': , 'rating': '4.3'}"
B0FFG4ZEGF,,欢乐堡亲子乐园(启东欧伟仕超市店),体育休闲服务;休闲场所;游乐场,人民西路1668号启东欧伟仕超市(申港城店),,121.6316601,31.82203429,,江苏省,,南通市,,启东市,,"{'cost': , 'rating': '3.7'}"
B0KGRHHKYL,,BOP保镖,体育休闲服务;体育休闲服务场所;体育休闲服务场所,南苑西路与港西中路交叉口西北140米,,121.6339847,31.81031592,,江苏省,,南通市,,启东市,,"{'cost': , 'rating': '1.1'}"
B0HA3R2QX6,,Slimo启东运动中心,体育休闲服务;运动场馆;健身中心,申港公寓西北门东北100米,17388023885,121.632205,31.82581018,,江苏省,,南通市,,启东市,,"{'cost': , 'rating': '4.5'}"
B0JAA1NUW2,,善成新村-15号楼公益电影放映点,体育休闲服务;影剧院;影剧院相关,启东市开发区城西村善城小区,,121.6330437,31.81490307,,江苏省,,南通市,,启东市,,"{'cost': , 'opentime2': , 'seat_ordering': '0', 'rating': '1.2', 'open_time': }"
B0FFF7HYAD,,天孜瑜伽,体育休闲服务;运动场馆;健身中心,汇龙镇申港城商铺16幢275号,15262800990,121.6321613,31.82290773,,江苏省,,南通市,,启东市,,"{'cost': '864.00', 'rating': '3.9'}"
B0J2PHB828,,皇阿玛音乐酒吧,体育休闲服务;娱乐场所;酒吧,汇龙镇申港城上海街426号,18621580140,121.6322489,31.82590414,,江苏省,,南通市,,启东市,,"{'cost': , 'rating': '4.2'}"
B0FFJO4RSK,,启东市文化体育中心(北区)(建设中),体育休闲服务;体育休闲服务场所;体育休闲服务场所,汇龙镇江海南路(南郊家园东侧约100米)南郊新村6号楼,,121.636058,31.78258741,,江苏省,,南通市,,启东市,,"{'cost': , 'rating': '4.2'}"
B0H1TCJJ1Q,cinema,幸福蓝海国际影城(启东凤凰荟购物中心店),体育休闲服务;影剧院;电影院,人民西路1188号启东凤凰荟购物中心F3层,0513-83211988,121.6349624,31.82084026,,江苏省,,南通市,,启东市,,"{'cost': , 'opentime2': '08:00-24:00', 'seat_ordering': '1', 'rating': '4.1', 'open_time': '08:00-24:00'}"
B0FFF7HYAD,,天孜瑜伽,体育休闲服务;运动场馆;健身中心,汇龙镇申港城商铺16幢275号,15262800990,121.6321613,31.82290773,,江苏省,,南通市,,启东市,,"{'cost': '864.00', 'rating': '3.9'}"
B0J2PHB828,,皇阿玛音乐酒吧,体育休闲服务;娱乐场所;酒吧,汇龙镇申港城上海街426号,18621580140,121.6322489,31.82590414,,江苏省,,南通市,,启东市,,"{'cost': , 'rating': '4.2'}"
B0FFJO4RSK,,启东市文化体育中心(北区)(建设中),体育休闲服务;体育休闲服务场所;体育休闲服务场所,汇龙镇江海南路(南郊家园东侧约100米)南郊新村6号楼,,121.636058,31.78258741,,江苏省,,南通市,,启东市,,"{'cost': , 'rating': '4.2'}"
B0H1TCJJ1Q,cinema,幸福蓝海国际影城(启东凤凰荟购物中心店),体育休闲服务;影剧院;电影院,人民西路1188号启东凤凰荟购物中心F3层,0513-83211988,121.6349624,31.82084026,,江苏省,,南通市,,启东市,,"{'cost': , 'opentime2': '08:00-24:00', 'seat_ordering': '1', 'rating': '4.1', 'open_time': '08:00-24:00'}"
B0JAA1KUUX,,蝶湖公园公益电影放映点,体育休闲服务;影剧院;影剧院相关,和丰村文体中心,,121.6345711,31.7835428,,江苏省,,南通市,,启东市,,"{'cost': , 'opentime2': , 'seat_ordering': '0', 'rating': '3.0', 'open_time': }"
B0FFL0JIR1,,黄金鲨电玩城(启东凤凰荟购物中心店),体育休闲服务;娱乐场所;游戏厅,汇龙镇人民西路1188号凤凰荟购物中心二楼,18362124518,121.6348476,31.82047337,,江苏省,,南通市,,启东市,,"{'cost': '68.00', 'rating': '4.0'}"
B0JAA9M3HV,,凯洪家园C区-二期公益电影放映点,体育休闲服务;影剧院;影剧院相关,启东市开发区大洪村凯洪家园C区,,121.629088,31.82933014,,江苏省,,南通市,,启东市,,"{'cost': , 'opentime2': , 'seat_ordering': '0', 'rating': '1.1', 'open_time': }"
B0FFK6TTDS,,民俗演艺厅,体育休闲服务;体育休闲服务场所;体育休闲服务场所,东风农场林风公路2201号(近北沿公路)上海江南三民文化村景区内,,121.4948925,31.72120804,,上海市,,上海市,,崇明区,,"{'cost': , 'rating': '3.3'}"
B0I0FHPKHY,,瀚海文化演出剧场(启东店),体育休闲服务;影剧院;剧场,江海南路与钱塘江路交叉口东北侧启东保利大剧院北门往东南到底,,121.6370113,31.78546637,,江苏省,,南通市,,启东市,,"{'cost': , 'opentime2': , 'seat_ordering': '0', 'rating': '4.1', 'open_time': }"
B0FFMFQAEO,,星聚会KTV(启东店),体育休闲服务;娱乐场所;KTV,人民路1188号启东1号广场F2层,0513-83637777,121.6373758,31.81952533,,江苏省,,南通市,,启东市,,"{'cost': '59.00', 'rating': '4.6'}"
B0J0AAA3XE,,YoungSport普拉提瑜伽馆(启东凤凰荟购物中心店),体育休闲服务;运动场馆;健身中心,汇龙镇人民西路1188号凤凰荟凤凰中心商务楼7楼701室,15862858766,121.6351222,31.82043995,,江苏省,,南通市,,启东市,,"{'cost': , 'rating': '3.8'}"
B0JADL9L94,,东疆花苑公益电影放映点,体育休闲服务;影剧院;影剧院相关,汇龙镇城河村东疆花园,,121.6368415,31.79746849,,江苏省,,南通市,,启东市,,"{'cost': , 'opentime2': , 'seat_ordering': '0', 'rating': '1.1', 'open_time': }"
B0HRVR2KYR,,毅酷健身(启东1号广场店),体育休闲服务;运动场馆;健身中心,人民路1188号启东1号广场F4层,17312077888,121.6364402,31.81990785,,江苏省,,南通市,,启东市,,"{'cost': , 'rating': '4.1'}"
B0JGGUU87R,,虫虫乐园(启东店),体育休闲服务;休闲场所;游乐场,凤凰荟购物中心1F-004(2号门外广场),,121.6343892,31.82106516,,江苏省,,南通市,,启东市,,"{'cost': , 'rating': '3.5'}"
B0J2SUJLH5,,星网咖(港西中路善城小区店),体育休闲服务;娱乐场所;网吧,银河路与港西中路交叉口西60米,,121.6376598,31.81362387,,江苏省,,南通市,,启东市,,"{'cost': , 'rating': '4.0'}"
B0I195XH2K,,启东宜博电竞网咖(壹号广场店),体育休闲服务;娱乐场所;网吧,汇龙镇中邦上海城13幢227-228室,,121.6373438,31.8196364,,江苏省,,南通市,,启东市,,"{'cost': , 'rating': '4.1'}"
B0HU5ROWYT,,莹之宝卡丁车乐园(启东凤凰荟购物中心店),体育休闲服务;休闲场所;游乐场,凤凰荟二楼莹之宝卡丁车乐园,,121.6353988,31.82036952,,江苏省,,南通市,,启东市,,"{'cost': , 'rating': '3.4'}"
B0JDR7LZNR,,READY GO(启东凤凰荟购物中心店),体育休闲服务;休闲场所;游乐场,人民西路1188号启东凤凰荟购物中心F2层,,121.6355685,31.82037626,,江苏省,,南通市,,启东市,,"{'cost': , 'rating': '3.5'}"
B0G0R4A4DR,,乐家体育游泳健身,体育休闲服务;运动场馆;健身中心,汇龙镇新安江中路989号负一层,,121.6367425,31.7759684,,江苏省,,南通市,,启东市,,"{'cost': , 'rating': '3.9'}"
B0I0HDRRH0,,莹之宝飞凰体验馆,体育休闲服务;休闲场所;游乐场,人民西路1188号启东凤凰荟购物中心F2层,,121.6357552,31.82058502,,江苏省,,南通市,,启东市,,"{'cost': , 'rating': '3.5'}"
B0G0R4A4DR,,乐家体育游泳健身,体育休闲服务;运动场馆;健身中心,汇龙镇新安江中路989号负一层,,121.6367425,31.7759684,,江苏省,,南通市,,启东市,,"{'cost': , 'rating': '3.9'}"
B0I0HDRRH0,,莹之宝飞凰体验馆,体育休闲服务;休闲场所;游乐场,人民西路1188号启东凤凰荟购物中心F2层,,121.6357552,31.82058502,,江苏省,,南通市,,启东市,,"{'cost': , 'rating': '3.5'}"
B0H1TRJL9T,,天籁清音(启东1号广场店),体育休闲服务;娱乐场所;娱乐场所,人民路1188号启东1号广场F3层,13646297128,121.6369454,31.81966703,,江苏省,,南通市,,启东市,,"{'cost': , 'rating': '3.8'}"
B0KB75GVMW,,云逸宝游戏厅(启东凤凰荟购物中心店),体育休闲服务;娱乐场所;游戏厅,人民西路1188号启东凤凰荟购物中心F3层,,121.6351302,31.82056896,,江苏省,,南通市,,启东市,,"{'cost': , 'rating': '2.9'}"
B0J06UHSBA,,GAME PLAY(启东凤凰荟购物中心店),体育休闲服务;娱乐场所;游戏厅,人民西路1188号启东凤凰荟购物中心F2层,,121.6351651,31.82029186,,江苏省,,南通市,,启东市,,"{'cost': , 'rating': '2.6'}"
B0J6ZAJB2P,,美国瑜伽联盟(启东1号广场店),体育休闲服务;运动场馆;健身中心,人民西路与科汇路交叉口西北120米,,121.6362465,31.81986514,,江苏省,,南通市,,启东市,,"{'cost': , 'rating': '3.5'}"
B0J6ZAKD8Y,,FOX CLUB(启东1号广场店),体育休闲服务;娱乐场所;酒吧,人民路1188号启东1号广场F4层,,121.6367307,31.82009143,,江苏省,,南通市,,启东市,,"{'cost': , 'rating': '3.6'}"
B0FFFRJQZ1,,温莎堡健身,体育休闲服务;运动场馆;健身中心,汇龙镇和平中路368号温莎堡二楼,0513-83360777;0513-83770666,121.642715,31.80870884,,江苏省,,南通市,,启东市,,"{'cost': , 'rating': '4.7'}"
B0FFLAZ9UN,,启东市动乐美游泳瑜伽拳击健身,体育休闲服务;体育休闲服务场所;体育休闲服务场所,中邦碧桂园一号广场4层,,121.6364761,31.82003181,,江苏省,,南通市,,启东市,,"{'cost': , 'rating': '4.0'}"
B0IDMKW1BT,,星耀台球俱乐部(启东1号广场店),体育休闲服务;运动场馆;台球厅,人民路1188号启东1号广场F2层,,121.6373318,31.81967443,,江苏省,,南通市,,启东市,,"{'cost': , 'rating': '4.1'}"
B0J22ZXB0I,,好游戏星网咖,体育休闲服务;娱乐场所;网吧,银河路与港西中路交叉口西60米,,121.6377088,31.81360079,,江苏省,,南通市,,启东市,,"{'cost': , 'rating': '2.9'}"
B02010XOWR,,陆公馆主题歌城(人民西路店),体育休闲服务;娱乐场所;KTV,人民中路1188号中邦上海城7幢,0513-83777111,121.6407015,31.81836981,,江苏省,,南通市,,启东市,,"{'cost': '78.00', 'rating': '4.6'}"
B0KBULMIIM,,东哥台球工作室,体育休闲服务;运动场馆;台球厅,和平南路202号蓝钻商务楼405室,,121.6398471,31.80493194,,江苏省,,南通市,,启东市,,"{'cost': , 'rating': '3.4'}"
B0JA2ZI9I5,,JLS普拉提塑形馆,体育休闲服务;运动场馆;健身中心,和平南路202号,,121.6400767,31.80503758,,江苏省,,南通市,,启东市,,"{'cost': , 'rating': '4.0'}"
B0JKP5YY5H,,巴卜蚁(启东1号广场店),体育休闲服务;休闲场所;游乐场,启东1号广场,,121.6364322,31.81993287,,江苏省,,南通市,,启东市,,"{'cost': , 'rating': '1.1'}"
B0JRCC1G7C,,启东酷美体瑜伽馆,体育休闲服务;运动场馆;健身中心,海四达科创园东南门西南60米,0513-83110899,121.6402035,31.80526742,,江苏省,,南通市,,启东市,,"{'cost': , 'rating': '3.4'}"
B0JK4MLYBK,,尹彬鲜果,体育休闲服务;休闲场所;采摘园,富源路188号,,121.6342808,31.82860165,,江苏省,,南通市,,启东市,,"{'cost': , 'rating': '3.5'}"
B0HR06HJ7F,,聚鑫棋牌,体育休闲服务;娱乐场所;棋牌室,人民西路与腾飞路交叉口东南160米,,121.6385141,31.81798327,,江苏省,,南通市,,启东市,,"{'cost': , 'rating': '3.8'}"
B0J3RMZEE7,,启东小搏翔体育公园,体育休闲服务;体育休闲服务场所;体育休闲服务场所,新安江中路66号,,121.6397378,31.77534757,,江苏省,,南通市,,启东市,,"{'cost': , 'rating': '3.4'}"
B0JAA1KNL1,,香榭水岸-12号楼公益电影放映点,体育休闲服务;影剧院;影剧院相关,汇龙镇南城区香榭水岸,,121.6403797,31.81088306,,江苏省,,南通市,,启东市,,"{'cost': , 'opentime2': , 'seat_ordering': '0', 'rating': '2.9', 'open_time': }"
B0JAA1KNL1,,香榭水岸-12号楼公益电影放映点,体育休闲服务;影剧院;影剧院相关,汇龙镇南城区香榭水岸,,121.6403797,31.81088306,,江苏省,,南通市,,启东市,,"{'cost': , 'opentime2': , 'seat_ordering': '0', 'rating': '2.9', 'open_time': }"
B02010U8KO,,番茄农庄(永兴西路),体育休闲服务;度假疗养场所;度假村|体育休闲服务;休闲场所;休闲场所,海永乡长海公路999号,,121.4325165,31.78643548,,江苏省,,南通市,,海门区,,"{'cost': , 'rating': '3.6'}"
B0FFIHFN41,,爱尚网咖(港东中路店),体育休闲服务;娱乐场所;网吧,汇龙镇人民西路1688号,13901462574,121.6426434,31.81615222,,江苏省,,南通市,,启东市,,"{'cost': , 'rating': '4.4'}"
B0I24HLAWK,,蓝调,体育休闲服务;体育休闲服务场所;体育休闲服务场所,灵秀西路与城河巷交叉口北120米,,121.640744,31.81131254,,江苏省,,南通市,,启东市,,"{'cost': , 'rating': '2.7'}"
B02010VFP6,,国农生态园,体育休闲服务;休闲场所;采摘园,永兴西路与启海线交叉口东南280米,,121.4314966,31.786797,,江苏省,,南通市,,海门区,,"{'cost': , 'rating': '3.6'}"
B0H2ZHA5RI,,凤凰棋牌,体育休闲服务;娱乐场所;棋牌室,汇龙镇和平中路399温莎堡斜对面,0513-83656088,121.6437971,31.80867401,,江苏省,,南通市,,启东市,,"{'cost': , 'rating': '4.2'}"
B0JAA9PIWE,,启东消防大队公益电影放映点,体育休闲服务;影剧院;影剧院相关,城河村(消防大队),,121.643232,31.79801823,,江苏省,,南通市,,启东市,,"{'cost': , 'opentime2': , 'seat_ordering': '0', 'rating': '1.4', 'open_time': }"
B0FFFPOYOU,,红辉棋牌,体育休闲服务;娱乐场所;棋牌室,灵秀中路与和平中路交叉口东40米,,121.6437901,31.80870903,,江苏省,,南通市,,启东市,,"{'cost': , 'rating': '3.5'}"
B0KB7UES96,,Beer experience进口啤酒体验吧,体育休闲服务;娱乐场所;酒吧,港西中路与人民西路交叉口北120米,,121.6407963,31.81848268,,江苏省,,南通市,,启东市,,"{'cost': , 'rating': }"
B0H1XM4JDP,,PRO GYM冠军健身,体育休闲服务;运动场馆;健身中心,汇龙镇人民西路1019号3层,15651416793,121.6437516,31.81590531,,江苏省,,南通市,,启东市,,"{'cost': , 'rating': '4.1'}"
B0J3K9KV3X,,顽家WAN,体育休闲服务;娱乐场所;酒吧,江海南路346号,18552304999,121.6466636,31.80262008,,江苏省,,南通市,,启东市,,"{'cost': , 'rating': '4.2'}"
B0JDZOX0QI,,中邦毅酷会所,体育休闲服务;体育休闲服务场所;体育休闲服务场所,中邦上海城2期东北侧180米,,121.6414419,31.82235729,,江苏省,,南通市,,启东市,,"{'cost': , 'rating': '4.1'}"
B0J0TSTJ5D,,嫣儿艾灸馆,体育休闲服务;休闲场所;休闲场所,汇龙镇和平中路493号嫣儿艾灸馆,,121.6447383,31.81032468,,江苏省,,南通市,,启东市,,"{'cost': , 'rating': '3.8'}"
B0I17YS3B0,,熹境荟游泳健身中心(启东银洲希尔顿逸林酒店),体育休闲服务;运动场馆;游泳馆,牡丹江中路与江海南路交叉口东200米,18154237887,121.6468237,31.79859215,,江苏省,,南通市,,启东市,,"{'cost': , 'rating': '3.9'}"
B0FFFO7RVD,diner,黛·乔纳西餐厅(开来华府店),餐饮服务;外国餐厅;西餐厅(综合风味)|体育休闲服务;娱乐场所;酒吧,汇龙镇和平中路527-1号商铺,0513-83321917;13815240088;13815249033,121.6471807,31.81374603,,江苏省,,南通市,,启东市,,"{'cost': '86.00', 'opentime2': '11:00-01:30', 'rating': '4.6', 'open_time': '11:00-01:30', 'meal_ordering': '0'}"
B0I12L7ML3,,中邦健身中心,体育休闲服务;运动场馆;健身中心,中邦上海城2期东北侧160米,,121.6412513,31.82236661,,江苏省,,南通市,,启东市,,"{'cost': , 'rating': '3.6'}"
B0JADH8X9U,,中邦上海城公益电影放映点,体育休闲服务;影剧院;影剧院相关,启东市开发区大洪村中邦上海城,,121.6403368,31.82260115,,江苏省,,南通市,,启东市,,"{'cost': , 'opentime2': , 'seat_ordering': '0', 'rating': '1.1', 'open_time': }"
B0JUMZ1E6Z,,人海里·助教·桌游·Club,体育休闲服务;娱乐场所;娱乐场所,牡丹江中路银州国际金融中心6号楼903,15190839000,121.646576,31.79958974,,江苏省,,南通市,,启东市,,"{'cost': , 'rating': '4.0'}"
B0JKFH15NU,,觅友24h自助台球(三美街店),体育休闲服务;运动场馆;台球厅,江海南路三美街三号楼二楼209,15370823393,121.6471487,31.80341336,,江苏省,,南通市,,启东市,,"{'cost': , 'rating': '4.3'}"
B0G2T18TS4,,启东市麻蚁篮球俱乐部(彩虹购物中心店),体育休闲服务;运动场馆;篮球场馆,彩虹购物中心,,121.6405568,31.82971905,,江苏省,,南通市,,启东市,,"{'cost': , 'rating': '4.1'}"
B0JUMZ1E6Z,,人海里·助教·桌游·Club,体育休闲服务;娱乐场所;娱乐场所,牡丹江中路银州国际金融中心6号楼903,15190839000,121.646576,31.79958974,,江苏省,,南通市,,启东市,,"{'cost': , 'rating': '4.0'}"
B0JKFH15NU,,觅友24h自助台球(三美街店),体育休闲服务;运动场馆;台球厅,江海南路三美街三号楼二楼209,15370823393,121.6471487,31.80341336,,江苏省,,南通市,,启东市,,"{'cost': , 'rating': '4.3'}"
B0G2T18TS4,,启东市麻蚁篮球俱乐部(彩虹购物中心店),体育休闲服务;运动场馆;篮球场馆,彩虹购物中心,,121.6405568,31.82971905,,江苏省,,南通市,,启东市,,"{'cost': , 'rating': '4.1'}"
B0JA29GU5G,,照护一中心,体育休闲服务;度假疗养场所;疗养院,汇龙镇银洲国际金融中心5号楼1304,,121.646057,31.79891254,,江苏省,,南通市,,启东市,,"{'cost': , 'rating': }"
B0JRPUNKDK,,九飞乒乓球俱乐部(明天广场旗舰店),体育休闲服务;运动场馆;乒乓球馆,人民路972号-102号,13063585898,121.6466665,31.81576027,,江苏省,,南通市,,启东市,,"{'cost': , 'rating': '4.2'}"
B0J1994VGK,,启东市晓旋乒乓球俱乐部,体育休闲服务;运动场馆;乒乓球馆,汇龙镇江海南路302号三美商业广场3幢303室,,121.64749,31.80371381,,江苏省,,南通市,,启东市,,"{'cost': , 'rating': '3.7'}"
B02010XPA1,,好乐迪(威尼斯假日酒店店),体育休闲服务;娱乐场所;KTV,汇龙镇民乐西路848号威尼斯假日酒店2层,0513-68885555,121.6484971,31.8172043,,江苏省,,南通市,,启东市,,"{'cost': '56.00', 'rating': '4.7'}"
B0JAAOPUO9,,城河新村-50号楼公益电影放映点,体育休闲服务;影剧院;影剧院相关,启东市大学启东分校,,121.6460862,31.80730385,,江苏省,,南通市,,启东市,,"{'cost': , 'opentime2': , 'seat_ordering': '0', 'rating': '1.1', 'open_time': }"
B0JDPSFEZD,,申铃健身,体育休闲服务;运动场馆;健身中心,汇龙镇万豪花园别墅33号1楼,13862897991,121.6456381,31.8183435,,江苏省,,南通市,,启东市,,"{'cost': , 'rating': '3.7'}"
B0J6SU3L9Z,,麻雀棋牌,体育休闲服务;娱乐场所;棋牌室,人民中路970号三楼,0513-83999993;18951415321,121.6468372,31.8153639,,江苏省,,南通市,,启东市,,"{'cost': , 'rating': '4.1'}"
B0JDPSVATK,,谷雨游戏,体育休闲服务;娱乐场所;游戏厅,汇龙镇明天广场10号楼,,121.644583,31.8171191,,江苏省,,南通市,,启东市,,"{'cost': , 'rating': '1.1'}"
B0JKFC27W0,,Crazy Ant,体育休闲服务;娱乐场所;酒吧,合兴中心路与合兴一路交叉口西南80米,,121.6404799,31.82975519,,江苏省,,南通市,,启东市,,"{'cost': , 'rating': '2.9'}"
B0JKRHY35X,,启东天地汇KTV,体育休闲服务;娱乐场所;KTV,紫薇西路1108号,4008251176,121.6440581,31.82725678,,江苏省,,南通市,,启东市,,"{'cost': , 'rating': '4.3'}"
B0I32HLNVN,,拾壹普拉提瑜伽,体育休闲服务;运动场馆;健身中心,万豪花园别墅30号楼2楼,17388027398,121.6465884,31.8180538,,江苏省,,南通市,,启东市,,"{'cost': , 'rating': '4.1'}"
B0J0DHRNH0,,發球吧24H自助台球棋牌,体育休闲服务;运动场馆;台球厅,人民中路823号(伯印·致选酒店二楼东侧),18521775292,121.6487459,31.81402731,,江苏省,,南通市,,启东市,,"{'cost': , 'rating': '4.4'}"
B0JGH6PQZF,,聚闲阁茶艺棋牌,体育休闲服务;娱乐场所;棋牌室,人民中路与和平中路交叉口西北160米,18516072999,121.6461514,31.81562514,,江苏省,,南通市,,启东市,,"{'cost': , 'rating': '3.7'}"
B0FFFR1MEX,cinema,华夏影城(启东店),体育休闲服务;影剧院;电影院,人民中路773号永安广场3层,,121.6499707,31.81328099,,江苏省,,南通市,,启东市,,"{'cost': , 'opentime2': '09:00-23:00', 'seat_ordering': '1', 'rating': '3.9', 'open_time': '09:00-23:00'}"
B0JAXR7K6C,,明天广场公益电影放映点,体育休闲服务;影剧院;影剧院相关,汇龙镇南城区明天广场,,121.6458019,31.81690297,,江苏省,,南通市,,启东市,,"{'cost': , 'opentime2': , 'seat_ordering': '0', 'rating': '1.1', 'open_time': }"
B0FFH47HS3,,慧丰跆拳道(人民中路店),体育休闲服务;运动场馆;运动场所,人民中路811号中国银行启东支行3楼,18205018370,121.6491621,31.81395956,,江苏省,,南通市,,启东市,,"{'cost': '774.00', 'rating': '4.1'}"
B0JDPSMRZ9,,姐妹棋牌,体育休闲服务;娱乐场所;棋牌室,汇龙镇和平中路527号-4号,,121.6472606,31.81413995,,江苏省,,南通市,,启东市,,"{'cost': , 'rating': '3.4'}"
B0J1VR3YWN,,新动力(太仓)越野公园,体育休闲服务;体育休闲服务场所;体育休闲服务场所,郑和纪念馆东侧130米,,121.2419438,31.60371827,,江苏省,,苏州市,,太仓市,,"{'cost': , 'rating': '3.8'}"
B0FFFFBYOW,,滨江名都健身会所,体育休闲服务;运动场馆;健身中心,港区太仓港港口开发区碧云路8号(滨江大道与碧云路交会处)滨江名都附近,,121.2196968,31.61230826,,江苏省,,苏州市,,太仓市,,"{'cost': , 'rating': '3.8'}"
B0JAU7MET2,,花漫九里台球俱乐部,体育休闲服务;运动场馆;台球厅,浮桥镇瑞江路66号,,121.2078572,31.62226302,,江苏省,,苏州市,,太仓市,,"{'cost': , 'rating': '4.1'}"
B0IG9HB2UB,,青蓝搏击馆,体育休闲服务;运动场馆;运动场所,上北门秋水街12室二楼,15221886142,121.2128924,31.61387321,,江苏省,,苏州市,,太仓市,,"{'cost': , 'rating': '4.0'}"
B0JUVC542L,,永利会所(港城邻里中心店),体育休闲服务;娱乐场所;娱乐场所,龙江路288号港城邻里中心F1层,,121.2081128,31.61848238,,江苏省,,苏州市,,太仓市,,"{'cost': , 'rating': '4.2'}"
B0IKPATCHJ,,金世纪娱乐,体育休闲服务;娱乐场所;娱乐场所,龙江路286号,0512-53991028;13598464555,121.2087057,31.61763814,,江苏省,,苏州市,,太仓市,,"{'cost': , 'rating': '4.3'}"
B0KB2NEZCP,,哒哒台球俱乐部,体育休闲服务;运动场馆;台球厅,新华联滨江雅苑东南门旁,,121.212604,31.61425688,,江苏省,,苏州市,,太仓市,,"{'cost': , 'rating': '3.5'}"
B0FFK6THSV,,滨江羽毛球馆,体育休闲服务;运动场馆;羽毛球场,龙江路滨江华庭小区内,,121.213269,31.61152268,,江苏省,,苏州市,,太仓市,,"{'cost': , 'rating': '4.0'}"
B0JRKBK3SC,,七浦塘生态公园-篮球场,体育休闲服务;运动场馆;篮球场馆,浮宅路与龙江路交叉口东北140米,,121.2199435,31.6068666,,江苏省,,苏州市,,太仓市,,"{'cost': , 'rating': '3.6'}"
B0JU5S53K2,,把把胡棋牌室,体育休闲服务;娱乐场所;棋牌室,龙江路港湾新城项目S1号楼106号商铺二楼,15370176607,121.2094058,31.61515105,,江苏省,,苏州市,,太仓市,,"{'cost': , 'rating': '4.3'}"
B0J1BYIFC3,,听胡茶艺棋牌,体育休闲服务;娱乐场所;棋牌室,龙江路280号公园郡9栋15商铺,18136081389,121.2079407,31.61686318,,江苏省,,苏州市,,太仓市,,"{'cost': , 'rating': '4.0'}"
B0JDBZ7UCU,,乐满园棋牌室,体育休闲服务;娱乐场所;棋牌室,龙江路与玉兰街交叉口北100米,,121.2086958,31.61588815,,江苏省,,苏州市,,太仓市,,"{'cost': , 'rating': '3.9'}"
B0FFFF05ZJ,,永利娱乐KTV,体育休闲服务;娱乐场所;KTV,龙江路288号港城邻里中心F1层,,121.2068832,31.6172548,,江苏省,,苏州市,,太仓市,,"{'cost': , 'rating': '4.3'}"
B0K66RYII9,,聚贤庄台球棋牌,体育休闲服务;运动场馆;台球厅|体育休闲服务;娱乐场所;棋牌室,龙江路与映雪路交叉口东140米,,121.208132,31.61625643,,江苏省,,苏州市,,太仓市,,"{'cost': , 'rating': '3.3'}"
B0I1T584LS,,威卡健身,体育休闲服务;运动场馆;健身中心,龙江路与映雪路交叉口东120米,,121.2080429,31.61629232,,江苏省,,苏州市,,太仓市,,"{'cost': , 'rating': '3.4'}"
B0J25UOYLT,,星伯锐台球俱乐部,体育休闲服务;运动场馆;台球厅,北环路港区商务中心二楼,18963658009,121.2027238,31.62183508,,江苏省,,苏州市,,太仓市,,"{'cost': , 'rating': '4.3'}"
B0FFHOD57I,cinema,中影五洋国际影城(港区店),体育休闲服务;影剧院;电影院,浮桥镇港区五洋滨江广场三楼,0512-88829188,121.2041783,31.61790616,,江苏省,,苏州市,,太仓市,,"{'cost': , 'opentime2': '周一至周五:11:30-24:00；周六至周日:11:00-12:00', 'seat_ordering': '1', 'rating': '4.5', 'open_time': '11:30-24:00'}"
B0G0VSKFO7,,港区金风尚量贩式KTV(五洋滨江广场店),体育休闲服务;娱乐场所;KTV,五洋滨江广场3层,0512-33002828,121.2036044,31.61861535,,江苏省,,苏州市,,太仓市,,"{'cost': , 'rating': '4.1'}"
B0FFIZO3G2,,嘻乐哆儿童乐园(五洋滨江广场店),体育休闲服务;休闲场所;游乐场,浮桥镇五洋滨江广场3楼,,121.2037827,31.6183326,,江苏省,,苏州市,,太仓市,,"{'cost': , 'rating': '3.9'}"
B0I2LCB3K2,,雨润发儿童亲子成长乐园(五洋滨江广场店),体育休闲服务;休闲场所;游乐场,蔷薇街与龙江路交叉口西80米,,121.2041973,31.61794818,,江苏省,,苏州市,,太仓市,,"{'cost': , 'rating': '3.9'}"
B0JGG5P7JI,,梦歌会所KTV(五洋滨江广场店),体育休闲服务;娱乐场所;KTV,太仓港经济技术开发区龙江路299号5幢01,,121.2036405,31.61721842,,江苏省,,苏州市,,太仓市,,"{'cost': , 'rating': '4.5'}"
B0FFMCIAH5,,动琦健身(五洋滨江广场店),体育休闲服务;运动场馆;健身中心,浮桥镇港区五洋滨江广场三楼动琦健身,18340056286,121.2030926,31.61881363,,江苏省,,苏州市,,太仓市,,"{'cost': , 'rating': '3.8'}"
B0H6BMFAKJ,,乔氏台球俱乐部(五洋滨江广场店),体育休闲服务;运动场馆;台球厅,浮桥镇港区五洋滨广场三楼,0512-53989359,121.2031067,31.61813966,,江苏省,,苏州市,,太仓市,,"{'cost': , 'rating': '4.4'}"
B0IRSUDOG5,,爱动体育(五洋滨江广场店),体育休闲服务;运动场馆;篮球场馆,浮桥镇五洋滨江广场3楼,18405213111,121.203381,31.61840004,,江苏省,,苏州市,,太仓市,,"{'cost': , 'rating': '4.1'}"
B0J0N1JCQB,,胜武武术搏击俱乐部(五洋滨江广场店),体育休闲服务;运动场馆;运动场所,浮桥镇龙江路五洋广场三楼299号1幢301,15606241372,121.2036504,31.61855142,,江苏省,,苏州市,,太仓市,,"{'cost': , 'rating': '3.8'}"
B0FFM5MPXP,,和平花园休闲会所,体育休闲服务;休闲场所;休闲场所,南环路与浏浮路交叉口东100米,,121.2191785,31.59857714,,江苏省,,苏州市,,太仓市,,"{'cost': , 'rating': '3.5'}"
B0FFH21MFA,,太仓市浮桥镇和平花园社区文体活动中心,体育休闲服务;休闲场所;休闲场所,浮桥镇,,121.2133131,31.59889006,,江苏省,,苏州市,,太仓市,,"{'cost': , 'rating': '1.3'}"
B0FFHE05J8,,星辰网吧,体育休闲服务;娱乐场所;网吧,太仓市商业街185幢301,15370301508,121.2093621,31.60012835,,江苏省,,苏州市,,太仓市,,"{'cost': , 'rating': '4.0'}"
B0FFHD3D7U,,宝乐迪量贩式KTV(浮桥欧德福城市生活广场中兴商业街店),体育休闲服务;娱乐场所;KTV,中兴商业街(浮桥欧德福城市生活广场店),,121.2092058,31.60051514,,江苏省,,苏州市,,太仓市,,"{'cost': '43.00', 'rating': '4.1'}"
B0JRVSNVVH,,权璟台球俱乐部,体育休闲服务;运动场馆;台球厅,浮桥镇中兴街186号欧得福商城东侧201-203室,,121.2091748,31.6005601,,江苏省,,苏州市,,太仓市,,"{'cost': , 'rating': '4.2'}"
B0FFGMS6AM,,飓风网咖(浮桥欧德福城市生活广场中兴商业街店),体育休闲服务;娱乐场所;网吧,浮桥镇中心街185栋,,121.20853,31.60007831,,江苏省,,苏州市,,太仓市,,"{'cost': , 'rating': '4.0'}"
B0FFKBIEOI,,港城网咖,体育休闲服务;体育休闲服务场所;体育休闲服务场所,中兴街185-303,0512-53704709,121.2088985,31.60010677,,江苏省,,苏州市,,太仓市,,"{'cost': , 'rating': '3.9'}"
B0H2770G1X,,精武龙诚武术馆,体育休闲服务;运动场馆;运动场所,浮桥镇中兴街185号-302室,15250000553,121.2092179,31.60012317,,江苏省,,苏州市,,太仓市,,"{'cost': , 'rating': '4.2'}"
B0FFGA6P9B,,名仕台球(浮桥店),体育休闲服务;运动场馆;台球厅,浮桥镇中兴街25号,13151668518;18913796177,121.2060193,31.60189099,,江苏省,,苏州市,,太仓市,,"{'cost': , 'rating': '4.1'}"
B0FFI1A4UZ,,力顿健身(浮桥店),体育休闲服务;运动场馆;健身中心,浮桥镇中兴商业街188号2楼,17761870862,121.2074645,31.60004494,,江苏省,,苏州市,,太仓市,,"{'cost': , 'rating': '4.4'}"
B0FFJUOP3N,,神韵酒吧,体育休闲服务;娱乐场所;酒吧,中兴南街与镇中路交叉口南240米,,121.2060784,31.60230205,,江苏省,,苏州市,,太仓市,,"{'cost': , 'rating': '3.9'}"
B0FFH3N0TS,,金豪唛量贩时尚KTV,体育休闲服务;娱乐场所;KTV,中兴路189栋欧德福商业广场2楼,0512-33023111,121.2071131,31.5996295,,江苏省,,苏州市,,太仓市,,"{'cost': '80.00', 'rating': '4.3'}"
B0FFJV04TL,,尊爵台球,体育休闲服务;运动场馆;台球厅,浮桥镇中兴街185-30号,,121.2087382,31.60018956,,江苏省,,苏州市,,太仓市,,"{'cost': , 'rating': '3.5'}"
B0J3DRKFXU,,谈小娱24小时自助台球棋牌(和平花园店),体育休闲服务;娱乐场所;棋牌室,浮桥镇中兴街187号302室,15062590933,121.2079221,31.60005453,,江苏省,,苏州市,,太仓市,,"{'cost': , 'rating': '4.3'}"
B0FFHEQ2P7,hotel,上海近江开心农场(崇明店),住宿服务;住宿服务相关;住宿服务相关|体育休闲服务;休闲场所;休闲场所,庙镇南星村庆华中路304号,021-59360016;19101711735,121.3161579,31.6804923,,上海市,,上海市,,崇明区,,"{'cost': , 'star': , 'opentime2': '00:00-24:00', 'rating': '4.1', 'lowest_price': , 'hotel_ordering': '1', 'open_time': '24小时营业'}"
B0FFIB8OOE,,崇明区水木坊农家乐,体育休闲服务;体育休闲服务场所;体育休闲服务场所,庙镇崇安村305号,18964782191,121.3354104,31.65448051,,上海市,,上海市,,崇明区,,"{'cost': , 'rating': '3.6'}"
B0FFIBMEED,,上富大物竞技垂钓场,体育休闲服务;体育休闲服务场所;体育休闲服务场所,苏州合久防火板有限公司东南侧110米,18262688828,121.2302027,31.57674945,,江苏省,,苏州市,,太仓市,,"{'cost': , 'rating': }"
B0J3ULZH82,,麻将馆,体育休闲服务;娱乐场所;棋牌室,浮桥镇河池花园12栋6号车库,,121.1951769,31.59352238,,江苏省,,苏州市,,太仓市,,"{'cost': , 'rating': '2.7'}"
B0FFM4DJCO,,老姚翠冠梨采摘园,体育休闲服务;休闲场所;采摘园,联益村4队409号,17521303539,121.336882,31.66761825,,上海市,,上海市,,崇明区,,"{'cost': , 'rating': '4.0'}"
B0IUVUT5JN,,太仓市浮桥镇浮南社区乒乓球队,体育休闲服务;运动场馆;乒乓球馆,七丫路与沈家浜路交叉口东320米,,121.1969564,31.58780842,,江苏省,,苏州市,,太仓市,,"{'cost': , 'rating': '3.8'}"
B0FFK1XP2M,,崇明区如懿小院精品民宿,体育休闲服务;娱乐场所;棋牌室,庙镇南星村丁棚1510号,15316163198,121.3264247,31.68914718,,上海市,,上海市,,崇明区,,"{'cost': , 'rating': '5.0'}"
B0G3JR78YM,,休闲棋牌,体育休闲服务;娱乐场所;棋牌室,捷诚木材东北门西北90米,,121.2487011,31.56761702,,江苏省,,苏州市,,太仓市,,"{'cost': , 'rating': '3.6'}"
B0FFJ9SOF6,,小杨棋牌室,体育休闲服务;娱乐场所;棋牌室,浮桥镇康居花园43栋101室3号车库,,121.1898485,31.59248768,,江苏省,,苏州市,,太仓市,,"{'cost': , 'rating': '0.8'}"
B0FFKZ8EYO,,荣星农家乐,体育休闲服务;休闲场所;休闲场所,平江路,13906223213,121.1657513,31.63256012,,江苏省,,苏州市,,太仓市,,"{'cost': , 'rating': '4.0'}"
B0FFICMG0Z,,万安村社区老年活动室,体育休闲服务;休闲场所;休闲场所,庙镇万安路与江万公路交叉口东40米,,121.3436356,31.65455358,,上海市,,上海市,,崇明区,,"{'cost': , 'rating': }"
B0FFG14PUK,,天天网咖(紫晶商务宾馆店),体育休闲服务;娱乐场所;网吧,紫晶商务宾馆(南环路北),,121.1844894,31.59316838,,江苏省,,苏州市,,太仓市,,"{'cost': , 'rating': '4.1'}"
B0FFJMQ5NS,,垂钓园,体育休闲服务;休闲场所;垂钓园,馥怡牌翠冠梨采摘园北侧60米,13801701377,121.3440567,31.66703829,,上海市,,上海市,,崇明区,,"{'cost': , 'rating': '4.3'}"
B0K6NHXN3R,,舞厅,体育休闲服务;娱乐场所;迪厅,南环路与346国道交叉口东北80米,,121.1841518,31.59301479,,江苏省,,苏州市,,太仓市,,"{'cost': , 'rating': '3.8'}"
B0FFKSPSL9,,崇明全息农家乐,体育休闲服务;休闲场所;休闲场所,庙镇启瀛村616号,18918671900,121.3360875,31.68201346,,上海市,,上海市,,崇明区,,"{'cost': , 'rating': '4.1'}"
B0G0LOL9QO,,九鬼钓场,体育休闲服务;休闲场所;垂钓园,农机路与346国道交叉口西260米,,121.1925823,31.58293468,,江苏省,,苏州市,,太仓市,,"{'cost': , 'rating': '4.2'}"
B0FFJB8LCD,,馥怡牌翠冠梨采摘园,体育休闲服务;休闲场所;采摘园,联益六队附近,,121.3442543,31.66646192,,上海市,,上海市,,崇明区,,"{'cost': , 'rating': '3.7'}"
B0JGYUY09J,,隆兴供应链羽毛球馆,体育休闲服务;运动场馆;羽毛球场,北环路318号,,121.1716366,31.60706141,,江苏省,,苏州市,,太仓市,,"{'cost': , 'rating': '3.7'}"
B0IK5UTBFF,,一号钓场-路亚区,体育休闲服务;体育休闲服务场所;体育休闲服务场所,浮桥镇申江路,13382111863;18662227969,121.1594387,31.6296913,,江苏省,,苏州市,,太仓市,,"{'cost': , 'rating': '4.0'}"
B0FFGQ60KQ,,伟联草莓园庙南基地,体育休闲服务;休闲场所;采摘园,庙镇庙南村窑南一队,13818424156,121.3318079,31.69483731,,上海市,,上海市,,崇明区,,"{'cost': , 'rating': '4.0'}"
B0FFJ177WT,,垂钓园,体育休闲服务;休闲场所;垂钓园,新闸路566号,13801701377,121.3556394,31.64109453,,上海市,,上海市,,崇明区,,"{'cost': , 'rating': '4.3'}"
B0FFGCCIXX,,皓晶庄园,体育休闲服务;休闲场所;休闲场所,浮桥新邵村6组015号,0512-53687616,121.1872388,31.57927587,,江苏省,,苏州市,,太仓市,,"{'cost': , 'rating': '4.5'}"
B0FFKMSO07,hotel,西岸氧吧(民宿),住宿服务;住宿服务相关;住宿服务相关|体育休闲服务;休闲场所;休闲场所,庙镇庙南村1438号,021-59365178;13621811770,121.3362414,31.70170851,,上海市,,上海市,,崇明区,,"{'cost': , 'star': , 'opentime2': '08:00-20:00', 'rating': '4.1', 'lowest_price': , 'hotel_ordering': '0', 'open_time': '08:00-20:00'}"
B0JUAH1Z57,,苏州市·时思庄园,体育休闲服务;体育休闲服务场所;体育休闲服务场所,太仓时思生态园林东南侧120米,17321025709,121.1463745,31.63916594,,江苏省,,苏州市,,太仓市,,"{'cost': , 'rating': '4.5'}"
B0FFG8WSPF,,太仓时思生态园林,体育休闲服务;休闲场所;休闲场所,时沪路12号,13611976884,121.1455419,31.64002853,,江苏省,,苏州市,,太仓市,,"{'cost': , 'rating': '4.4'}"
B0HK01JE7O,,房车营地,体育休闲服务;休闲场所;露营地,庙南村1438号西岸氧吧,,121.3374645,31.70385342,,上海市,,上海市,,崇明区,,"{'cost': , 'rating': '3.7'}"
B0JUVXCCOW,,方桥村阿婷鱼塘,体育休闲服务;休闲场所;垂钓园,方桥村阿婷鱼塘东侧110米,,121.1555635,31.6000416,,江苏省,,苏州市,,太仓市,,"{'cost': , 'rating': '4.3'}"
B0JASH6PVH,,庙镇种种片林,体育休闲服务;体育休闲服务场所;体育休闲服务场所,宏海公路与庙南北路交叉口东360米,,121.3463108,31.70361563,,上海市,,上海市,,崇明区,,"{'cost': , 'rating': '4.0'}"
B001508959,,上海市崇明江龙老年公寓,体育休闲服务;度假疗养场所;疗养院,庙镇宏海公路88号,021-69361001,121.3632681,31.68082816,,上海市,,上海市,,崇明区,,"{'cost': , 'rating': }"
B0FFJKI5OH,,海上梦府,体育休闲服务;体育休闲服务场所;体育休闲服务场所,庙镇江镇路803号,13512142285,121.3573671,31.68903788,,上海市,,上海市,,崇明区,,"{'cost': , 'rating': '4.0'}"
B0JKDC5B5F,,九曲渔人谷生态垂钓中心,体育休闲服务;休闲场所;垂钓园,九曲北牌九路,,121.1481507,31.60531621,,江苏省,,苏州市,,太仓市,,"{'cost': , 'rating': '3.7'}"
B0HUGHRHSL,,上海市崇明区新风景农家乐,体育休闲服务;休闲场所;休闲场所,庙镇镇东村216号,,121.3475225,31.70137639,,上海市,,上海市,,崇明区,,"{'cost': , 'rating': '3.7'}"
B0J1271GFE,,太仓灰太郎雨亦林钓场,体育休闲服务;休闲场所;垂钓园,先峰路与芦沟路交叉口西北480米,,121.1389199,31.62153464,,江苏省,,苏州市,,太仓市,,"{'cost': , 'rating': '4.4'}"
B0H6HCHYRH,,瀛风体育训练中心,体育休闲服务;休闲场所;休闲场所,区工业园区中街山路788号,18964560927,121.375303,31.63896926,,上海市,,上海市,,崇明区,,"{'cost': , 'rating': '4.6'}"
B0IK5UWA8R,,一号钓场-台钓区,体育休闲服务;休闲场所;垂钓园,方桥村,13382111863;18662227969,121.1509984,31.5911517,,江苏省,,苏州市,,太仓市,,"{'cost': , 'rating': '4.1'}"
B0J355VJV2,,元六小天地,体育休闲服务;体育休闲服务场所;体育休闲服务场所,城桥镇元六村新海518号,,121.3714059,31.65677948,,上海市,,上海市,,崇明区,,"{'cost': , 'rating': '3.8'}"
B0I3FRTJ6A,,方桥村采摘基地,体育休闲服务;体育休闲服务场所;体育休闲服务场所,方红路与西浮宅路交叉口南120米,,121.15245,31.59313021,,江苏省,,苏州市,,太仓市,,"{'cost': , 'rating': '3.5'}"
B0HDK7DLP9,,颐和草山农庄,体育休闲服务;休闲场所;休闲场所,庙镇江镇村717号,18516186952,121.3606994,31.69008519,,上海市,,上海市,,崇明区,,"{'cost': , 'rating': '3.8'}"
B0JGR75RFY,,雨田斋,体育休闲服务;休闲场所;采摘园,庙镇镇东村1148号,17701806279,121.350165,31.70519029,,上海市,,上海市,,崇明区,,"{'cost': , 'rating': '3.7'}"
B0H1SZGMC8,,开心小院农家乐,体育休闲服务;休闲场所;休闲场所,城桥镇新闸村近海508号,,121.3743311,31.64994937,,上海市,,上海市,,崇明区,,"{'cost': , 'rating': '3.7'}"
B0FFJB1GWD,,群星羽毛球馆,体育休闲服务;体育休闲服务场所;体育休闲服务场所,城桥镇工业园区中街山路788号,021-59610847,121.3755288,31.63801405,,上海市,,上海市,,崇明区,,"{'cost': , 'rating': '3.8'}"
B0FFJB1GWD,,群星羽毛球馆,体育休闲服务;体育休闲服务场所;体育休闲服务场所,城桥镇工业园区中街山路788号,021-59610847,121.3755288,31.63801405,,上海市,,上海市,,崇明区,,"{'cost': , 'rating': '3.8'}"
B0KDKOL9MT,,老年人日间照料中心,体育休闲服务;度假疗养场所;疗养院|生活服务;生活服务场所;生活服务场所,滨江大道与三高线交叉口东280米,,121.1408708,31.67205181,,江苏省,,苏州市,,太仓市,,"{'cost': , 'rating': }"
B0FFLGH3T8,,刘家大院文化生态农庄,体育休闲服务;休闲场所;休闲场所,滨江大道118号,18709899923,121.1388853,31.67324371,,江苏省,,苏州市,,太仓市,,"{'cost': , 'rating': '4.3'}"
B0GDVZ6XJ9,,盛齐乐篮球训练营,体育休闲服务;运动场馆;篮球场馆,滨洪路18号,13918234142,121.37768,31.63346515,,上海市,,上海市,,崇明区,,"{'cost': , 'rating': '4.5'}"
B0FFGAKGA8,,戚丫钓鱼场,体育休闲服务;休闲场所;垂钓园,三高线附近,,121.1372966,31.67415729,,江苏省,,苏州市,,太仓市,,"{'cost': , 'rating': '4.6'}"
B0J3057E8L,,绿化东站休闲钓场,体育休闲服务;休闲场所;垂钓园,浮桥镇金浪绿化村131号,17196273806,121.1378115,31.60538918,,江苏省,,苏州市,,太仓市,,"{'cost': , 'rating': '4.3'}"
B0KBXUL8AR,,瀛雀麻公馆,体育休闲服务;娱乐场所;棋牌室,宏海公路1976号二楼,13661975321,121.3430095,31.71591944,,上海市,,上海市,,崇明区,,"{'cost': , 'rating': '3.6'}"
B0FFGPSZ7A,,太星村农家乐,体育休闲服务;休闲场所;休闲场所,岳王太星村陆璜公路路东宏伟电梯部件厂旁,18606226888,121.1594166,31.573048,,江苏省,,苏州市,,太仓市,,"{'cost': '57.00', 'rating': '4.7'}"
B0HACZV56W,,临江奶油草莓采摘园,体育休闲服务;体育休闲服务场所;体育休闲服务场所,浮璜线,18755474315,121.1342877,31.66382132,,江苏省,,苏州市,,太仓市,,"{'cost': , 'rating': '3.7'}"
B0FFKKVMIE,,聚渔岛路亚垂钓休闲,体育休闲服务;体育休闲服务场所;体育休闲服务场所,浮桥镇方桥村陆璜路戚浦塘桥东南堍,13918369512;18701912871,121.1404368,31.59467466,,江苏省,,苏州市,,太仓市,,"{'cost': , 'rating': '4.3'}"
B0KB2ZLMAB,,瀛省麻公馆,体育休闲服务;娱乐场所;棋牌室,宏海公路1976号二楼,,121.3430095,31.71594344,,上海市,,上海市,,崇明区,,"{'cost': , 'rating': '3.0'}"
B0GKH71G5Q,,太星生态黄桃园,体育休闲服务;体育休闲服务场所;体育休闲服务场所,协星线,,121.1537135,31.58143004,,江苏省,,苏州市,,太仓市,,"{'cost': , 'rating': '3.7'}"
B0IBNHKDIN,,华丰黄桃园,体育休闲服务;休闲场所;采摘园,滨江大道与万方路交叉口东100米,,121.1345141,31.67545019,,江苏省,,苏州市,,太仓市,,"{'cost': , 'rating': '3.7'}"
B0H13SLVAQ,,上海市崇明区花晨月夕农家乐服务部,体育休闲服务;休闲场所;休闲场所,庙镇民华村丰华1407号,18918960567,121.3509397,31.71391778,,上海市,,上海市,,崇明区,,"{'cost': , 'rating': '3.7'}"
B0FFFR05CO,,羽彤草莓园,体育休闲服务;休闲场所;采摘园,城桥镇马桥村斜港408号(居委会北行150米处),13918386159,121.3835323,31.65523338,,上海市,,上海市,,崇明区,,"{'cost': , 'rating': '4.1'}"
B0J0T5XCT8,,崇明老李奶油草莓采摘园,体育休闲服务;休闲场所;采摘园,城桥镇斜港南北路往北288米,,121.3813782,31.65186466,,上海市,,上海市,,崇明区,,"{'cost': , 'rating': '3.7'}"
B0FFIZ4M8F,,黑猪农家乐,体育休闲服务;休闲场所;休闲场所,浮桥镇九曲陆璜公路888号,13776188824,121.1369856,31.5992581,,江苏省,,苏州市,,太仓市,,"{'cost': , 'rating': '4.1'}"
B0G0UZM1I2,,张兴奎太仓扣蟹养殖户,体育休闲服务;体育休闲服务场所;体育休闲服务场所,浮桥镇新仓村27组32号,13962405638,121.139003,31.59951221,,江苏省,,苏州市,,太仓市,,"{'cost': , 'rating': }"
B0J1HCDZ9G,,交友联谊团队活动中心,体育休闲服务;休闲场所;休闲场所,崇明人民路与三沙洪路交叉口东140米,,121.3814333,31.62775031,,上海市,,上海市,,崇明区,,"{'cost': , 'rating': }"
B0JDFHV79L,,俊美农家乐,体育休闲服务;休闲场所;休闲场所,合作公路与庙中路交叉口北260米,,121.3439522,31.71987715,,上海市,,上海市,,崇明区,,"{'cost': , 'rating': '3.3'}"
B0JDFHV79L,,俊美农家乐,体育休闲服务;休闲场所;休闲场所,合作公路与庙中路交叉口北260米,,121.3439522,31.71987715,,上海市,,上海市,,崇明区,,"{'cost': , 'rating': '3.3'}"
B0FFG925NF,,厚鸟湾养生基地,体育休闲服务;体育休闲服务场所;体育休闲服务场所,岳太线与陆璜线交叉口西南150米,,121.1534272,31.57880067,,江苏省,,苏州市,,太仓市,,"{'cost': , 'rating': '1.1'}"
B0JAXZYFQD,,得闲垂钓,体育休闲服务;休闲场所;垂钓园,沙溪镇太星村梅园6号,18360871391,121.1523866,31.57400509,,江苏省,,苏州市,,太仓市,,"{'cost': , 'rating': '4.1'}"
B0J0YBP3HQ,,游艇俱乐部,体育休闲服务;体育休闲服务场所;体育休闲服务场所,三沙洪路与施翘路交叉口东北20米,,121.3819974,31.63192594,,上海市,,上海市,,崇明区,,"{'cost': , 'rating': '3.4'}"
B0I1BSZ5M0,,崇明益豪有机葡萄园,体育休闲服务;休闲场所;采摘园,城桥镇湾南村友谊13队1308号,13818540508;15026895076,121.3832247,31.66377586,,上海市,,上海市,,崇明区,,"{'cost': , 'rating': '3.7'}"
B0JA29BXJS,,欣诚乒乓,体育休闲服务;运动场馆;乒乓球馆,城桥镇官山路199号,,121.3848002,31.64670344,,上海市,,上海市,,崇明区,,"{'cost': , 'rating': '3.7'}"
B0FFGTF2OV,,上海盛氏果业采摘园,体育休闲服务;休闲场所;采摘园,港西镇陈海公路,13003191667,121.3817831,31.67158212,,上海市,,上海市,,崇明区,,"{'cost': , 'rating': }"
B0FFJ09PLS,,桃花岛休闲农家乐,体育休闲服务;体育休闲服务场所;体育休闲服务场所,双浮公路附近,18962615098,121.142323,31.58412418,,江苏省,,苏州市,,太仓市,,"{'cost': , 'rating': '5.0'}"
B00156ZYNS,,上海崇明庙镇敬老院,体育休闲服务;度假疗养场所;疗养院,庙镇民华村624号,021-69361642,121.365206,31.70566341,,上海市,,上海市,,崇明区,,"{'cost': , 'rating': }"
B0J2GA6JCA,,小小棋牌室,体育休闲服务;娱乐场所;棋牌室,上海市崇明区城桥镇人民路567号,18901978861,121.384839,31.62597523,,上海市,,上海市,,崇明区,,"{'cost': , 'rating': '3.9'}"
B0KGM7N8XO,,荷花池鱼塘,体育休闲服务;休闲场所;垂钓园,通港东路与通港公路交叉口西北140米,,121.128164,31.60502945,,江苏省,,苏州市,,太仓市,,"{'cost': , 'rating': '4.4'}"
B001575WSY,,金廷KTV,体育休闲服务;娱乐场所;KTV,北门路363号,,121.3868535,31.62924921,,上海市,,上海市,,崇明区,,"{'cost': , 'rating': '4.1'}"
B0J1Z9OUUI,,梨花园农场,公司企业;农林牧渔基地;其它农林牧渔基地|体育休闲服务;休闲场所;休闲场所,,,121.1497944,31.57591636,,江苏省,,苏州市,,太仓市,,"{'cost': , 'rating': }"
B0IKTSDGCW,,上海宁静湾私享庄园,体育休闲服务;休闲场所;休闲场所,港西镇北双村湾北1352号,13701609180,121.3816221,31.68432392,,上海市,,上海市,,崇明区,,"{'cost': , 'rating': '4.6'}"
B0J25AKFMC,,陆璜线农业园,体育休闲服务;体育休闲服务场所;体育休闲服务场所,沙溪镇岳王新建村14组17号,,121.1591426,31.56611997,,江苏省,,苏州市,,太仓市,,"{'cost': , 'rating': '3.0'}"
B0J1LSVQF3,,岳星钓场,体育休闲服务;休闲场所;垂钓园,沙溪镇岳星村,19941926575,121.142653,31.57883401,,江苏省,,苏州市,,太仓市,,"{'cost': , 'rating': '3.9'}"
B001516804,,焦点KTV(崇明西门路),体育休闲服务;娱乐场所;KTV,城桥镇西门路100号(近新崇南路),021-69615558,121.3880725,31.62277769,,上海市,,上海市,,崇明区,,"{'cost': , 'rating': '4.3'}"
B0J0JA6WFC,,桃花岛休闲农家乐,体育休闲服务;休闲场所;休闲场所,岳星钓场东侧420米,,121.1471351,31.57942352,,江苏省,,苏州市,,太仓市,,"{'cost': , 'rating': '3.4'}"
B0FFKPT2KY,,鸿飞果品-量贩式(永凤花园店),购物服务;综合市场;果品市场|体育休闲服务;体育休闲服务场所;体育休闲服务场所,城桥镇北门路366号,18616527398,121.3874912,31.62947992,,上海市,,上海市,,崇明区,,"{'cost': , 'rating': '3.8'}"
B0JK36AD4D,,崇明方家外婆农家乐,体育休闲服务;休闲场所;休闲场所|住宿服务;住宿服务相关;住宿服务相关,崇明北门路与西园路交叉口东南100米,,121.387852,31.62901277,,上海市,,上海市,,崇明区,,"{'cost': , 'star': , 'opentime2': , 'rating': '3.7', 'lowest_price': , 'hotel_ordering': '0', 'open_time': }"
B0JK36AD4D,,崇明方家外婆农家乐,体育休闲服务;休闲场所;休闲场所|住宿服务;住宿服务相关;住宿服务相关,崇明北门路与西园路交叉口东南100米,,121.387852,31.62901277,,上海市,,上海市,,崇明区,,"{'cost': , 'star': , 'opentime2': , 'rating': '3.7', 'lowest_price': , 'hotel_ordering': '0', 'open_time': }"
B0J1HCD3UR,,传雄智慧乐园,体育休闲服务;休闲场所;游乐场,崇明西门路与崇明人民路交叉口西南80米,,121.3878085,31.6242078,,上海市,,上海市,,崇明区,,"{'cost': , 'rating': '3.7'}"
B0H1O9WMVA,,棋牌室,体育休闲服务;娱乐场所;棋牌室,西门南村东南门西北140米,18918716561,121.386947,31.62297518,,上海市,,上海市,,崇明区,,"{'cost': , 'rating': '3.6'}"
B0FFHOOH5A,,崇明区农业委员会文化活动中心,科教文化服务;文化宫;文化宫|体育休闲服务;休闲场所;休闲场所,南门路286-1,,121.3868442,31.62136324,,上海市,,上海市,,崇明区,,"{'cost': , 'rating': }"
B0FFF4LLUM,hotel,宁静湾乡村度假农庄,住宿服务;住宿服务相关;住宿服务相关|体育休闲服务;度假疗养场所;度假村,港西镇北双村湾北1352号,,121.3816191,31.68432292,,上海市,,上海市,,崇明区,,"{'cost': , 'star': , 'opentime2': , 'rating': '4.1', 'lowest_price': , 'hotel_ordering': '0', 'open_time': }"
B0GKAH2AEV,cinema,崇明影剧院,体育休闲服务;影剧院;电影院,八一路488号(近北门路),021-59613775;021-59622776,121.3923085,31.62796331,,上海市,,上海市,,崇明区,,"{'cost': , 'opentime2': '08:30-19:30', 'seat_ordering': '1', 'rating': '4.4', 'open_time': '08:30-19:30'}"
B0J2HS6AS5,,七乐网球,体育休闲服务;运动场馆;网球场,崇明北门路368-370号永凤花园底商2楼,,121.3873492,31.62953799,,上海市,,上海市,,崇明区,,"{'cost': , 'rating': '3.0'}"
B0HRHZ1HEA,,亚正农庄,体育休闲服务;休闲场所;休闲场所,港西镇双津村颂平1203号,18917875858,121.3840658,31.6792171,,上海市,,上海市,,崇明区,,"{'cost': , 'rating': '3.7'}"
B00156ZL45,,龙珠网咖,体育休闲服务;娱乐场所;网吧|体育休闲服务;娱乐场所;游戏厅,城桥镇八一路338号,17721209110,121.3918268,31.62541843,,上海市,,上海市,,崇明区,,"{'cost': , 'rating': '4.0'}"
B0FFLG6JF4,,上海证大宁静湾乡村度假村,体育休闲服务;度假疗养场所;度假村,西津公路与洋山河路交叉口东北240米,,121.3816671,31.68438989,,上海市,,上海市,,崇明区,,"{'cost': , 'rating': '3.6'}"
B0JA5ABJWN,,上海市崇明区城桥镇湾南村村民委员会公益电影放映点,体育休闲服务;影剧院;影剧院相关,湾南村,,121.3895677,31.6577826,,上海市,,上海市,,崇明区,,"{'cost': , 'opentime2': , 'seat_ordering': '0', 'rating': '3.9', 'open_time': }"
B0FFGQD02B,,崇明区机关事业单位退休人员活动室,体育休闲服务;休闲场所;休闲场所,新崇西路125号,,121.3895035,31.62648213,,上海市,,上海市,,崇明区,,"{'cost': , 'rating': }"
B0FFF3YLDV,,益友棋牌(新崇中路),体育休闲服务;娱乐场所;棋牌室,城桥镇新崇西路10号,021-59622082,121.3895277,31.62418113,,上海市,,上海市,,崇明区,,"{'cost': , 'rating': '3.6'}"
B0J2HSEV5B,,七乐网球,体育休闲服务;运动场馆;网球场,西引路578号02号地网球场,,121.3894705,31.63787019,,上海市,,上海市,,崇明区,,"{'cost': , 'rating': '3.2'}"
B00156F4AE,,上海君豪(西门路店),体育休闲服务;娱乐场所;KTV,崇明西门路81号,021-60556902,121.394322,31.63919899,,上海市,,上海市,,崇明区,,"{'cost': , 'rating': '4.4'}"
B0FFHGQM3P,,好运来糖果水果,体育休闲服务;娱乐场所;KTV,崇明西门路与崇明北门路交叉口东南60米,,121.3893814,31.62819217,,上海市,,上海市,,崇明区,,"{'cost': , 'rating': '3.5'}"
B00155N8LT,,上海凯歌好声音,体育休闲服务;娱乐场所;KTV|体育休闲服务;娱乐场所;棋牌室|体育休闲服务;娱乐场所;夜总会,城桥镇八一路600(近西门路),,121.393554,31.63027805,,上海市,,上海市,,崇明区,,"{'cost': , 'rating': '4.5'}"
B0JAA9O0AL,,上海冰峰仪表塑料件厂公益电影放映点,体育休闲服务;影剧院;影剧院相关,上海农村院线流动放映6队,,121.3894645,31.63870021,,上海市,,上海市,,崇明区,,"{'cost': , 'opentime2': , 'seat_ordering': '0', 'rating': '1.5', 'open_time': }"
B0JRYD48UB,,七悠球·桌球俱乐部,体育休闲服务;运动场馆;台球厅,新崇西路住宅小区东北2门旁,15021757253,121.3921496,31.62735834,,上海市,,上海市,,崇明区,,"{'cost': , 'rating': '4.1'}"
B0FFFVI7XK,,瀛通大酒店KTV,体育休闲服务;娱乐场所;KTV,北门路190号上海瀛通大酒店B1层,021-69698989,121.3925943,31.62880924,,上海市,,上海市,,崇明区,,"{'cost': , 'rating': '3.8'}"
B0JG69NFWW,,BOSS LOUNG茶馆(宝岛世纪园店),体育休闲服务;娱乐场所;棋牌室,城桥镇城桥八一路599-32号,13467216312,121.3923771,31.6319303,,上海市,,上海市,,崇明区,,"{'cost': '36.00', 'rating': '3.7'}"
B0G307JM10,,曼巴体育训练中心,体育休闲服务;运动场馆;综合体育馆,西引路789号,,121.3938727,31.64396213,,上海市,,上海市,,崇明区,,"{'cost': , 'rating': '4.5'}"
B0FFF0DMHE,,崇明区体育馆,体育休闲服务;运动场馆;综合体育馆,北门路88号,021-59623580,121.3955278,31.62861778,,上海市,,上海市,,崇明区,,"{'cost': , 'rating': '4.5'}"
B0H1TRJZSK,,兴盛台球厅(上海市崇明岛八一路步行街店),体育休闲服务;运动场馆;台球厅,八一路279号上海市崇明岛八一路步行街,,121.3923235,31.6271933,,上海市,,上海市,,崇明区,,"{'cost': , 'rating': '4.2'}"
B0H6HSGRMC,,莱盈棋牌(上海市崇明岛八一路步行街店),体育休闲服务;娱乐场所;棋牌室,富民街8壹广场南侧约90米,021-69695988,121.3919351,31.62151842,,上海市,,上海市,,崇明区,,"{'cost': , 'rating': '4.1'}"
B0FFIECY7H,,嘻哈儿童梦幻乐园(精品大厦店),体育休闲服务;休闲场所;游乐场,城桥镇八一路328号精品商厦二楼(莫泰168隔壁),18017228033,121.3917958,31.62520644,,上海市,,上海市,,崇明区,,"{'cost': , 'rating': '3.8'}"
B0J0MCZMJW,,喜鹊.荟Club,体育休闲服务;体育休闲服务场所;体育休闲服务场所,城桥镇中津桥路77号,021-59611166,121.3944875,31.63399892,,上海市,,上海市,,崇明区,,"{'cost': , 'rating': '4.1'}"
B001572BQB,,宝宝俱乐部,体育休闲服务;休闲场所;游乐场,联华西门里,,121.390029,31.63003495,,上海市,,上海市,,崇明区,,"{'cost': , 'rating': '2.9'}"
B0FFK36T7T,,炬石健身,体育休闲服务;运动场馆;健身中心,城桥镇八一路308号,021-31786188;13916586483,121.3948579,31.62834585,,上海市,,上海市,,崇明区,,"{'cost': '2098.00', 'rating': '4.4'}"
B0H0MOPR54,,明宝棋牌室,体育休闲服务;娱乐场所;棋牌室,八一路279号上海市崇明岛八一路步行街,17721126151,121.3914409,31.62530753,,上海市,,上海市,,崇明区,,"{'cost': , 'rating': '3.9'}"
B0FFF73UYC,,欣亮舞厅,体育休闲服务;娱乐场所;迪厅,城桥镇北门路88号,,121.3959328,31.62892974,,上海市,,上海市,,崇明区,,"{'cost': , 'rating': '4.6'}"
B0J356RYEW,,聚丰果园,体育休闲服务;休闲场所;采摘园,西津公路与三湾公路交叉口西南240米,,121.3821027,31.68450661,,上海市,,上海市,,崇明区,,"{'cost': , 'rating': '2.4'}"
B00155LP1V,,顺利量贩KTV,体育休闲服务;娱乐场所;KTV,新崇南路38号(顺利大酒店北楼),021-69610888,121.3948764,31.62251086,,上海市,,上海市,,崇明区,,"{'cost': '47.00', 'rating': '4.3'}"
B0FFHLL7L2,,凯哥台球厅,体育休闲服务;运动场馆;台球厅,城桥镇八一路600号,13167000333,121.393241,31.63040911,,上海市,,上海市,,崇明区,,"{'cost': , 'rating': '4.0'}"
B001503C3C,,崇明区人民体育场,体育休闲服务;运动场馆;综合体育馆,崇明区城内北门路88号,021-59623580,121.3955707,31.62975077,,上海市,,上海市,,崇明区,,"{'cost': , 'rating': '4.5'}"
B00156DYJU,,尚武精英跆拳道俱乐部,体育休闲服务;运动场馆;跆拳道场馆,北门路88号,021-28185888;021-59611218;13916869500,121.3954139,31.62841079,,上海市,,上海市,,崇明区,,"{'cost': '717.00', 'rating': '4.5'}"
B00156F662,,好友林棋牌室,体育休闲服务;娱乐场所;棋牌室,崇明青年路25号,,121.3923301,31.63209431,,上海市,,上海市,,崇明区,,"{'cost': , 'rating': '3.4'}"
B0I3FRUBJJ,,上海市·园管台球厅,体育休闲服务;运动场馆;台球厅,中津桥路与大塘街交叉口东60米,13816261892,121.3956803,31.63444178,,上海市,,上海市,,崇明区,,"{'cost': , 'rating': '4.0'}"
B0FFJ4VTXD,,三家市农家乐,体育休闲服务;体育休闲服务场所;体育休闲服务场所,浮桥镇老岳线,,121.133045,31.58114207,,江苏省,,苏州市,,太仓市,,"{'cost': , 'rating': '4.2'}"
B0G0VHM49X,,崇明半日闲农庄,体育休闲服务;休闲场所;休闲场所,港西镇北双村湾北438号,,121.386468,31.68257502,,上海市,,上海市,,崇明区,,"{'cost': , 'rating': '3.7'}"
B0FFG21TU5,,迪乐尼儿童乐园,体育休闲服务;休闲场所;游乐场,城桥镇新崇南路89号(锦绣宾馆斜对面),021-69691116,121.3936317,31.62152806,,上海市,,上海市,,崇明区,,"{'cost': , 'rating': '3.7'}"
B0KBNCH0ZS,,雀享棋牌室(胡了),体育休闲服务;娱乐场所;棋牌室,八一路726号,021-61810668;13122375707,121.3939267,31.63205599,,上海市,,上海市,,崇明区,,"{'cost': , 'rating': '3.9'}"
B0JAAXOU0Q,,北门新村小区公益电影放映点,体育休闲服务;影剧院;影剧院相关,崇明影剧院,,121.3923864,31.62795629,,上海市,,上海市,,崇明区,,"{'cost': , 'opentime2': , 'seat_ordering': '0', 'rating': '1.7', 'open_time': }"
B0JD47SY8O,,老baby棋牌,体育休闲服务;娱乐场所;棋牌室,新崇南路与兴贤街交叉口东60米,,121.3936827,31.62159605,,上海市,,上海市,,崇明区,,"{'cost': , 'rating': '3.9'}"
B0FFFGPTT3,,上海润心田果蔬采摘园,体育休闲服务;休闲场所;采摘园,港西镇北双村11队,18616797356,121.3870503,31.68663,,上海市,,上海市,,崇明区,,"{'cost': , 'rating': '4.2'}"
B00155QFOH,,锦绣鲜生活,体育休闲服务;娱乐场所;棋牌室,新崇南路68号锦绣宾馆,,121.3935307,31.62186507,,上海市,,上海市,,崇明区,,"{'cost': , 'rating': '3.8'}"
B0FFMEHQOR,,彤玮棋牌茶艺,体育休闲服务;娱乐场所;棋牌室,总工会大厦东北门旁,021-39300288,121.3937297,31.62167004,,上海市,,上海市,,崇明区,,"{'cost': , 'rating': '3.8'}"
B0GRAL6R8N,,上海崇明轩华足球俱乐部,体育休闲服务;运动场馆;足球场,兴贤街富民街小区,,121.3927528,31.62274822,,上海市,,上海市,,崇明区,,"{'cost': , 'rating': }"
B0JAAXR6AU,,崇明区城桥镇人民政府公益电影放映点,体育休闲服务;影剧院;影剧院相关,城桥镇流动放映队,,121.393325,31.62986909,,上海市,,上海市,,崇明区,,"{'cost': , 'opentime2': , 'seat_ordering': '0', 'rating': '3.0', 'open_time': }"
B0JUO1F4FJ,,三妹棋牌室,体育休闲服务;娱乐场所;棋牌室,城桥镇八一路646号,,121.3935769,31.63082405,,上海市,,上海市,,崇明区,,"{'cost': , 'rating': '0.9'}"
B0IAVB8ZO1,,海洋总动员儿童城堡,体育休闲服务;休闲场所;游乐场,崇明北门路与管弄交叉口东40米,,121.3947909,31.62818886,,上海市,,上海市,,崇明区,,"{'cost': , 'rating': '3.6'}"
B0JK1AI96B,,瀛洲汇商务会所,体育休闲服务;娱乐场所;娱乐场所,新崇南路38号,,121.3950494,31.62256684,,上海市,,上海市,,崇明区,,"{'cost': , 'rating': '4.2'}"
B0JGJ960GP,,盘西村长生1092农庄,体育休闲服务;休闲场所;休闲场所,西津公路与港庙公路交叉口北280米,,121.3851605,31.69709665,,上海市,,上海市,,崇明区,,"{'cost': , 'rating': '4.0'}"
B0JRBAN325,,宗林棋牌室,体育休闲服务;娱乐场所;棋牌室,浮桥镇三市村2组5号,18551213285,121.1311042,31.58096435,,江苏省,,苏州市,,太仓市,,"{'cost': , 'rating': '3.6'}"
B0KB7UNFGX,,阿康鱼塘,体育休闲服务;休闲场所;垂钓园,红柳路4号,,121.1176997,31.58364041,,江苏省,,苏州市,,太仓市,,"{'cost': , 'rating': '3.9'}"
B0FFJT2IKW,,麻将店,体育休闲服务;娱乐场所;棋牌室,新闸街与红柳路交叉口西北180米,,121.1170012,31.59273333,,江苏省,,苏州市,,太仓市,,"{'cost': , 'rating': '3.5'}"
B0J27B0C85,,润心生态园,体育休闲服务;休闲场所;采摘园,港庙公路99号,,121.3940834,31.69180218,,上海市,,上海市,,崇明区,,"{'cost': , 'rating': '3.2'}"
B0K611TGBX,,云水湾农庄,体育休闲服务;休闲场所;休闲场所,沙溪镇松南村二十三组21号,13776189858;13906229851,121.1182133,31.57092967,,江苏省,,苏州市,,太仓市,,"{'cost': , 'rating': '4.4'}"
B0GULURT8W,,吕勇葡萄园,体育休闲服务;休闲场所;采摘园,沙溪镇岳王塘桥村,15821991099,121.1209015,31.56621475,,江苏省,,苏州市,,太仓市,,"{'cost': , 'rating': '4.0'}"
B0G3GHTB01,,篮球场,体育休闲服务;运动场馆;篮球场馆,民生东路与永民路交叉口东南20米,,121.5170363,31.64045147,,上海市,,上海市,,崇明区,,"{'cost': , 'rating': '3.7'}"
B0JAAXLEX0,,永丰村公益电影放映点,体育休闲服务;影剧院;影剧院相关,永丰村,,121.5593557,31.6299232,,上海市,,上海市,,崇明区,,"{'cost': , 'opentime2': , 'seat_ordering': '0', 'rating': '1.3', 'open_time': }"
B0FFLFDSBR,,崇明区生康养老院,体育休闲服务;度假疗养场所;疗养院,新晨路72号3号楼,,121.5325803,31.62024652,,上海市,,上海市,,崇明区,,"{'cost': , 'rating': }"
B0FFLEKB6A,,上海崇明区新民敬老院,体育休闲服务;度假疗养场所;疗养院,新河镇强民村137号,021-59371210,121.5324973,31.61720735,,上海市,,上海市,,崇明区,,"{'cost': , 'rating': '4.2'}"
B0FFM3YGBY,,心伟农家乐,体育休闲服务;休闲场所;休闲场所,新河镇民生村民主326号,,121.5061192,31.63743691,,上海市,,上海市,,崇明区,,"{'cost': , 'rating': '4.0'}"
B0HG2907HC,,杨胖子农家乐,体育休闲服务;休闲场所;休闲场所,云港路988号,13127770333,121.5501311,31.61634672,,上海市,,上海市,,崇明区,,"{'cost': , 'rating': '3.6'}"
B0JRYD1207,,苏家庭院,体育休闲服务;休闲场所;休闲场所,六号河路与仙桥南路交叉口西140米,,121.5716974,31.6356255,,上海市,,上海市,,崇明区,,"{'cost': , 'rating': '3.7'}"
B0FFFAHLM4,,赢宇农庄,体育休闲服务;休闲场所;休闲场所,新河镇新建6队,021-59372688,121.5565183,31.61467888,,上海市,,上海市,,崇明区,,"{'cost': , 'rating': '3.8'}"
B0HAXCMX5C,,落雪别院民宿,体育休闲服务;休闲场所;休闲场所,竖新镇大椿村椿北315号,18917835769,121.5723849,31.62880413,,上海市,,上海市,,崇明区,,"{'cost': , 'rating': '3.7'}"
B0I65KBT5A,,上海香阁农家乐,体育休闲服务;休闲场所;休闲场所,浜西路浜南村,13482310318,121.4979604,31.6425607,,上海市,,上海市,,崇明区,,"{'cost': , 'rating': '3.8'}"
B0FFIFBARY,,小丁草莓园,体育休闲服务;体育休闲服务场所;体育休闲服务场所,强民路与进隆路交叉口西南角,17701750587,121.5035843,31.62428437,,上海市,,上海市,,崇明区,,"{'cost': , 'rating': '3.7'}"
B0G29SNN7K,,光明食品集团崇明农场有限公司老干部活动室,体育休闲服务;休闲场所;休闲场所,综合新村西北门旁,,121.5341561,31.6783977,,上海市,,上海市,,崇明区,,"{'cost': , 'rating': }"
B0FFKBNPHB,hotel,上海蟠龙庭院农家乐,住宿服务;住宿服务相关;住宿服务相关|体育休闲服务;休闲场所;休闲场所,建设镇大同村蟠龙426号,13817350118;13916014688,121.4971634,31.6320102,,上海市,,上海市,,崇明区,,"{'cost': , 'star': , 'opentime2': '00:00-24:00', 'rating': '4.3', 'lowest_price': , 'hotel_ordering': '1', 'open_time': '24小时营业'}"
B0FFIPT4RX,,小邵草莓蔬菜采摘园,体育休闲服务;体育休闲服务场所;体育休闲服务场所,建设镇蟠龙公路2688号,15821158889,121.4977174,31.65596929,,上海市,,上海市,,崇明区,,"{'cost': , 'rating': '3.9'}"
B001503836,,东平养老院,体育休闲服务;度假疗养场所;疗养院,东平镇北沿公路1725弄728号,021-59666099,121.529551,31.67919636,,上海市,,上海市,,崇明区,,"{'cost': , 'rating': }"
B0FFGHLTEJ,,上海蟠龙生态园垂钓区,体育休闲服务;休闲场所;垂钓园,蟠龙公路2688号上海蟠龙生态园,,121.4966464,31.65750313,,上海市,,上海市,,崇明区,,"{'cost': , 'rating': '3.7'}"
B0FFGB11L9,,上海缘福生态庄园,体育休闲服务;度假疗养场所;度假村,建设镇大同村蟠南548号,021-64681469,121.4958722,31.62646633,,上海市,,上海市,,崇明区,,"{'cost': , 'rating': '3.5'}"
B0FFJV7670,,上海崇明梅乐草莓采摘基地园,体育休闲服务;体育休闲服务场所;体育休闲服务场所,崇明时进路与进新路交叉口东100米,,121.5013507,31.61874677,,上海市,,上海市,,崇明区,,"{'cost': , 'rating': '3.5'}"
B0I3NRBOPK,,新圆农家乐,体育休闲服务;休闲场所;休闲场所,建设镇大同村蟠龙九队937号,18916242780,121.491243,31.63282148,,上海市,,上海市,,崇明区,,"{'cost': , 'rating': '3.9'}"
B0I1GMUZ8U,,老冯葡萄采摘园,体育休闲服务;休闲场所;采摘园,建设镇蟠龙公路浜东路与灵龙街老冯葡萄采摘园,15221143546,121.490907,31.65298281,,上海市,,上海市,,崇明区,,"{'cost': , 'rating': '3.8'}"
B0I33STI4U,,趣露营崇明轻奢露营基地,体育休闲服务;体育休闲服务场所;体育休闲服务场所,蟠龙公路与三条桥路交叉口东北180米,18017644499,121.4913914,31.65699138,,上海市,,上海市,,崇明区,,"{'cost': , 'rating': '3.9'}"
B0FFHP4G15,,蟠龙,体育休闲服务;休闲场所;休闲场所,蟠龙公路与浜西北中心路交叉口东南160米,18550395066,121.4913432,31.65745025,,上海市,,上海市,,崇明区,,"{'cost': , 'rating': '3.6'}"
B0J0VCXRZK,,小宋草莓采摘园,体育休闲服务;休闲场所;采摘园,东风农场风伟农贸市场水产柜旁,,121.4923164,31.66085528,,上海市,,上海市,,崇明区,,"{'cost': , 'rating': '3.0'}"
B0HBYKH1R9,,上海崇明区竖新镇波澜顿音乐农庄,体育休闲服务;体育休闲服务场所;体育休闲服务场所,竖新镇育才村621号,17740809840,121.5851244,31.62615046,,上海市,,上海市,,崇明区,,"{'cost': , 'rating': '4.0'}"
B0FFKPJ9Z8,,崇明来悦休闲农庄,体育休闲服务;体育休闲服务场所;体育休闲服务场所,响椿公路竖新镇育材村1007号,13681659791,121.5817124,31.62082097,,上海市,,上海市,,崇明区,,"{'cost': , 'rating': '3.6'}"
B0FFHD430Q,,施宅半院农家乐饭店,体育休闲服务;休闲场所;休闲场所,大同村蟠龙1327号(大同敬老院旁),13248299918;13761856133,121.4861982,31.62876946,,上海市,,上海市,,崇明区,,"{'cost': , 'rating': '4.0'}"
B0FFG95W34,,上海崇明大同敬老院,体育休闲服务;度假疗养场所;疗养院,建设镇蟠龙村14队蟠龙公路1278号,,121.4857686,31.62994419,,上海市,,上海市,,崇明区,,"{'cost': , 'rating': }"
B0FFLFK325,,棋牌室,体育休闲服务;娱乐场所;棋牌室,上海大通自控设备有限公司西北门旁,,121.4851426,31.62723834,,上海市,,上海市,,崇明区,,"{'cost': , 'rating': '3.6'}"
B0I0U58798,,蟠龙小镇度假别墅,体育休闲服务;度假疗养场所;度假疗养场所,建设镇蟠南村蟠中809号,18002580181,121.4861635,31.62359236,,上海市,,上海市,,崇明区,,"{'cost': , 'rating': '3.8'}"
B0HD1Z3WF8,,御桦苑度假中心,体育休闲服务;度假疗养场所;度假村,北沿公路2012号,,121.4926415,31.67393481,,上海市,,上海市,,崇明区,,"{'cost': , 'rating': '4.3'}"
B0FFIVOZ5Y,hotel,上海崇明纽卉农庄,住宿服务;住宿服务相关;住宿服务相关|体育休闲服务;休闲场所;休闲场所,新河镇金桥村888号,18017583112,121.5221462,31.59635608,,上海市,,上海市,,崇明区,,"{'cost': , 'star': , 'opentime2': , 'rating': '4.1', 'lowest_price': , 'hotel_ordering': '1', 'open_time': }"
B0HD3SO7KG,,维维乐农家乐,体育休闲服务;休闲场所;休闲场所,新河镇新梅村692号,13321909326,121.5519842,31.59456969,,上海市,,上海市,,崇明区,,"{'cost': , 'rating': '4.2'}"
B0J2YOLB27,,喜加德陶艺工坊,体育休闲服务;休闲场所;休闲场所,仙桥中路与光明中路交叉口北40米,,121.5957294,31.63588687,,上海市,,上海市,,崇明区,,"{'cost': , 'rating': '3.9'}"
B0FFG6KMDQ,,上海崇明龚家花园农家乐休闲别墅,体育休闲服务;休闲场所;休闲场所,竖新镇光明中路1032号,13003207919;13003216086,121.591786,31.61965395,,上海市,,上海市,,崇明区,,"{'cost': , 'rating': '4.7'}"
B0FFHUBENE,hotel,上海函田度假村,住宿服务;住宿服务相关;住宿服务相关|体育休闲服务;度假疗养场所;度假村,东平镇北沿公路2038号,021-59333398,121.4874707,31.67575148,,上海市,,上海市,,崇明区,,"{'cost': , 'star': , 'opentime2': , 'rating': '4.0', 'lowest_price': , 'hotel_ordering': '1', 'open_time': }"
B00156DWFT,hotel,上海嘉和苑度假村,住宿服务;住宿服务相关;住宿服务相关|体育休闲服务;度假疗养场所;度假村,东平国家森林公园南首秀林路188号,"021-59338008;021-59338808;021-59338008,0",121.4811738,31.67116572,,上海市,,上海市,,崇明区,,"{'cost': , 'star': , 'opentime2': , 'rating': '4.5', 'lowest_price': , 'hotel_ordering': '1', 'open_time': }"
B00156R1RC,hotel,龙群度假村,住宿服务;住宿服务相关;住宿服务相关|体育休闲服务;度假疗养场所;度假村,上海建设镇秀林路218号(根宝基地对面),021-59331111,121.481576,31.67295398,,上海市,,上海市,,崇明区,,"{'cost': , 'star': , 'opentime2': , 'rating': '4.4', 'lowest_price': , 'hotel_ordering': '1', 'open_time': }"
B0JGG4MZLM,,东平草堂聚景楼,体育休闲服务;休闲场所;休闲场所,怡沁南二路与怡沁西一路交叉口东南480米,021-69611111,121.4794732,31.6668686,,上海市,,上海市,,崇明区,,"{'cost': , 'rating': '3.8'}"
B0I1FHNY2X,,崇明区竖新镇大新敬老院,体育休闲服务;度假疗养场所;疗养院,竖新镇新南村1367号,021-59491922,121.5924586,31.61471105,,上海市,,上海市,,崇明区,,"{'cost': , 'rating': }"
B0FFLGVH87,,陈茵农家乐,体育休闲服务;休闲场所;休闲场所,椿南村1102号,18930253283,121.5858555,31.60565901,,上海市,,上海市,,崇明区,,"{'cost': , 'rating': '4.3'}"
B0FFIKAMGX,,根宝足球基地,体育休闲服务;运动场馆;足球场|公司企业;公司企业;公司企业,东平林场崇明区秀林路218号,021-59337030;021-59339588,121.4785888,31.67107523,,上海市,,上海市,,崇明区,,"{'cost': , 'rating': '4.5'}"
B00155R3R8,hotel,上海北湖湾度假村,住宿服务;宾馆酒店;宾馆酒店|体育休闲服务;度假疗养场所;度假村|体育休闲服务;运动场馆;乒乓球馆,北沿公路1288号,021-59631166;021-59631177;021-59631188,121.6056233,31.64384287,,上海市,,上海市,,崇明区,,"{'cost': , 'star': , 'opentime2': '07:00-19:00', 'rating': '4.5', 'lowest_price': , 'hotel_ordering': '1', 'open_time': '07:00-19:00'}"
B0G30NF67T,,新河镇敬老院,体育休闲服务;度假疗养场所;疗养院,团城公路与东后街交叉口东160米,,121.5297214,31.58625539,,上海市,,上海市,,崇明区,,"{'cost': , 'rating': }"
B0JA5PHO1Q,,崇明区竖新镇春风村村民委员会公益电影放映点,体育休闲服务;影剧院;影剧院相关,春风村,,121.6002753,31.62482994,,上海市,,上海市,,崇明区,,"{'cost': , 'opentime2': , 'seat_ordering': '0', 'rating': '3.5', 'open_time': }"
B0FFIB1Q4M,,轩瑞农家乐饭庄,体育休闲服务;休闲场所;休闲场所,前竖公路与春风二路交叉口西北40米,,121.5986039,31.61973341,,上海市,,上海市,,崇明区,,"{'cost': , 'rating': '3.5'}"
B0FFFVARNP,hotel,八仙酒家,住宿服务;住宿服务相关;住宿服务相关|体育休闲服务;休闲场所;休闲场所,跃进新南1269号,021-59491729,121.5975322,31.61579368,,上海市,,上海市,,崇明区,,"{'cost': , 'star': , 'opentime2': , 'rating': , 'lowest_price': , 'hotel_ordering': '0', 'open_time': }"
B0FFG1PU61,,上海东亚足球俱乐部-室内足球场,体育休闲服务;运动场馆;足球场,秀林路191号上海根宝足球基地上海东亚足球俱乐部内,,121.4790081,31.67248951,,上海市,,上海市,,崇明区,,"{'cost': , 'rating': '3.4'}"
B0H2XZH5KN,,均瀛乡村小镇,体育休闲服务;休闲场所;休闲场所,仙桥中路649号,,121.6054272,31.63387486,,上海市,,上海市,,崇明区,,"{'cost': , 'rating': '4.0'}"
B0FFM1SFZN,,崇明晓玥农家乐,体育休闲服务;休闲场所;休闲场所,建设镇建设村东平111号,13761448369,121.4862637,31.60281402,,上海市,,上海市,,崇明区,,"{'cost': , 'rating': '4.0'}"
B0I1BBO963,,上海崇明乡墅农家小院,体育休闲服务;休闲场所;休闲场所,建设村东平104号,18916282638,121.4870676,31.60209242,,上海市,,上海市,,崇明区,,"{'cost': , 'rating': '3.8'}"
B0FFG69HF2,hotel,上海施门种地农家乐,住宿服务;住宿服务相关;住宿服务相关|体育休闲服务;休闲场所;休闲场所,竖新镇仙桥村548号,021-59490348;18918620348,121.608408,31.63341615,,上海市,,上海市,,崇明区,,"{'cost': , 'star': , 'opentime2': '00:00-24:00', 'rating': '4.2', 'lowest_price': , 'hotel_ordering': '1', 'open_time': '24小时营业'}"
B001503C9D,hotel,上海宝岛度假村,住宿服务;住宿服务相关;住宿服务相关|体育休闲服务;度假疗养场所;度假村,北沿公路2097号,,121.4751998,31.67517076,,上海市,,上海市,,崇明区,,"{'cost': , 'star': , 'opentime2': , 'rating': '4.2', 'lowest_price': , 'hotel_ordering': '0', 'open_time': }"
B0FFGZU8QX,,德利农庄,体育休闲服务;休闲场所;休闲场所,春风村268号,,121.6041408,31.61996851,,上海市,,上海市,,崇明区,,"{'cost': , 'rating': '4.2'}"
B0GDDLWKG5,,跃进村村民活动室,体育休闲服务;娱乐场所;娱乐场所,三号河南路与前竖公路交叉口西南20米,,121.5968187,31.6101049,,上海市,,上海市,,崇明区,,"{'cost': , 'rating': '3.3'}"
B0I6TSMNTZ,,棋牌室,体育休闲服务;娱乐场所;棋牌室,北新支路与西后街交叉口北40米,,121.5224292,31.5838114,,上海市,,上海市,,崇明区,,"{'cost': , 'rating': '3.6'}"
B0H6FH2R7S,,施门种地户外垂钓生态园,体育休闲服务;休闲场所;垂钓园,竖新镇仙桥村高家河路876号北300米,13321811560,121.6099677,31.63850716,,上海市,,上海市,,崇明区,,"{'cost': , 'rating': '4.0'}"
B0G3BAP081,hotel,上海崇明椿风得意楼农家乐,住宿服务;住宿服务相关;住宿服务相关|体育休闲服务;休闲场所;休闲场所,新光村路101号,13585957673;13585974140,121.5466512,31.70453306,,上海市,,上海市,,崇明区,,"{'cost': , 'star': , 'opentime2': '08:00-21:30', 'rating': '4.0', 'lowest_price': , 'hotel_ordering': '0', 'open_time': '08:00-21:30'}"
B0IA3AQ34Y,,椿风得意楼农家乐,体育休闲服务;休闲场所;休闲场所,东平镇新光村101,13585974140,121.5464657,31.7046377,,上海市,,上海市,,崇明区,,"{'cost': , 'rating': '4.0'}"
B0G2BZ8LX0,hotel,悦来林舍农家乐,住宿服务;住宿服务相关;住宿服务相关|体育休闲服务;休闲场所;休闲场所,建设镇运南村运北415号,17717640385,121.4682308,31.6616929,,上海市,,上海市,,崇明区,,"{'cost': , 'star': , 'opentime2': '08:00-22:00', 'rating': '3.8', 'lowest_price': , 'hotel_ordering': '0', 'open_time': '08:00-22:00'}"
B0H6PRSCTV,,中韩跆拳道(新河公路店),体育休闲服务;运动场馆;跆拳道场馆,新河公路与新贸路交叉口东40米,13816187141,121.5231507,31.5828324,,上海市,,上海市,,崇明区,,"{'cost': , 'rating': '3.9'}"
B0GDR1DQBL,,木棉花开创意工坊,体育休闲服务;体育休闲服务场所;体育休闲服务场所,仙桥村高家河路876号,13817676890,121.6102717,31.63657293,,上海市,,上海市,,崇明区,,"{'cost': , 'rating': '4.3'}"
B0FFGBJNZC,,怡沁园-健身娱乐中心,体育休闲服务;娱乐场所;娱乐场所,建设镇北沿公路2089号,,121.4730296,31.67402261,,上海市,,上海市,,崇明区,,"{'cost': , 'rating': '3.9'}"
B0I3GAIOFC,,上海圆俊农家乐,体育休闲服务;休闲场所;休闲场所,建设镇白钥村138号,"86,105,632,061,229,000,000",121.4645447,31.65444688,,上海市,,上海市,,崇明区,,"{'cost': , 'rating': '3.8'}"
B0FFFTTSVP,,小杨草莓园,体育休闲服务;休闲场所;采摘园,团城公路与南建路交叉口处,15221738556,121.4760125,31.60637711,,上海市,,上海市,,崇明区,,"{'cost': '80.00', 'rating': '4.2'}"
B0FFL4XOTE,,自控飞机,体育休闲服务;休闲场所;游乐场,北沿公路2188号东平国家森林公园内(东侧),021-59338028,121.4836372,31.68587974,,上海市,,上海市,,崇明区,,"{'cost': , 'rating': '3.6'}"
B0I66ZIKIY,,上海涧舍度假庄园,体育休闲服务;体育休闲服务场所;体育休闲服务场所,建设镇镇中路白钥村201号,17317722195;17717914921,121.4633197,31.65598174,,上海市,,上海市,,崇明区,,"{'cost': , 'rating': '4.5'}"
B0I6NUEZOD,,杰英溯源草莓园(暂停营业),体育休闲服务;休闲场所;采摘园,建设镇建设村七组749号,,121.4788515,31.61521706,,上海市,,上海市,,崇明区,,"{'cost': , 'rating': '3.6'}"
B0HAXKMYQS,,瀛居轩农家乐(装修中),体育休闲服务;体育休闲服务场所;体育休闲服务场所,建设镇建设村东平1108-1号,13062806695,121.4803756,31.60628465,,上海市,,上海市,,崇明区,,"{'cost': , 'rating': '4.1'}"
B00156YKWH,,骑马场(暂停营业),体育休闲服务;运动场馆;赛马场,棕榈路与贞薇路交叉口西50米,,121.4814688,31.68317422,,上海市,,上海市,,崇明区,,"{'cost': , 'rating': '3.9'}"
B0FFFA1Q2U,,石路村休闲广场,体育休闲服务;运动场馆;户外健身场所,团城公路和新河公路的交叉口附近,,121.5383596,31.57998852,,上海市,,上海市,,崇明区,,"{'cost': , 'rating': '3.4'}"
B0I1PANPHG,,Come across camping遇见露营,体育休闲服务;体育休闲服务场所;体育休闲服务场所,崇明岛星光镇新光村路,13916018316,121.5256933,31.70768338,,上海市,,上海市,,崇明区,,"{'cost': , 'rating': '3.8'}"
B0JKG523TO,,二十河,体育休闲服务;休闲场所;休闲场所,仙桥中路918号,,121.6126105,31.63217415,,上海市,,上海市,,崇明区,,"{'cost': , 'rating': }"
B001577O8X,,滑索,体育休闲服务;休闲场所;游乐场,北沿公路2288号东平国家森林公园内(东北角),021-59338379,121.4825301,31.68845265,,上海市,,上海市,,崇明区,,"{'cost': , 'rating': '2.9'}"
B0I6CCLXEU,,陈小春欢乐生态草莓园,体育休闲服务;休闲场所;采摘园,环东路,15216668867,121.5352558,31.5781794,,上海市,,上海市,,崇明区,,"{'cost': , 'rating': '3.7'}"
B0IGVH2NAZ,,井亭大院,体育休闲服务;休闲场所;休闲场所,井亭路与为群路交叉口西南100米,,121.4893717,31.59265561,,上海市,,上海市,,崇明区,,"{'cost': , 'rating': '3.3'}"
B00156N8F8,,天雅度假村,体育休闲服务;度假疗养场所;度假村,新河镇石路村塔东路149号,021-69686137,121.5435871,31.57678718,,上海市,,上海市,,崇明区,,"{'cost': , 'rating': '4.5'}"
B0H3T5I8BC,,垂钓中心,体育休闲服务;休闲场所;垂钓园,东平镇林风公路501号上药中医药文化园,,121.4879288,31.69345892,,上海市,,上海市,,崇明区,,"{'cost': , 'rating': '3.9'}"
B0FFG46JJK,hotel,上海东平国家森林公园房车露营地,住宿服务;住宿服务相关;住宿服务相关|体育休闲服务;休闲场所;休闲场所,上海市崇明区北沿公路2188号东平国家森林公园1号门(内),021-59338666,121.479969,31.68983629,,上海市,,上海市,,崇明区,,"{'cost': , 'star': , 'opentime2': '08:30-22:00', 'rating': '4.0', 'lowest_price': , 'hotel_ordering': '1', 'open_time': '08:30-22:00'}"
B0GK5CC8DJ,,小宋草莓采摘园,体育休闲服务;休闲场所;采摘园,蟠龙公路与候南北路交叉口西南240米,18049701916;18930469002,121.4703544,31.60795827,,上海市,,上海市,,崇明区,,"{'cost': '66.00', 'rating': '3.9'}"
B0J2J42WT6,,上海禅意小院,体育休闲服务;休闲场所;休闲场所|住宿服务;住宿服务相关;住宿服务相关,竖新镇团城公路和东新中路交叉口,15601697381,121.5493896,31.57687878,,上海市,,上海市,,崇明区,,"{'cost': , 'star': , 'opentime2': , 'rating': '4.7', 'lowest_price': , 'hotel_ordering': '1', 'open_time': }"
B0JGJ97XWJ,,戎灏体育足球青训基地,体育休闲服务;运动场馆;足球场,崇明大道与新薇路交叉口东100米,,121.5078301,31.58199013,,上海市,,上海市,,崇明区,,"{'cost': , 'rating': '4.0'}"
B0I1J5C6DB,,团建真人cs拓展基地,体育休闲服务;娱乐场所;娱乐场所,白玉兰路与北沿公路交叉口东北40米,,121.4716434,31.67953305,,上海市,,上海市,,崇明区,,"{'cost': , 'rating': '3.6'}"
B0GUG50KQW,,浦江瀛岛度假村,体育休闲服务;度假疗养场所;度假村,上海市崇明区团城公路2777号,021-59485588;18049856198,121.5506657,31.57542626,,上海市,,上海市,,崇明区,,"{'cost': , 'rating': '4.3'}"
B0HRLC0ZTZ,,上海戎灏体育青少年足球基地,体育休闲服务;运动场馆;足球场,新河镇井亭村1258号,18018661486,121.4877973,31.59006003,,上海市,,上海市,,崇明区,,"{'cost': , 'rating': '4.2'}"
B0GK1MWHPM,,明哥草莓园,体育休闲服务;休闲场所;采摘园,竖新镇椿越七路跃进河桥附近,15158006423,121.6029044,31.6057723,,上海市,,上海市,,崇明区,,"{'cost': , 'rating': '3.6'}"
B0J1GH958Y,,烨笛农家乐,体育休闲服务;休闲场所;休闲场所,卫家河路与虹桥路交叉口东南300米,13331838744,121.4687181,31.67670889,,上海市,,上海市,,崇明区,,"{'cost': , 'rating': '3.7'}"
B0FFLKAT57,,东平国家森林公园拓展真人CS店,体育休闲服务;休闲场所;休闲场所,东平镇北沿公路2188号,,121.4763418,31.6856156,,上海市,,上海市,,崇明区,,"{'cost': , 'rating': '3.4'}"
B0FFKV1G96,hotel,小包总农家乐,住宿服务;住宿服务相关;住宿服务相关|体育休闲服务;休闲场所;休闲场所,崇明区-建设镇富安村官尖805号崇明农家乐休闲采摘民宿住宿餐饮,18017724997;18916757818,121.4566012,31.64914581,,上海市,,上海市,,崇明区,,"{'cost': , 'star': , 'opentime2': '00:00-24:00', 'rating': '4.4', 'lowest_price': , 'hotel_ordering': '1', 'open_time': '24小时营业'}"
B0FFJP38B1,,徐庄度假村,体育休闲服务;体育休闲服务场所;体育休闲服务场所,城桥镇长兴镇829,18019205098,121.457707,31.64227135,,上海市,,上海市,,崇明区,,"{'cost': , 'rating': }"
B0FFK6TGI5,,涛涛农家乐,体育休闲服务;休闲场所;休闲场所,虹桥路建设镇虹桥村斜桥2239号,021-59339958;17717029958,121.4665651,31.67721215,,上海市,,上海市,,崇明区,,"{'cost': , 'rating': '4.2'}"
B0FFHNTB24,,要要吃农家乐(东平国家森林公园店),体育休闲服务;休闲场所;休闲场所,建设镇北沿公路虹桥村117号,13524094391,121.4664534,31.68065104,,上海市,,上海市,,崇明区,,"{'cost': '84.00', 'rating': '4.8'}"
B0FFGLGOTF,hotel,上海崇明森虹农家乐(东平森林公园店),住宿服务;住宿服务相关;住宿服务相关|体育休闲服务;休闲场所;休闲场所,东平国家森林公园,13127946730;13818945367,121.4663232,31.67877759,,上海市,,上海市,,崇明区,,"{'cost': , 'star': , 'opentime2': '10:00-20:00', 'rating': '4.3', 'lowest_price': , 'hotel_ordering': '1', 'open_time': '10:00-20:00'}"
B0FFJMCOXI,hotel,上海君赢农家乐,住宿服务;住宿服务相关;住宿服务相关|体育休闲服务;休闲场所;休闲场所,建设镇虹运路238号,"13795327757;+861056320612,4333316",121.4663872,31.6813219,,上海市,,上海市,,崇明区,,"{'cost': , 'star': , 'opentime2': '10:00-20:00', 'rating': '4.7', 'lowest_price': , 'hotel_ordering': '1', 'open_time': '10:00-20:00'}"
B0HR0BPCR1,,东平国家森林公园房车露营地柳杉区美国Kz房车-706紫杉,体育休闲服务;体育休闲服务场所;体育休闲服务场所,东平国家森林公园梅园附近房车露营地内柳杉区美国Kz房车,,121.4789624,31.69031341,,上海市,,上海市,,崇明区,,"{'cost': , 'rating': '1.1'}"
B0HKLDPVC8,,锦旺农业生态园,体育休闲服务;休闲场所;采摘园,虹桥路建设镇虹桥村斜桥2239号,13585899508,121.466541,31.67726908,,上海市,,上海市,,崇明区,,"{'cost': , 'rating': '3.5'}"
B0FFHLA0XI,hotel,上海金地湾农家乐,住宿服务;住宿服务相关;住宿服务相关|体育休闲服务;休闲场所;休闲场所,建设镇虹桥村221号,17321413094,121.4659188,31.67923654,,上海市,,上海市,,崇明区,,"{'cost': , 'star': , 'opentime2': '08:00-22:00', 'rating': '4.4', 'lowest_price': , 'hotel_ordering': '1', 'open_time': '08:00-22:00'}"
B0H1ORUAP0,,东平国家森林公园房车露营地柳杉区美国Kz房车-719红豆杉,体育休闲服务;体育休闲服务场所;体育休闲服务场所,东平国家森林公园梅园附近房车露营地内柳杉区美国Kz房车,,121.4793296,31.69112652,,上海市,,上海市,,崇明区,,"{'cost': , 'rating': '1.1'}"
B0H1ORUIGQ,,东平国家森林公园房车露营地柳杉区美国Kz房车-716油杉,体育休闲服务;体育休闲服务场所;体育休闲服务场所,东平国家森林公园梅园附近房车露营地内柳杉区美国Kz房车,,121.4790968,31.69092284,,上海市,,上海市,,崇明区,,"{'cost': , 'rating': '3.4'}"
B0H1ORV5NJ,,东平国家森林公园房车露营地柳杉区美国Kz房车-721落羽杉,体育休闲服务;体育休闲服务场所;体育休闲服务场所,东平国家森林公园梅园附近房车露营地内柳杉区美国Kz房车,,121.4791771,31.6913311,,上海市,,上海市,,崇明区,,"{'cost': , 'rating': '2.6'}"
B0FFF0ELBH,,金大妈农家乐(森林公园店),体育休闲服务;休闲场所;休闲场所|住宿服务;住宿服务相关;住宿服务相关,虹桥村237号,15821233303;18017724997,121.4661013,31.68121914,,上海市,,上海市,,崇明区,,"{'cost': , 'star': , 'opentime2': '10:00-20:00', 'rating': '4.5', 'lowest_price': , 'hotel_ordering': '1', 'open_time': '10:00-20:00'}"
B0H1ORUAP0,,东平国家森林公园房车露营地柳杉区美国Kz房车-719红豆杉,体育休闲服务;体育休闲服务场所;体育休闲服务场所,东平国家森林公园梅园附近房车露营地内柳杉区美国Kz房车,,121.4793296,31.69112652,,上海市,,上海市,,崇明区,,"{'cost': , 'rating': '1.1'}"
B0H1ORUIGQ,,东平国家森林公园房车露营地柳杉区美国Kz房车-716油杉,体育休闲服务;体育休闲服务场所;体育休闲服务场所,东平国家森林公园梅园附近房车露营地内柳杉区美国Kz房车,,121.4790968,31.69092284,,上海市,,上海市,,崇明区,,"{'cost': , 'rating': '3.4'}"
B0H1ORV5NJ,,东平国家森林公园房车露营地柳杉区美国Kz房车-721落羽杉,体育休闲服务;体育休闲服务场所;体育休闲服务场所,东平国家森林公园梅园附近房车露营地内柳杉区美国Kz房车,,121.4791771,31.6913311,,上海市,,上海市,,崇明区,,"{'cost': , 'rating': '2.6'}"
B0FFF0ELBH,,金大妈农家乐(森林公园店),体育休闲服务;休闲场所;休闲场所|住宿服务;住宿服务相关;住宿服务相关,虹桥村237号,15821233303;18017724997,121.4661013,31.68121914,,上海市,,上海市,,崇明区,,"{'cost': , 'star': , 'opentime2': '10:00-20:00', 'rating': '4.5', 'lowest_price': , 'hotel_ordering': '1', 'open_time': '10:00-20:00'}"
B0FFKUVGC1,,上海深宅小院农家乐,体育休闲服务;休闲场所;休闲场所,虹运路,17749799706,121.4651414,31.67916349,,上海市,,上海市,,崇明区,,"{'cost': , 'rating': '4.4'}"
B00156PB98,,沐雨农庄(暂停营业),体育休闲服务;休闲场所;休闲场所,竖新镇大东村680号,021-59492433,121.611454,31.6117372,,上海市,,上海市,,崇明区,,"{'cost': '116.00', 'rating': '4.1'}"
B0I3NLBAPV,,小水农家乐,体育休闲服务;休闲场所;休闲场所,建设镇虹桥村205号,13671997650,121.4667194,31.67910166,,上海市,,上海市,,崇明区,,"{'cost': , 'rating': '3.8'}"
B00156EFUD,,天天农家乐(崇明东平森林公园店),体育休闲服务;休闲场所;休闲场所,区建设镇虹桥村240号,021-59339069;021-59339563;17316586328,121.4659808,31.68243689,,上海市,,上海市,,崇明区,,"{'cost': '75.00', 'rating': '4.5'}"
B00156EFWQ,,嘉龙养老院,体育休闲服务;度假疗养场所;疗养院,大东村682号,021-59492207,121.6128041,31.61152416,,上海市,,上海市,,崇明区,,"{'cost': , 'rating': }"
B0FFFTH5SJ,hotel,上海大雄农家乐,住宿服务;住宿服务相关;住宿服务相关|体育休闲服务;休闲场所;休闲场所,虹桥村306室,13601806563;18121096965,121.4638935,31.67867321,,上海市,,上海市,,崇明区,,"{'cost': , 'star': , 'opentime2': '07:00-20:00', 'rating': '4.7', 'lowest_price': , 'hotel_ordering': '1', 'open_time': '07:00-20:00'}"
B00156GKYN,hotel,上海龙之缘农家乐,住宿服务;住宿服务相关;住宿服务相关|体育休闲服务;休闲场所;休闲场所,建设镇虹桥村145号,021-59339063,121.4666339,31.68148957,,上海市,,上海市,,崇明区,,"{'cost': , 'star': , 'opentime2': '00:00-24:00', 'rating': '3.9', 'lowest_price': , 'hotel_ordering': '1', 'open_time': '24小时营业'}"
B0FFFA1HQK,hotel,虹桥农家乐,住宿服务;住宿服务相关;住宿服务相关|体育休闲服务;休闲场所;休闲场所,近郊崇明建设镇虹桥村239号(东平国家森林公园2号门东侧),13818975092,121.4662898,31.68158066,,上海市,,上海市,,崇明区,,"{'cost': , 'star': , 'opentime2': '周一至周日 09:30-19:30', 'rating': '3.9', 'lowest_price': , 'hotel_ordering': '1', 'open_time': '09:30-19:30'}"
B0JAAOOZVW,,虹桥村(斜桥638)公益电影放映点,体育休闲服务;影剧院;影剧院相关,虹桥村,,121.458319,31.66239638,,上海市,,上海市,,崇明区,,"{'cost': , 'opentime2': , 'seat_ordering': '0', 'rating': '1.3', 'open_time': }"
B0FFIXZWQY,,俞阿姨农家乐,体育休闲服务;休闲场所;休闲场所,建设镇虹桥村229号,,121.4648134,31.67913463,,上海市,,上海市,,崇明区,,"{'cost': , 'rating': '3.7'}"
B0JDKM5E92,,渔人码头钓鱼俱乐部,体育休闲服务;休闲场所;休闲场所,竖新镇大新响哃村响南,19117300561,121.6193804,31.62564293,,上海市,,上海市,,崇明区,,"{'cost': , 'rating': '3.9'}"
B0FFIY7AZR,,祁景农家乐,体育休闲服务;休闲场所;休闲场所,建设镇虹运路虹桥村228号,18917736078,121.4657583,31.67958214,,上海市,,上海市,,崇明区,,"{'cost': , 'rating': '3.7'}"
B00156EFX2,hotel,缘辉农家乐,住宿服务;住宿服务相关;住宿服务相关|体育休闲服务;休闲场所;休闲场所,建设镇虹桥村12号(近东平国家森林公园2号门东侧),021-59338083;13402156781;13774337781,121.467263,31.68128823,,上海市,,上海市,,崇明区,,"{'cost': , 'star': , 'opentime2': , 'rating': '4.1', 'lowest_price': , 'hotel_ordering': '1', 'open_time': }"
B0FFL59R7Z,,凤之缘农家菜馆,体育休闲服务;休闲场所;休闲场所|餐饮服务;中餐厅;中餐厅,建设镇虹桥村136号,18017264370;18916352699,121.4668115,31.68153404,,上海市,,上海市,,崇明区,,"{'cost': '54.00', 'opentime2': '00:00-24:00', 'rating': '3.9', 'open_time': '24小时营业', 'meal_ordering': '0'}"
B0FFJH0T7J,,上海崇明民福养护院,体育休闲服务;体育休闲服务场所;体育休闲服务场所,建设镇建星路88号,,121.4540644,31.65588401,,上海市,,上海市,,崇明区,,"{'cost': , 'rating': }"
B00156GIZY,,易家缘农家乐(崇明东平森林公园店),体育休闲服务;休闲场所;休闲场所,建设镇虹桥村244号,15921571281;18964179609,121.4656156,31.68267494,,上海市,,上海市,,崇明区,,"{'cost': , 'rating': '4.1'}"
B0FFL3UCUK,hotel,一香农家乐,住宿服务;住宿服务相关;住宿服务相关|体育休闲服务;休闲场所;休闲场所,虹桥村236号,021-59339557;13818047735,121.4661394,31.68114023,,上海市,,上海市,,崇明区,,"{'cost': , 'star': , 'opentime2': , 'rating': '3.9', 'lowest_price': , 'hotel_ordering': '1', 'open_time': }"
B0FFKVRHUE,,上海孙府农庄采摘园,体育休闲服务;体育休闲服务场所;体育休闲服务场所,运粮河路与建小路交叉口西北180米,,121.4577283,31.66281996,,上海市,,上海市,,崇明区,,"{'cost': , 'rating': '3.2'}"
B0HKLSQ2IO,,智祥农家院,体育休闲服务;休闲场所;休闲场所,建设镇虹桥村136号(森林公园2号门对面),13524094391;15300721967,121.4664113,31.68079194,,上海市,,上海市,,崇明区,,"{'cost': , 'rating': '3.6'}"
B0FFHE23W0,,顾伯伯农家乐草莓采摘园(森林公园店),体育休闲服务;休闲场所;采摘园,建设镇虹桥村301号,18721681478,121.4618702,31.67948605,,上海市,,上海市,,崇明区,,"{'cost': '105.00', 'rating': '4.5'}"
B0FFKQSBQW,,西二门农家乐(智慧商圈签约客户),体育休闲服务;休闲场所;休闲场所,虹桥村511号,021-62523623;13585949119,121.4650969,31.6830066,,上海市,,上海市,,崇明区,,"{'cost': '65.00', 'rating': '4.2'}"
B0FFGY4SNW,hotel,上海好时光农家乐(东平森林公园店),住宿服务;住宿服务相关;住宿服务相关|体育休闲服务;休闲场所;休闲场所,建设镇虹桥村243号,"13524312263;+862126137886,14324983",121.4654661,31.68259554,,上海市,,上海市,,崇明区,,"{'cost': , 'star': , 'opentime2': , 'rating': '4.1', 'lowest_price': , 'hotel_ordering': '1', 'open_time': }"
B0J61HTZIV,,贰6十二民谣酒馆,体育休闲服务;娱乐场所;酒吧,建设镇虹桥村329号,15300488598,121.4619575,31.67858922,,上海市,,上海市,,崇明区,,"{'cost': , 'rating': '4.1'}"
B00150383A,,城桥第三敬老院,体育休闲服务;度假疗养场所;疗养院,长侯路29号,,121.4563071,31.61787992,,上海市,,上海市,,崇明区,,"{'cost': , 'rating': }"
B0HDNCDPGO,hotel,琪琪农家乐,住宿服务;住宿服务相关;住宿服务相关|体育休闲服务;休闲场所;休闲场所,建设镇虹桥村602号,13764871749,121.4630607,31.68113419,,上海市,,上海市,,崇明区,,"{'cost': , 'star': , 'opentime2': '08:00-20:00', 'rating': '4.2', 'lowest_price': , 'hotel_ordering': '1', 'open_time': '08:00-20:00'}"
B0FFFEMTKT,hotel,上海丰丰农家乐(东平森林公园店),住宿服务;住宿服务相关;住宿服务相关|体育休闲服务;休闲场所;休闲场所,建设镇虹桥村富民路512号,17302118927;17721427083,121.4649153,31.68305012,,上海市,,上海市,,崇明区,,"{'cost': , 'star': , 'opentime2': '00:00-24:00', 'rating': '4.0', 'lowest_price': , 'hotel_ordering': '1', 'open_time': '24小时营业'}"
B0FFKS9KO0,,崇明顾伯伯户外烧烤营地(东平森林公园店),体育休闲服务;休闲场所;休闲场所,公平路与进取路交叉口西60米,13816628742,121.462063,31.67748843,,上海市,,上海市,,崇明区,,"{'cost': '89.00', 'rating': '3.9'}"
B0FFF6X3E0,,崇明日租素心农家乐别墅,体育休闲服务;休闲场所;休闲场所,建设镇虹桥村317号,18019180707,121.4630519,31.67829901,,上海市,,上海市,,崇明区,,"{'cost': , 'rating': '3.9'}"
B0FFKZHIVP,,米立粒农家乐,体育休闲服务;休闲场所;休闲场所,建设镇虹桥村331号,18918095811;18964881053,121.461729,31.67733557,,上海市,,上海市,,崇明区,,"{'cost': , 'rating': '3.6'}"
B0G0ZUY8QF,,天天草莓采摘园,体育休闲服务;体育休闲服务场所;体育休闲服务场所,X521(团城公路)与江海公路交汇处,18201996991,121.5563696,31.57225437,,上海市,,上海市,,崇明区,,"{'cost': , 'rating': '3.9'}"
B0FFHVRABL,hotel,上海嘉成农家乐(东平森林公园店),住宿服务;住宿服务相关;住宿服务相关|体育休闲服务;休闲场所;休闲场所,建设镇富民路虹桥村513号(东平森林公园2号门对面),"021-59339569;17317720362;+861056320612,94519",121.4645803,31.68310125,,上海市,,上海市,,崇明区,,"{'cost': , 'star': , 'opentime2': , 'rating': '3.9', 'lowest_price': , 'hotel_ordering': '1', 'open_time': }"
B0HDOU6ZNB,,云溪水榭,体育休闲服务;休闲场所;休闲场所,富裕路502号,,121.4636385,31.68097467,,上海市,,上海市,,崇明区,,"{'cost': , 'rating': '3.8'}"
B0JATUQE9I,,运粮3号农庄,体育休闲服务;体育休闲服务场所;体育休闲服务场所,建设镇运粮河路3号,,121.4542684,31.66301873,,上海市,,上海市,,崇明区,,"{'cost': , 'rating': '3.8'}"
B0FFIVENN5,,上海市崇明林墅农家乐服务部,体育休闲服务;体育休闲服务场所;体育休闲服务场所,建设镇虹桥村241号,,121.4654069,31.68247338,,上海市,,上海市,,崇明区,,"{'cost': , 'rating': '3.1'}"
B0HUBRGL9L,,上海崇和园农庄,体育休闲服务;休闲场所;休闲场所|住宿服务;住宿服务相关;住宿服务相关,建设镇白钥村旭升路1311号,13701966887;13801882235,121.4518109,31.66030901,,上海市,,上海市,,崇明区,,"{'cost': , 'star': , 'opentime2': '00:00-24:00', 'rating': '4.9', 'lowest_price': , 'hotel_ordering': '1', 'open_time': '24小时营业'}"
B0I129D77G,,素心自行车农家乐,体育休闲服务;休闲场所;休闲场所,虹桥路与进取路交叉口西南40米,,121.462094,31.67846857,,上海市,,上海市,,崇明区,,"{'cost': , 'rating': '3.2'}"
B0I129D77G,,素心自行车农家乐,体育休闲服务;休闲场所;休闲场所,虹桥路与进取路交叉口西南40米,,121.462094,31.67846857,,上海市,,上海市,,崇明区,,"{'cost': , 'rating': '3.2'}"
B0G1A11JLN,,上海市崇明区休沐农家乐服务部,体育休闲服务;休闲场所;休闲场所,虹桥村斜桥1417号,13761221650,121.4566784,31.67206182,,上海市,,上海市,,崇明区,,"{'cost': , 'rating': '3.7'}"
B0H3TDF652,,帐篷营地,体育休闲服务;休闲场所;露营地,北沿公路2188号东平国家森林公园内(西北角),021-59338028,121.4719754,31.69267379,,上海市,,上海市,,崇明区,,"{'cost': , 'rating': '3.9'}"
B0G357WSYV,,博涵农庄,体育休闲服务;休闲场所;休闲场所,建设镇虹桥斜桥1656号,17321186051,121.4515368,31.66355551,,上海市,,上海市,,崇明区,,"{'cost': , 'rating': '4.7'}"
B00156EH95,hotel,东平度假村(东风公路分店),住宿服务;住宿服务相关;住宿服务相关|体育休闲服务;度假疗养场所;度假村|体育休闲服务;休闲场所;休闲场所,东风公路555号,"021-59641888;021-59642888;+861056320612,36181",121.4889261,31.70822403,,上海市,,上海市,,崇明区,,"{'cost': , 'star': , 'opentime2': , 'rating': '4.6', 'lowest_price': , 'hotel_ordering': '1', 'open_time': }"
B0FFH0HSS8,,城桥镇第二敬老院,体育休闲服务;度假疗养场所;疗养院,城桥镇团城公路6380号,,121.4529766,31.61990611,,上海市,,上海市,,崇明区,,"{'cost': , 'rating': }"
B0FFMHQPWF,,北岸农家乐,体育休闲服务;休闲场所;休闲场所,建设镇虹桥村北岸农家乐,021-59338547,121.4571783,31.67856736,,上海市,,上海市,,崇明区,,"{'cost': '74.00', 'rating': '4.4'}"
B0G1JU5Z8E,,小虹桥,体育休闲服务;休闲场所;休闲场所,虹桥村913号,13701856499,121.4609691,31.68390203,,上海市,,上海市,,崇明区,,"{'cost': , 'rating': '4.3'}"
B0FFJB88HK,,虹桥垂钓园,体育休闲服务;休闲场所;垂钓园,建设镇虹桥村7队,13501692042;15000490573,121.4592291,31.68111652,,上海市,,上海市,,崇明区,,"{'cost': , 'rating': '4.2'}"
B0GRRSK5TI,hotel,上海晨阳农家乐,住宿服务;住宿服务相关;住宿服务相关|体育休闲服务;休闲场所;休闲场所,建设镇虹桥村斜桥1910号,"13916260303;+861056320612,5991077",121.4542234,31.67222503,,上海市,,上海市,,崇明区,,"{'cost': , 'star': , 'opentime2': '00:00-24:00', 'rating': '4.2', 'lowest_price': , 'hotel_ordering': '1', 'open_time': '24小时营业'}"
B0ID6MX5OF,,渔民人家农家乐,体育休闲服务;休闲场所;休闲场所,前卫村402号,021-59649500,121.5116189,31.71759824,,上海市,,上海市,,崇明区,,"{'cost': , 'rating': '4.6'}"
B0FFHZSHW0,hotel,上海崇明人家民宿(森林公园店),住宿服务;住宿服务相关;住宿服务相关|体育休闲服务;休闲场所;休闲场所,森林公园2号门西侧(北沿公路2179号),021-59339311;13761279777,121.4633783,31.68614931,,上海市,,上海市,,崇明区,,"{'cost': , 'star': , 'opentime2': '09:00-21:30', 'rating': '3.0', 'lowest_price': , 'hotel_ordering': '1', 'open_time': '09:00-21:30'}"
B0FFFPQZOV,hotel,上海鑫乐庄园,住宿服务;住宿服务相关;住宿服务相关|体育休闲服务;休闲场所;休闲场所,前卫村312号,021-59649226;13916579034,121.5127198,31.71697635,,上海市,,上海市,,崇明区,,"{'cost': , 'star': , 'opentime2': '08:00-20:00', 'rating': '3.9', 'lowest_price': , 'hotel_ordering': '1', 'open_time': '08:00-20:00'}"
B0JAA9KL0F,,竖南村公益电影放映点,体育休闲服务;影剧院;影剧院相关,竖南村,,121.5758305,31.57561573,,上海市,,上海市,,崇明区,,"{'cost': , 'opentime2': , 'seat_ordering': '0', 'rating': '3.3', 'open_time': }"
B0FFFVQI55,,薇薇旅馆,体育休闲服务;休闲场所;休闲场所|住宿服务;旅馆招待所;旅馆招待所,建设镇镇南路21号(电信营业厅旁),13917666750;18918661610,121.4493435,31.65815048,,上海市,,上海市,,崇明区,,"{'cost': , 'star': , 'opentime2': , 'rating': , 'lowest_price': , 'hotel_ordering': '1', 'open_time': }"
B0FFFPGGS5,hotel,小威农家乐(纬十路1号分店),住宿服务;住宿服务相关;住宿服务相关|体育休闲服务;休闲场所;休闲场所,前卫善养苑西南门东南410米,"021-59649172;13564248018;010-56320606,15976051",121.5112907,31.71762229,,上海市,,上海市,,崇明区,,"{'cost': , 'star': , 'opentime2': , 'rating': '4.3', 'lowest_price': , 'hotel_ordering': '1', 'open_time': }"
B0FFGC372D,,张清棋牌室,体育休闲服务;娱乐场所;棋牌室,东平镇东风公路506号,021-59641587,121.490282,31.70882413,,上海市,,上海市,,崇明区,,"{'cost': , 'rating': '3.8'}"
B0FFIB1PF8,hotel,上海崇明田英居农家乐(4号店),住宿服务;住宿服务相关;住宿服务相关|体育休闲服务;休闲场所;休闲场所,建设虹桥村富民路1601号,"13482559895;15221285071;+861056320612,89074",121.4593783,31.68423207,,上海市,,上海市,,崇明区,,"{'cost': , 'star': , 'opentime2': , 'rating': '4.9', 'lowest_price': , 'hotel_ordering': '1', 'open_time': }"
B0I2GG2BSO,,静闲居农家乐,体育休闲服务;休闲场所;休闲场所,富民路与虹桥中心路交叉口西120米,,121.4606662,31.68394927,,上海市,,上海市,,崇明区,,"{'cost': , 'rating': '3.8'}"
B0G2BC9YZ4,hotel,上海奇佳乐农家乐,住宿服务;住宿服务相关;住宿服务相关|体育休闲服务;休闲场所;休闲场所,建设镇界定村806号,13310137098,121.4502741,31.6682019,,上海市,,上海市,,崇明区,,"{'cost': , 'star': , 'opentime2': '08:00-20:00', 'rating': '3.9', 'lowest_price': , 'hotel_ordering': '1', 'open_time': '08:00-20:00'}"
B0FFLFS0PU,,聚闲居农家乐,体育休闲服务;休闲场所;休闲场所,富民路崇明人家10号民宿,13701867999,121.4606732,31.68392728,,上海市,,上海市,,崇明区,,"{'cost': , 'rating': '3.8'}"
B0IAVZGKPT,,迎福贵农家乐(前卫生态村店),体育休闲服务;休闲场所;休闲场所,迎富贵农家乐东南门北50米,021-59649216;15821925298,121.5119078,31.71856316,,上海市,,上海市,,崇明区,,"{'cost': , 'rating': '3.9'}"
B0FFGV6YES,hotel,上海大灶头民宿,住宿服务;住宿服务相关;住宿服务相关|体育休闲服务;休闲场所;休闲场所,虹桥村1118号,"13818116948;13917231619;+861056320612,43359",121.4530318,31.67633649,,上海市,,上海市,,崇明区,,"{'cost': , 'star': , 'opentime2': , 'rating': '4.4', 'lowest_price': , 'hotel_ordering': '1', 'open_time': }"
B0FFGZZQQN,hotel,上海黄家花园饭庄,住宿服务;住宿服务相关;住宿服务相关|体育休闲服务;休闲场所;休闲场所,前卫村313号,021-59649085;13621606231,121.5106032,31.71833937,,上海市,,上海市,,崇明区,,"{'cost': , 'star': , 'opentime2': '00:00-24:00', 'rating': '4.0', 'lowest_price': , 'hotel_ordering': '1', 'open_time': '24小时营业'}"
B0FFJMR3OP,hotel,上海三顾茅舍,住宿服务;住宿服务相关;住宿服务相关|体育休闲服务;休闲场所;休闲场所,竖新镇惠民村450,13311767629,121.5822606,31.5748209,,上海市,,上海市,,崇明区,,"{'cost': , 'star': , 'opentime2': , 'rating': '4.6', 'lowest_price': , 'hotel_ordering': '1', 'open_time': }"
