id,行业类型,名称,类型,地址,联系电话,lng,lat,省份代码,省份名称,城市代码,城市名称,区域代码,区域名称,所在商圈
B0FFFEK0BT,,上海体育场,体育休闲服务;运动场馆;综合体育馆,天钥桥路666号(上海游泳馆地铁站2号口步行260米),021-64266666,121.4374249,31.18334176,310000,上海市,21,上海市,310104,徐汇区,龙华
B0FFHKDU6C,,徐家汇体育公园,体育休闲服务;运动场馆;运动场所,零陵路800号(上海游泳馆地铁站2号口旁),021-64266666,121.434999,31.18342564,310000,上海市,21,上海市,310104,徐汇区,龙华
B00155NIG5,,上海体育馆,体育休闲服务;运动场馆;综合体育馆,漕溪北路1111号(上海体育馆地铁站2号口步行160米),021-64266666,121.4323149,31.18424499,310000,上海市,21,上海市,310104,徐汇区,龙华
B00155L0U4,,上海大舞台,体育休闲服务;影剧院;剧场,漕溪北路1111号,,121.4337617,31.18333269,310000,上海市,21,上海市,310104,徐汇区,龙华
B0FFFC66P1,,睿冠青少年机器人活动中心(光启文化广场B楼店),体育休闲服务;体育休闲服务场所;体育休闲服务场所,斜土路2899号光启文化广场B座102-3室(一层门店),021-64870339,121.4364746,31.18773293,310000,上海市,21,上海市,310104,徐汇区,龙华
B001556IEG,,上海游泳馆,体育休闲服务;运动场馆;游泳馆,中山南二路1300号(上海游泳馆地铁站1号口步行230米),021-34196900,121.4361104,31.1810177,310000,上海市,21,上海市,310104,徐汇区,龙华
B0FFIA2KXT,,上海徐汇万体馆,体育休闲服务;运动场馆;综合体育馆,上海体育馆地铁站2号口步行150米,,121.4337316,31.18325069,310000,上海市,21,上海市,310104,徐汇区,龙华
B0IBBAU09L,,徐家汇体育公园综合馆,体育休闲服务;运动场馆;运动场所,零陵路800号徐家汇体育公园,021-34196878,121.4335915,31.18170425,310000,上海市,21,上海市,310104,徐汇区,龙华
B0FFHQ6BLK,,乐刻健身(漕溪路吉美臣店),体育休闲服务;运动场馆;健身中心,凯旋南路900号3号线漕溪路地铁站3号口3楼,15380474193,121.433216,31.17897604,310000,上海市,21,上海市,310104,徐汇区,龙华
B0I1U5YVJL,,徐家汇体育公园综合馆-羽毛球馆,体育休闲服务;运动场馆;羽毛球场,漕溪北路1111号综合馆B1层,021-34196878,121.4335885,31.18170324,310000,上海市,21,上海市,310104,徐汇区,龙华
B0I0NA6WM8,,万体汇,体育休闲服务;运动场馆;运动场所,徐家汇体育公园西南角(上海体育馆地铁站6号口步行120米),,121.4331206,31.18175848,310000,上海市,21,上海市,310104,徐汇区,龙华
B0HDVUXPY7,,宛平剧院,体育休闲服务;影剧院;剧场,中山南二路857-859号,021-64392277;021-64691383,121.4466787,31.1869566,310000,上海市,21,上海市,310104,徐汇区,龙华
B0FFLICATJ,,网鱼网咖(徐汇双峰店),体育休闲服务;娱乐场所;网吧,中山南二路933号一楼,17717427603,121.4443762,31.18550964,310000,上海市,21,上海市,310104,徐汇区,龙华
B00151E89A,,上海话剧艺术中心(安福路),体育休闲服务;影剧院;剧场,安福路288号话剧大厦,021-64748600;021-64734567;021-64730123,121.4365263,31.21558641,310000,上海市,21,上海市,310104,徐汇区,湖南路
B0FFKBUMWT,,上音歌剧院,体育休闲服务;影剧院;剧场,汾阳路6号(陕西南路地铁站7号口步行320米),021-24158000,121.4507035,31.21661575,310000,上海市,21,上海市,310104,徐汇区,淮海路
B00155K7KV,,上海音乐学院汾阳校区贺绿汀音乐厅,体育休闲服务;影剧院;音乐厅,汾阳路20号上海音乐学院汾阳校区,,121.4497039,31.21538814,310000,上海市,21,上海市,310104,徐汇区,淮海路
B00157A5JJ,cinema,百丽宫影城(上海环贸店),体育休闲服务;影剧院;电影院,淮海中路999号环贸iapmL6层L6-601,021-64660718,121.4531931,31.21774683,310000,上海市,21,上海市,310104,徐汇区,淮海路
B0I1XUMG74,,Oneness Whisky&Bistrobar,体育休闲服务;娱乐场所;酒吧,襄阳北路100号襄阳坊二楼,021-64182216;18521942060,121.4512126,31.21922164,310000,上海市,21,上海市,310104,徐汇区,淮海路
B0G2AOD6MH,,Bar Limbo·境,体育休闲服务;娱乐场所;酒吧,襄阳北路100号二楼(陕西南路地铁站10号口步行400米),021-64158863,121.4511695,31.21906862,310000,上海市,21,上海市,310104,徐汇区,淮海路
B0JBZUHKHQ,,ONEK PARTY,体育休闲服务;娱乐场所;KTV,淮海国际广场西北门西南50米,021-63335032;021-66569070,121.4515176,31.21699538,310000,上海市,21,上海市,310104,徐汇区,淮海路
B0FFI4B34W,,威尔仕健身(嘉华中心),体育休闲服务;运动场馆;健身中心,襄阳北路108号嘉华中心(陕西南路地铁站7号口步行400米),021-31763935;021-80317548,121.4515255,31.21857365,310000,上海市,21,上海市,310104,徐汇区,淮海路
B0I2F7QXXJ,,一尺花园(香樟花园店),体育休闲服务;休闲场所;休闲场所,衡山路2号(常熟路地铁站7号口步行390米),19370710153,121.4452621,31.21129875,310000,上海市,21,上海市,310104,徐汇区,湖南路
B0FFF3T00K,,捷豹上海交响音乐厅,体育休闲服务;影剧院;音乐厅,复兴中路1380号(常熟路地铁站4号口步行450米),4008210522,121.4470604,31.21341643,310000,上海市,21,上海市,310104,徐汇区,淮海路
B0FFFPD3WF,,艾比之路(上海衡山路休闲街店),体育休闲服务;娱乐场所;酒吧,桃江路3号(常熟路地铁站7号口步行490米),021-54662069,121.4465493,31.21090757,310000,上海市,21,上海市,310104,徐汇区,岳阳
B001534B0E,,上海越剧院,体育休闲服务;影剧院;剧场,复兴西路10弄16号,021-64375837,121.4429615,31.21315529,310000,上海市,21,上海市,310104,徐汇区,岳阳
B0FFLJXPTR,,上海沪剧院,体育休闲服务;体育休闲服务场所;体育休闲服务场所,汾阳路150号,,121.4475628,31.21157737,310000,上海市,21,上海市,310104,徐汇区,岳阳
B0FFM1T2O5,,幸福集荟·黑石,体育休闲服务;体育休闲服务场所;体育休闲服务场所,复兴中路1331号黑石公寓1层,021-52752937,121.4478394,31.21289932,310000,上海市,21,上海市,310104,徐汇区,淮海路
B0G2O7GTDH,,BLACKSTONE EXCHANGE(黑石公寓店),体育休闲服务;娱乐场所;酒吧,复兴中路1331号黑石公寓1层,,121.447699,31.21287903,310000,上海市,21,上海市,310104,徐汇区,淮海路
B0GRVMTNRR,,12-Bar BLUES(黑石公寓店),体育休闲服务;娱乐场所;酒吧,复兴中路1331弄黑石公寓1号楼,18621150094,121.4478895,31.2127545,310000,上海市,21,上海市,310104,徐汇区,岳阳
B001524450,,徐汇游泳馆(枫林路),体育休闲服务;运动场馆;游泳馆,枫林路329号(近零陵路)(东安路地铁站1号口步行400米),021-64162756;021-64164838,121.4529975,31.19533424,310000,上海市,21,上海市,310104,徐汇区,枫林路
B0GKVY2GBE,,Something dining&bar,体育休闲服务;娱乐场所;酒吧,武康路98号2楼,021-64042228,121.4359142,31.21398414,310000,上海市,21,上海市,310104,徐汇区,湖南路
B00157G87K,,EPIC,体育休闲服务;娱乐场所;酒吧,高邮路17号(近复兴西路),021-54111189,121.4340076,31.21204496,310000,上海市,21,上海市,310104,徐汇区,中山公园
B0FFKDXUDK,,Perrys(徐家汇店),体育休闲服务;娱乐场所;酒吧,天钥桥路214号哈尼美食广场1幢2层B区,13222296915;17717854196;18928937183,121.4374822,31.19277315,310000,上海市,21,上海市,310104,徐汇区,徐家汇
B0H1ULYP6F,,魔练·普拉提(辛耕路店),体育休闲服务;运动场馆;健身中心,辛耕路88号,021-64472990,121.4396015,31.19537762,310000,上海市,21,上海市,310104,徐汇区,徐家汇
B0FFIXKE4C,,尚域健身(宛平店),体育休闲服务;运动场馆;健身中心,宛平南路275号(徐家汇花园底层),021-63119998;18877713330,121.4423096,31.1945391,310000,上海市,21,上海市,310104,徐汇区,枫林路
B0HAY50BL3,,VP·SMART私教健身会所(宛平南路店),体育休闲服务;运动场馆;健身中心,宛平南路195号(近辛耕路),13917594621;15821038546,121.4415979,31.19599502,310000,上海市,21,上海市,310104,徐汇区,徐家汇
B0J0BLOWZW,,ASIA QUEEN亚后(徐家汇店),体育休闲服务;体育休闲服务场所;体育休闲服务场所,辛耕路105号,021-54962582,121.4391506,31.19482608,310000,上海市,21,上海市,310104,徐汇区,徐家汇
B0IKPUYHRS,,徐家汇街道市民健身驿站,体育休闲服务;运动场馆;运动场所,南丹东路109号徐家汇社区文化活动中心8层,18555078679,121.4385054,31.1928549,310000,上海市,21,上海市,310104,徐汇区,徐家汇
B0G3FSGN0K,,屋有岛沉浸游戏体验馆(徐家汇旗舰店),体育休闲服务;娱乐场所;娱乐场所,天钥桥路458号3楼301(公交车站旁入口),15618066960,121.4374815,31.18907299,310000,上海市,21,上海市,310104,徐汇区,龙华
B00155MVAX,,网鱼网咖·棋牌(徐汇天钥桥店),体育休闲服务;娱乐场所;网吧,天钥桥路458号B1楼,021-64869992,121.4374765,31.18907198,310000,上海市,21,上海市,310104,徐汇区,龙华
B0FFKOBRVZ,,西界·交互式剧场(徐汇店),体育休闲服务;体育休闲服务场所;体育休闲服务场所,斜土路2669号英雄大厦F1层,13120980858,121.437637,31.18790185,310000,上海市,21,上海市,310104,徐汇区,龙华
B0H01RRHAG,,乐刻健身腾飞大厦店,体育休闲服务;运动场馆;健身中心,天钥桥333-3腾飞大厦1F,15026788106,121.4379544,31.19002334,310000,上海市,21,上海市,310104,徐汇区,龙华
B0FFK58159,,财俊棋牌会所(徐家汇店),体育休闲服务;体育休闲服务场所;体育休闲服务场所,斜土路2669号英雄大厦4楼,13370260438,121.4376881,31.18803087,310000,上海市,21,上海市,310104,徐汇区,龙华
B0FFG950NW,,上剧场(美罗城店),体育休闲服务;影剧院;剧场,肇嘉浜路1111号美罗城5层(地铁1号线徐家汇站10号出口),,121.435472,31.19477975,310000,上海市,21,上海市,310104,徐汇区,徐家汇
B0FFF3DFDN,,扬哥KTV(汇联商厦),体育休闲服务;娱乐场所;KTV,天钥桥路40-90号汇联商厦F1层,021-51001700;021-54253378;17717013244,121.4365512,31.19464663,310000,上海市,21,上海市,310104,徐汇区,徐家汇
B0FFFVGBOG,cinema,SFC上影影城(美罗城),体育休闲服务;影剧院;电影院,肇嘉浜路1111号美罗城5层(徐家汇地铁站出入口旁),021-64268181;13801604590,121.4343659,31.1944631,310000,上海市,21,上海市,310104,徐汇区,徐家汇
B0GRGOROZX,,5KM舞蹈工作室(港汇店),体育休闲服务;体育休闲服务场所;体育休闲服务场所,衡山路港汇广场F6(徐家汇地铁站出口步行80米),17765129241,121.4326014,31.19650732,310000,上海市,21,上海市,310104,徐汇区,徐家汇
B0I3VMD6MA,,雀王棋牌俱乐部(徐汇一店),体育休闲服务;娱乐场所;棋牌室,徐家汇天钥桥路93号7楼(交通银行侧边),13162625981,121.4372305,31.19501161,310000,上海市,21,上海市,310104,徐汇区,徐家汇
B0FFHYK73P,,城市猎人射箭馆(徐家汇店),体育休闲服务;娱乐场所;娱乐场所,徐家汇漕溪北路41号太平洋数码一期汇嘉大厦21层(靠近美罗城),13020192658,121.4346504,31.19396981,310000,上海市,21,上海市,310104,徐汇区,徐家汇
B00156EYE3,,好乐迪(美罗店),体育休闲服务;娱乐场所;KTV,肇嘉浜路1111号7层(徐家汇地铁站10号口步行130米),021-63115858,121.4352134,31.19505319,310000,上海市,21,上海市,310104,徐汇区,徐家汇
B0J2PZ8TU8,,猎人桌游(徐家汇店),体育休闲服务;运动场馆;运动场所,漕溪北路41号汇嘉大厦2307室,18321888838,121.4344781,31.19398752,310000,上海市,21,上海市,310104,徐汇区,徐家汇
B00153C876,,欧登保龄球馆,体育休闲服务;运动场馆;保龄球馆,衡山路10-2欧登大厦3层(衡山路地铁站3号口步行70米),021-64746666,121.4422123,31.20739162,310000,上海市,21,上海市,310104,徐汇区,岳阳
B0J19RX3JH,,衡8live小酒馆,体育休闲服务;体育休闲服务场所;体育休闲服务场所,衡山路与乌鲁木齐南路交叉口西100米,,121.4426682,31.20874984,310000,上海市,21,上海市,310104,徐汇区,岳阳
B0JDYHNAIG,cinema,CMG融媒影城,体育休闲服务;影剧院;电影院,龙文路19号(龙耀路地铁站2号口步行490米),021-60932102,121.4597245,31.16182631,310000,上海市,21,上海市,310104,徐汇区,龙华
B00155LAQL,cinema,SFC上影影城(港汇恒隆广场永华店),体育休闲服务;影剧院;电影院,虹桥路1号港汇恒隆广场6层,021-64076622,121.4320393,31.19686329,310000,上海市,21,上海市,310104,徐汇区,徐家汇
B0HRURI4FB,,魅KTV(徐家汇店),体育休闲服务;娱乐场所;KTV,徐家汇华山路汇银广场1988号四楼魅KTV,15001887966,121.4321222,31.19950511,310000,上海市,21,上海市,310104,徐汇区,徐家汇
B0FFHE28PW,,HORSE酒吧,体育休闲服务;娱乐场所;酒吧,宜山北路与广元西路交叉口东北约40米,13816303664,121.4286454,31.19732716,310000,上海市,21,上海市,310104,徐汇区,徐家汇
B00156GTZN,cinema,巨影国际影城(吴中路店),体育休闲服务;影剧院;电影院,吴中路52号宝鼎古北广场7层,021-64311211,121.4109781,31.18980047,310000,上海市,21,上海市,310104,徐汇区,虹桥
B0FFHQ8DCP,,中环(徐汇)绿廊,体育休闲服务;体育休闲服务场所;体育休闲服务场所,桂江路与江安路交汇处,,121.4053465,31.14892985,310000,上海市,21,上海市,310104,徐汇区,康健
B0JABLPAGG,,三体引力之外沉浸式科幻体验(西岸凤巢AI PLAZA北区),体育休闲服务;娱乐场所;娱乐场所,云锦路683号西岸凤巢AI PLAZA7楼,021-64682275,121.4555862,31.16597611,310000,上海市,21,上海市,310104,徐汇区,龙华
B0FFK9EWD1,cinema,中影嘉华国际影城(徐汇绿地滨江CLUB店),体育休闲服务;影剧院;电影院,龙华街道云锦路500号绿地滨江CLUB-C座4楼,021-33682779,121.4534492,31.1663899,310000,上海市,21,上海市,310104,徐汇区,龙华
B0FFKPGV7Y,,魔赛卡丁汇(上海店),体育休闲服务;运动场馆;运动场所,云锦路500号(GRC·绿地滨江CLUB)B1层,19822798980,121.4533769,31.16687848,310000,上海市,21,上海市,310104,徐汇区,龙华
B0I0YSV6RH,,奈尔宝科技馆(上海馆),体育休闲服务;休闲场所;游乐场,云锦路683号西岸凤巢AI PLAZA 1F,4008169988,121.4562952,31.16594081,310000,上海市,21,上海市,310104,徐汇区,龙华
B0I0H5SMNU,,乐动力西岸活力谷,体育休闲服务;体育休闲服务场所;体育休闲服务场所,云锦路与龙启路交叉口(云锦路地铁站5号口步行140米),13122359965,121.4537981,31.16673753,310000,上海市,21,上海市,310104,徐汇区,龙华
B0IBCZCSRS,,星聚会KTV(徐汇西岸凤巢店),体育休闲服务;娱乐场所;KTV,云锦路683号西岸凤巢AI PLAZA北区6F层,,121.4549424,31.1659436,310000,上海市,21,上海市,310104,徐汇区,龙华
B00154NIU6,,上海市体育场馆设施管理中心-田林体育俱乐部,体育休闲服务;运动场馆;运动场所,钦州路728号,021-54974676;021-54979800,121.4239771,31.17654363,310000,上海市,21,上海市,310104,徐汇区,漕河泾
B0FFJHTUG9,,申养·望年荟(钦州路店),体育休闲服务;度假疗养场所;疗养院,钦州路828号,4009009599,121.4229705,31.17857444,310000,上海市,21,上海市,310104,徐汇区,田林
B0FFFA2Q5U,,上海京剧院,体育休闲服务;影剧院;剧场,天钥桥路1198号,021-54619880,121.4437346,31.17559938,310000,上海市,21,上海市,310104,徐汇区,龙华
B0FFG7LT39,cinema,朶云轩杜比全景声影城,体育休闲服务;影剧院;电影院,天钥桥路1188号朵云轩艺术中心5层,021-64681572;13482813865,121.4428123,31.17678097,310000,上海市,21,上海市,310104,徐汇区,龙华
B0HDPUKEW7,,锐博运动康复(上海店),体育休闲服务;运动场馆;健身中心,朵云轩艺术中心C区3F307(龙华地铁站2号口步行470米),4008870636,121.4433136,31.17561954,310000,上海市,21,上海市,310104,徐汇区,龙华
B00154VOEZ,,康东网球馆,体育休闲服务;运动场馆;网球场,浦北路270号(近桂林路),021-64750504,121.4178341,31.1574741,310000,上海市,21,上海市,310104,徐汇区,康健
B0FFISG2SI,,网鱼网咖(上海南站店),体育休闲服务;娱乐场所;网吧,石龙路971号2楼,18221744769,121.4256067,31.14995438,310000,上海市,21,上海市,310104,徐汇区,康健
B0FFFZ9PER,,上海市徐汇区第三老年福利院,体育休闲服务;度假疗养场所;疗养院,华泾镇华发路210号,,121.4468712,31.12900823,310000,上海市,21,上海市,310104,徐汇区,华泾
B0H63M7N8H,,第九剧场(宜山路店),体育休闲服务;娱乐场所;娱乐场所,古宜路134号(宜山路地铁站出入口步行290米),15026930068,121.420934,31.18821838,310000,上海市,21,上海市,310104,徐汇区,徐家汇
B0FFK27X55,,A&PT运动与物理健康中心(古宜店),体育休闲服务;运动场馆;健身中心,徐虹中路与古宜路交叉口(宜山路地铁站5号口步行230米),021-33682839,121.4197635,31.18956852,310000,上海市,21,上海市,310104,徐汇区,徐家汇
B0FFJOZL2U,,乐刻运动健身(宜山路博库书城精品馆),体育休闲服务;运动场馆;健身中心,宜山路515号博库书城L2-3号,17721470690,121.4212079,31.18247755,310000,上海市,21,上海市,310104,徐汇区,田林
B0G0B40QNB,,威尔仕健身(徐汇苑),体育休闲服务;运动场馆;健身中心,龙华西路468号(上海游泳馆地铁站3号口步行480米),021-31659179,121.4391329,31.17862916,310000,上海市,21,上海市,310104,徐汇区,龙华
B0J6BHQAGO,,乐动力西岸风之谷体育公园,体育休闲服务;体育休闲服务场所;体育休闲服务场所,龙吴路1800号,15301897285,121.4537689,31.13390277,310000,上海市,21,上海市,310104,徐汇区,
B001574KZG,,阿迪达斯徐家汇公园篮球场,体育休闲服务;运动场馆;篮球场馆,肇嘉浜路986号(徐家汇公园内),15026454743,121.4389867,31.20032308,310000,上海市,21,上海市,310104,徐汇区,徐家汇
B0J337WUTI,,夕阳电竞田林店,体育休闲服务;娱乐场所;网吧,田林路12号2层东半部.3层,19921135255,121.4183703,31.17352429,310000,上海市,21,上海市,310104,徐汇区,田林
B0FFHLMHE4,,向阳院长者公寓,体育休闲服务;度假疗养场所;疗养院,柳州路374弄12号,021-54979011;021-54979988,121.4184496,31.17127352,310000,上海市,21,上海市,310104,徐汇区,漕河泾
B00156F4AU,,金必多棋牌会所,体育休闲服务;娱乐场所;棋牌室,田林东路588号3层,021-64831026,121.4196707,31.17400629,310000,上海市,21,上海市,310104,徐汇区,漕河泾
B0I2CZ96OH,,Mars Pro(大木桥店),体育休闲服务;运动场馆;健身中心,大木桥路588号(大木桥路地铁站5号口旁),13917907521,121.4589152,31.1955742,310000,上海市,21,上海市,310104,徐汇区,枫林路
B0FFIN0853,cinema,SFC上影影城(徐汇日月光中心),体育休闲服务;影剧院;电影院,漕宝路33号徐汇日月光中心L4层L4-01/02/03/05,021-34197876,121.4271963,31.17108341,310000,上海市,21,上海市,310104,徐汇区,漕河泾
B0FFIN0854,,星聚会(徐汇日月光店),体育休闲服务;娱乐场所;KTV,漕宝路33号徐汇日月光中心L3层L3-03/05/06,021-34197988;15316368950,121.4274778,31.17111277,310000,上海市,21,上海市,310104,徐汇区,漕河泾
B0K6MUH72M,,小确幸Massage(徐汇汇腾广场店),体育休闲服务;娱乐场所;娱乐场所,漕溪路280号1号102室,18616525156,121.4293789,31.17078952,310000,上海市,21,上海市,310104,徐汇区,漕河泾
B0J2V5HSQU,,食玩猫乐园(徐汇日月光中心店),体育休闲服务;娱乐场所;娱乐场所,漕宝路33号徐汇日月光中心B1层B1-06,,121.4274698,31.17085789,310000,上海市,21,上海市,310104,徐汇区,漕河泾
B0FFHP94A3,,威尔仕健身(徐汇日月光),体育休闲服务;运动场馆;健身中心,漕宝路33号L4-38(漕宝路地铁站9号口旁),021-34197880,121.4284424,31.1706373,310000,上海市,21,上海市,310104,徐汇区,漕河泾
B0JU3A0WMS,,娃娃魔方(徐汇日月光中心店)(装修中),体育休闲服务;体育休闲服务场所;体育休闲服务场所,漕宝路33号B1-07-1(漕宝路地铁站8号口旁),,121.4273095,31.17091864,310000,上海市,21,上海市,310104,徐汇区,漕河泾
B0FFF9SAS4,,网鱼网咖(徐汇大西洋店),体育休闲服务;娱乐场所;网吧,华山路2018号汇银广场北楼6层623-625室,021-54070502;13061817163,121.4322935,31.1996583,310000,上海市,21,上海市,310104,徐汇区,徐家汇
B00155M53I,,大西洋娱乐城(百联徐汇商业广场店),体育休闲服务;娱乐场所;夜总会,华山路2038号百联徐汇商业广场1F层,,121.4322164,31.19973614,310000,上海市,21,上海市,310104,徐汇区,徐家汇
B0FFH935SZ,,天天玩X秋葉原日系动漫中心,体育休闲服务;娱乐场所;娱乐场所,上海市市辖区徐汇区华山路2088号汇银广场南楼7M层,021-54652503,121.4325561,31.19871116,310000,上海市,21,上海市,310104,徐汇区,徐家汇
B00156NPK1,,好乐迪(百联徐汇店),体育休闲服务;娱乐场所;KTV,华山路2038百联徐汇商业广场4层,021-54236735;021-63115858,121.4323757,31.19922764,310000,上海市,21,上海市,310104,徐汇区,徐家汇
B0HB2HW9K5,cinema,幕鱼私人影院(百联徐汇商业广场店),体育休闲服务;影剧院;电影院,华山路2038号(近广元西路)徐汇百联商业广场二楼星巴克旁边自动扶梯上,17321459520,121.4323026,31.19931948,310000,上海市,21,上海市,310104,徐汇区,徐家汇
B0FFH4EYD4,,威尔仕健身(徐汇汇金店),体育休闲服务;运动场馆;健身中心,1000号汇金百货徐汇店8层,021-54610231,121.4359367,31.19724131,310000,上海市,21,上海市,310104,徐汇区,徐家汇
B00155IP6H,,THE PARK TAVERN,体育休闲服务;娱乐场所;酒吧,衡山路840号(近天平路),021-54659312;021-54659513,121.4359756,31.1988206,310000,上海市,21,上海市,310104,徐汇区,徐家汇
B0H04A6RX4,,KEN Fitness健身工作室(徐汇三店),体育休闲服务;运动场馆;健身中心,华山路2088号汇银广场南楼11层1101室,021-64680522;17701610186,121.4324128,31.19873293,310000,上海市,21,上海市,310104,徐汇区,徐家汇
B00155LVTW,,拳击猫精酿啤酒馆(复兴西路店),体育休闲服务;娱乐场所;酒吧,复兴西路82号,021-64312091,121.4384956,31.21266222,310000,上海市,21,上海市,310104,徐汇区,中山公园
B0FFFGNG3R,,木制天堂,体育休闲服务;娱乐场所;酒吧|购物服务;购物相关场所;购物相关场所,复兴西路63-3号,021-34280468,121.439591,31.21236133,310000,上海市,21,上海市,310104,徐汇区,中山公园
B0FFK9HDO8,,Keep It Quiet Bar 密训酒吧,体育休闲服务;娱乐场所;酒吧,永福路200号(雍福会内),021-54662727,121.4382833,31.21141945,310000,上海市,21,上海市,310104,徐汇区,湖南路
B001573CT6,,Lolo Love Vintage,体育休闲服务;娱乐场所;酒吧|购物服务;购物相关场所;购物相关场所,永福路2号(近蓝色小门),021-64339987,121.4390848,31.21380073,310000,上海市,21,上海市,310104,徐汇区,湖南路
B0FFG93K32,cinema,优幕影城(1街坊店),体育休闲服务;影剧院;电影院,上中西路280号凌云1街坊4层,021-64778680,121.4211127,31.13692817,310000,上海市,21,上海市,310104,徐汇区,梅陇
B0FFIRVSBG,,MOB迈博健身游泳(徐汇旗舰店),体育休闲服务;运动场馆;健身中心|体育休闲服务;运动场馆;游泳馆,桂林路519号(桂林路地铁站13号口旁),021-64750330;021-64750331,121.4108309,31.17927767,310000,上海市,21,上海市,310104,徐汇区,田林
B0FFHPK9TC,cinema,上影影城(绿地缤纷城徐汇店),体育休闲服务;影剧院;电影院,东安路562号绿地缤纷城(徐汇店)西区F3层W-300,021-33632336,121.4511273,31.18518707,310000,上海市,21,上海市,310104,徐汇区,龙华
B0FFIBU5HK,,唱吧麦颂(徐汇绿地缤纷城店),体育休闲服务;娱乐场所;KTV,东安路562号绿地缤纷城(徐汇店)西区BM层W-MB07,021-33633033,121.4519615,31.18540983,310000,上海市,21,上海市,310104,徐汇区,龙华
B0FFHW5K4Q,,源8台球俱乐部(绿地缤纷城徐汇店西区),体育休闲服务;运动场馆;台球厅,东安路562号徐汇绿地缤纷城东区B1层H-B105-111,,121.4527928,31.18536174,310000,上海市,21,上海市,310104,徐汇区,龙华
B0FFM1WOB8,,Key West(永嘉路店),体育休闲服务;休闲场所;休闲场所,永嘉路689弄1号(衡山路地铁站1号口步行60米),13699198162;15317738840,121.4422345,31.20571248,310000,上海市,21,上海市,310104,徐汇区,岳阳
B0J13HG6HY,,INLOVE KTV宜山店,体育休闲服务;娱乐场所;KTV,宜山路455号光启城4层C区417-422室(宜山路地铁站8号口步行110米),021-60737272,121.4230641,31.18513024,310000,上海市,21,上海市,310104,徐汇区,徐家汇
B0JUFHUGDI,,阿怡桌研社,体育休闲服务;体育休闲服务场所;体育休闲服务场所,中山西路2025号420室(宜山路地铁站8号口步行90米),15558672657,121.4231492,31.18458461,310000,上海市,21,上海市,310104,徐汇区,田林
B0J31GJ3CK,,KK桌球(光启城店),体育休闲服务;运动场馆;台球厅,宜山路455号光启城B1层(宜山路地铁站7号口旁),021-54189089,121.4238882,31.18578985,310000,上海市,21,上海市,310104,徐汇区,徐家汇
B0J27CCS30,,乐动力西岸栖羽体育中心,体育休闲服务;运动场馆;运动场所,龙腾大道与喜泰支路交叉口西南60米,15301897285,121.4498231,31.1473867,310000,上海市,21,上海市,310104,徐汇区,
B0J06CECKY,,华泾公园-露营地,体育休闲服务;休闲场所;休闲场所,华泾路190号西岸自然艺术公园,,121.4479483,31.1242161,310000,上海市,21,上海市,310104,徐汇区,华泾
B0FFJ52BCV,,网鱼电竞(徐汇康健路店),体育休闲服务;娱乐场所;网吧,康健路14号(漕宝路地铁站5号口步行370米),021-54482533,121.4279389,31.16725137,310000,上海市,21,上海市,310104,徐汇区,漕河泾
B00156M2BC,,Senator Saloon,体育休闲服务;娱乐场所;酒吧,五原路98号(常熟路地铁站8号口步行240米),021-54231330,121.4424742,31.21503745,310000,上海市,21,上海市,310104,徐汇区,湖南路
B0FFIORWHF,,Z&BGYM(长鑫大厦店),体育休闲服务;运动场馆;健身中心,长乐路1219号长鑫大厦F14层,13764075212,121.4379992,31.21680937,310000,上海市,21,上海市,310104,徐汇区,中山公园
B0K6YZ6QNV,,SMFK(安福店),体育休闲服务;体育休闲服务场所;体育休闲服务场所,安福路161号,,121.4402371,31.21605375,310000,上海市,21,上海市,310104,徐汇区,中山公园
B0FFFCRBYJ,,Bar No.3,体育休闲服务;娱乐场所;酒吧,兴国路277号(交通大学地铁站7号口步行450米),,121.4331475,31.20663621,310000,上海市,21,上海市,310104,徐汇区,湖南路
B0FFIKNSGC,,LAUNDRY CO.,体育休闲服务;娱乐场所;酒吧|购物服务;购物相关场所;购物相关场所,襄阳北路93-5号,13681898798,121.4507392,31.22075886,310000,上海市,21,上海市,310104,徐汇区,淮海路
B0FFM91756,,THE BROKEN DAGGER,体育休闲服务;娱乐场所;酒吧,襄阳北路93号底座A,,121.4508244,31.2204412,310000,上海市,21,上海市,310104,徐汇区,淮海路
B0FFJCAARH,cinema,中影国线影城(徐汇店),体育休闲服务;影剧院;电影院,田林路105号虹梅国际广场F3层,021-52958011,121.4111128,31.17142484,310000,上海市,21,上海市,310104,徐汇区,田林
B0G30MIXZP,,乐刻运动健身(汇京国际广场店),体育休闲服务;运动场馆;健身中心,汇京国际广场B1层24-03,15800962691,121.41909,31.19757191,310000,上海市,21,上海市,310104,徐汇区,徐家汇
B0FFH9LCPC,,威尔仕健身(徐汇正大乐城),体育休闲服务;运动场馆;健身中心,中山南二路699号正大乐城三楼,021-31763931;021-60293699,121.4539396,31.18876467,310000,上海市,21,上海市,310104,徐汇区,
B0J2HS69CH,,魅KTV(徐汇龙华会店),体育休闲服务;娱乐场所;KTV,龙华路2618号1幢(下沉式广场B1出入口)地铁11号线/12号线2号口出步行50M,17321037381,121.4482758,31.17468317,310000,上海市,21,上海市,310104,徐汇区,龙华
B0J1OREKGJ,,幻物社龙华会店,体育休闲服务;娱乐场所;娱乐场所,龙华路2618号1幢地下2层01B2N32号,13817679976,121.4486326,31.17613519,310000,上海市,21,上海市,310104,徐汇区,龙华
B001573WPT,,网鱼电竞(上海徐汇汇阳广场店),体育休闲服务;娱乐场所;网吧,田林东路75号4楼,13122258633;18721703200,121.4284078,31.1762354,310000,上海市,21,上海市,310104,徐汇区,漕河泾
B0FFJFTB33,,YONEX互动网球馆(田林东路店),体育休闲服务;运动场馆;运动场所,田林东路75号汇阳广场1层109号,021-64160881;021-64265080;13501918567,121.4283508,31.17615936,310000,上海市,21,上海市,310104,徐汇区,漕河泾
B0FFHDV7R2,,一兆韦德健身杨芳(田林汇阳店),体育休闲服务;运动场馆;健身中心,漕溪路田林东路55号汇阳广场B1层,021-60700680,121.4288556,31.17632097,310000,上海市,21,上海市,310104,徐汇区,漕河泾
B0FFG74O1R,,攻略电竞社·棋牌(罗秀店),体育休闲服务;娱乐场所;网吧,罗秀路887-5号3层(罗秀路地铁站2号口步行360米),021-61522001,121.4283926,31.13299704,310000,上海市,21,上海市,310104,徐汇区,梅陇
B0G26XO5AW,,Harmony Art Gallery,体育休闲服务;娱乐场所;娱乐场所,东安路与龙腾大道辅路交叉口西80米,15601697114,121.4579304,31.18337387,310000,上海市,21,上海市,310104,徐汇区,龙华
B0J6C7OG9M,,魅KTV(徐汇正大乐城店),体育休闲服务;娱乐场所;KTV,龙华中路602号7-301-1,18019376777,121.4532578,31.18777559,310000,上海市,21,上海市,310104,徐汇区,
B0FFLCIVQL,,杰拉网咖(宜山路站店),体育休闲服务;娱乐场所;网吧,宜山路250弄-12-2(宜山路地铁站3号口步行450米),18018675256,121.4249783,31.1908966,310000,上海市,21,上海市,310104,徐汇区,徐家汇
B0HRF72NII,,引体蛙健身俱乐部(南丹路店),体育休闲服务;运动场馆;健身中心,南丹路168号,13611803414,121.4260738,31.19163559,310000,上海市,21,上海市,310104,徐汇区,徐家汇
B0FFLOHXK4,,乐刻运动健身(桂平路店),体育休闲服务;运动场馆;健身中心,桂平路391号C座214室,17621750523,121.3989023,31.1665384,310000,上海市,21,上海市,310104,徐汇区,虹梅路
B0JKBUQ7OV,,网鱼网咖(徐汇华泾店),体育休闲服务;娱乐场所;网吧,华发路399号,15618421963,121.4418964,31.12863451,310000,上海市,21,上海市,310104,徐汇区,华泾
B0FFKZZXL7,,煤气灯(田尚坊店),体育休闲服务;娱乐场所;酒吧|餐饮服务;中餐厅;中餐厅,钦州北路226号田尚坊地下一层B-2商铺,,121.4154505,31.18244426,310000,上海市,21,上海市,310104,徐汇区,田林
B0FFG8I1BF,,乐游宝宝亲子游泳(徐汇中心),体育休闲服务;运动场馆;游泳馆|生活服务;婴儿服务场所;婴儿游泳馆,钦州北路226号田尚坊b28,021-31593746,121.4139781,31.18254509,310000,上海市,21,上海市,310104,徐汇区,田林
B0FFHZGRBO,,威尔仕健身(汉光国际),体育休闲服务;运动场馆;健身中心,蒲汇塘路100号B1层,021-31659583;021-64286198,121.4289296,31.18863886,310000,上海市,21,上海市,310104,徐汇区,徐家汇
B0H16A00OW,,ProSwim游泳学院俱乐部,体育休闲服务;体育休闲服务场所;体育休闲服务场所,南丹路15号B1层(徐家汇地铁站1号口步行140米),13636550794;15201718971;18217557474,121.431049,31.19097172,310000,上海市,21,上海市,310104,徐汇区,徐家汇
B0FFGYKQNL,,环球健身(瑞峰店),体育休闲服务;运动场馆;健身中心,斜土路1077号鼎园瑞峰公寓酒店1层,021-61315673,121.4628825,31.20317046,310000,上海市,21,上海市,310104,徐汇区,五里桥
B0FFIB8P3V,,青松城大酒店-歌舞厅(暂停营业),体育休闲服务;娱乐场所;迪厅,东安路8号青松城大酒店2楼(近徐家汇),021-64433888,121.44481,31.20029817,310000,上海市,21,上海市,310104,徐汇区,枫林路
B0FFF3STLO,,网鱼网咖(徐汇大木桥店)(装修中),体育休闲服务;娱乐场所;网吧,大木桥路428号五层,021-64325171;13482000292,121.4576313,31.19835768,310000,上海市,21,上海市,310104,徐汇区,枫林路
B0FFKSPE1Z,,战壕网咖(小木桥店),体育休闲服务;娱乐场所;网吧,小木桥路321号底层,13482427334,121.4544181,31.19829306,310000,上海市,21,上海市,310104,徐汇区,枫林路
B0FFK7AEDD,,徐汇区华汇老年福利院,体育休闲服务;度假疗养场所;疗养院|政府机构及社会团体;社会团体;慈善机构,银都路303号,021-64341228,121.4467648,31.10663926,310000,上海市,21,上海市,310104,徐汇区,
B0J05HXGEF,,Hita海獭桌游,体育休闲服务;运动场馆;运动场所,D1国际创意园区2号楼211室,17152157887;17711045761,121.4413677,31.18046534,310000,上海市,21,上海市,310104,徐汇区,龙华
B0FFKH5CF4,,即刻健身搏击中心(万体一店),体育休闲服务;运动场馆;健身中心,中煌大厦西北门旁(上海游泳馆地铁站2号口步行480米),18301895780,121.4412452,31.18288689,310000,上海市,21,上海市,310104,徐汇区,龙华
B0G357YIE9,,乐刻健身(徐汇梅陇商业中心店),体育休闲服务;运动场馆;健身中心,龙州路995号3层3001A号,18302121901;4001501866,121.4175782,31.14133839,310000,上海市,21,上海市,310104,徐汇区,梅陇
B0FFF3KMJO,,百乐迪量贩KTV(华轻梅陇购物中心),体育休闲服务;娱乐场所;KTV,龙州路995号华轻梅陇购物中心4层(近梅陇路),021-54291777,121.4175272,31.14084361,310000,上海市,21,上海市,310104,徐汇区,梅陇
B00155N0VY,,东方射击射箭馆,体育休闲服务;运动场馆;运动场所,虹桥路663-1,021-62800408;021-62800677,121.4219516,31.19648336,310000,上海市,21,上海市,310104,徐汇区,徐家汇
B0FFLLKOQ6,,御丰茶室棋牌(徐汇店),体育休闲服务;体育休闲服务场所;体育休闲服务场所,交通大学广元西路627号近乐山路,021-64680089;18017121017,121.4266854,31.19612914,310000,上海市,21,上海市,310104,徐汇区,徐家汇
B0FFINHQSM,,VP·SMART 私教健身会所(南丹路旗舰店),体育休闲服务;运动场馆;健身中心,南丹路382号,15821038546;18707116647,121.4227049,31.19365159,310000,上海市,21,上海市,310104,徐汇区,徐家汇
B0FFJHH8VD,,Y+瑜伽会所(嘉善路店),体育休闲服务;运动场馆;健身中心,嘉善路307号A01(嘉善路地铁站2号口步行460米),021-64868068,121.4558052,31.20817951,310000,上海市,21,上海市,310104,徐汇区,岳阳
B0H1AA2JWU,,珀曼健身(徐汇旗舰店),体育休闲服务;运动场馆;健身中心,上海市市辖区徐汇区宛平南路1188弄13号地下1夹_地下1层会所,15900735873,121.44827,31.18302093,310000,上海市,21,上海市,310104,徐汇区,龙华
B0FFFZKBOC,,BOOM BOOM BAGELS,体育休闲服务;娱乐场所;酒吧|餐饮服务;快餐厅;快餐厅,安福路39号(乌鲁木齐路)(常熟路地铁站8号口步行280米),15021408818,121.4427236,31.21672113,310000,上海市,21,上海市,310104,徐汇区,中山公园
B0IAS9NS89,,ATELIER,体育休闲服务;娱乐场所;酒吧,富民路291号A109室,19916718184,121.447912,31.21897858,310000,上海市,21,上海市,310104,徐汇区,淮海路
B0I0AH809N,,崃州吧,体育休闲服务;娱乐场所;酒吧,富民路291号1楼A108室,,121.4478057,31.21918126,310000,上海市,21,上海市,310104,徐汇区,淮海路
B0FFK46CVY,,捕梦人的后花园,体育休闲服务;体育休闲服务场所;体育休闲服务场所,斜土路2200弄8号,13817882140,121.4446461,31.19443273,310000,上海市,21,上海市,310104,徐汇区,龙华
B0FFJ1KLFB,,奇思妙想的时空洞,体育休闲服务;体育休闲服务场所;体育休闲服务场所,斜土路2200弄8号101室(东安路与宛平南路之间),021-53061816;13817882140,121.4448616,31.19429723,310000,上海市,21,上海市,310104,徐汇区,枫林路
B0G2M1Z21Y,,星雀汇棋牌室,体育休闲服务;娱乐场所;棋牌室,枫林路街道宛平南路389弄1-3号辉煌公寓,021-64229989;15001876786,121.4435536,31.19288133,310000,上海市,21,上海市,310104,徐汇区,枫林路
B0FFIINR73,,美格菲健身中心(绿地汇中心店),体育休闲服务;运动场馆;健身中心,龙启路256号靠近云锦路3层301、302、305及4层,021-64280332,121.4527552,31.166986,310000,上海市,21,上海市,310104,徐汇区,龙华
B0FFL6OGYA,,永盈会(亚太企业大楼店),体育休闲服务;娱乐场所;娱乐场所,肇嘉浜路333号亚太企业大楼F2层,021-54591005,121.4561455,31.20423623,310000,上海市,21,上海市,310104,徐汇区,岳阳
B0FFIZ57B4,diner,Brut Eatery悦璞食堂(肇嘉浜路店),餐饮服务;外国餐厅;西餐厅(综合风味)|体育休闲服务;娱乐场所;酒吧,肇嘉浜路238号地上一层(嘉善路地铁站2号口步行150米),021-64086783,121.4573829,31.2052777,310000,上海市,21,上海市,310104,徐汇区,岳阳
B0I0BOEJI4,,乐刻健身精品店,体育休闲服务;运动场馆;健身中心,大木桥路与肇嘉浜路交叉口西南40米(嘉善路地铁站5号口旁)2楼,19802198388,121.4560542,31.20419703,310000,上海市,21,上海市,310104,徐汇区,岳阳
B0HDLRX7Y2,,星聚会KTV(漕河泾印象城店),体育休闲服务;娱乐场所;KTV,漕宝路1011号漕河泾印象城4F层L4-03,021-64039011;021-64039012,121.3961175,31.16411168,310000,上海市,21,上海市,310104,徐汇区,虹梅路
B0JUOL9551,,MYbarre,体育休闲服务;运动场馆;健身中心,悟锦世纪大楼3A层406,13072161672;15110622629,121.4478258,31.21928225,310000,上海市,21,上海市,310104,徐汇区,淮海路
B0J1G57241,cinema,IMAGINE BOX 响像力影城,体育休闲服务;影剧院;电影院,罗香路237号徐汇区文化馆2层(罗秀路地铁站3号口步行440米),021-64388352,121.4319324,31.13618741,310000,上海市,21,上海市,310104,徐汇区,华泾
B0I25Y8Y6J,,TY SPORTS滨江旗舰店,体育休闲服务;运动场馆;综合体育馆,瑞宁路899号3楼,19102127068,121.4544326,31.18205219,310000,上海市,21,上海市,310104,徐汇区,龙华
B0ID6AXTII,,STAR星岩攀岩俱乐部,体育休闲服务;运动场馆;运动场所,凯滨路38号尚湾里沉式广场地下一层A03-3室,13524756787;16639401104,121.45705,31.18227129,310000,上海市,21,上海市,310104,徐汇区,龙华
B0FFL9WBEG,cinema,中影泰得影城(华泾店),体育休闲服务;影剧院;电影院,华泾路459号龙湖上海华泾天街F4层,021-64190225,121.4514687,31.12134534,310000,上海市,21,上海市,310104,徐汇区,华泾
B0FFFPOIU7,,上海中星铂尔曼大酒店-大堂酒廊,体育休闲服务;娱乐场所;酒吧,浦北路1号上海中星铂尔曼大酒店1层(近柳州路99号中星城),021-24268888;4009603800,121.4251651,31.16133387,310000,上海市,21,上海市,310104,徐汇区,康健
B0I06BPZAX,,市民健身中心,体育休闲服务;运动场馆;健身中心,南丹东路255号南天1号楼4楼,18317059872,121.4339453,31.19124903,310000,上海市,21,上海市,310104,徐汇区,徐家汇
B0H01RR22T,,KOTC美式复合篮球馆(徐汇店),体育休闲服务;运动场馆;篮球场馆,罗秀路1129号凌云市民健身中心2楼(近白鹿市场),15618929252,121.4207477,31.13131281,310000,上海市,21,上海市,310104,徐汇区,梅陇
B0HAML3KK0,,TRI第三空间,体育休闲服务;体育休闲服务场所;体育休闲服务场所,复兴中路1331号黑石M园区3号楼3层,19916701036,121.4483607,31.21262156,310000,上海市,21,上海市,310104,徐汇区,岳阳
B0HU3SYF79,,GOTIA,体育休闲服务;娱乐场所;酒吧,永康路与襄阳南路交叉口西120米,021-54198981,121.4518459,31.21226838,310000,上海市,21,上海市,310104,徐汇区,淮海路
B0FFKPDFCK,,AGS艺术综合运动馆,体育休闲服务;体育休闲服务场所;体育休闲服务场所,瑞金南路500号越界3号楼3楼,13162738619;13482488940,121.4633181,31.20034497,310000,上海市,21,上海市,310104,徐汇区,枫林路
B0G0BS1LG8,,金帝商务会所(斜土路),体育休闲服务;娱乐场所;夜总会,斜土路1268号,4008958797,121.4598185,31.2007229,310000,上海市,21,上海市,310104,徐汇区,枫林路
B0JAS76XZH,,斜土社区市民健身中心,体育休闲服务;运动场馆;健身中心,天合雅园西南门旁(大木桥路地铁站1号口步行420米),13635971138,121.4602098,31.19896974,310000,上海市,21,上海市,310104,徐汇区,枫林路
B0FFGE2OYK,,华东理工大学徐汇校区大学生俱乐部,科教文化服务;学校;高等院校|体育休闲服务;娱乐场所;娱乐场所,梅陇路130号华东理工大学徐汇校区,,121.4164675,31.14738422,310000,上海市,21,上海市,310104,徐汇区,梅陇
B00155L9NO,,华亭咖酒吧(华石路店),体育休闲服务;娱乐场所;酒吧,华石路52号,021-64158797,121.4284966,31.18031045,310000,上海市,21,上海市,310104,徐汇区,
B0FFJOT7D0,,龙格亲子游泳俱乐部(南洋1931店),体育休闲服务;体育休闲服务场所;体育休闲服务场所,裕德路165号2层14室,021-61259650;021-64682083,121.4295528,31.18744133,310000,上海市,21,上海市,310104,徐汇区,徐家汇
B0FFG0FYAQ,,Avenue Joffre Bar,体育休闲服务;娱乐场所;酒吧,永嘉路570号永嘉庭5号楼1层,,121.4464253,31.20795974,310000,上海市,21,上海市,310104,徐汇区,岳阳
B0FFL76UFR,,徐汇区龙华街道滨江水岸邻里汇,体育休闲服务;体育休闲服务场所;体育休闲服务场所,云锦路181号,021-64172512,121.4542908,31.17512137,310000,上海市,21,上海市,310104,徐汇区,龙华
B0JDCR43FK,,东境养生SPA,体育休闲服务;娱乐场所;棋牌室,田林路130号2幢三楼301室,15821332069,121.4112649,31.17211158,310000,上海市,21,上海市,310104,徐汇区,田林
B0FFL5IP2R,,加容网吧,体育休闲服务;娱乐场所;网吧,龙川北路900号(上海南站地铁站1号口步行470米),021-64182399,121.4307016,31.15437793,310000,上海市,21,上海市,310104,徐汇区,康健
B0FFMAEEWX,,MOB迈博健身桂林公园VIP旗舰店,体育休闲服务;运动场馆;健身中心,漕宝路181号1幢地下一层,021-58881267;17317982235,121.4128764,31.16907717,310000,上海市,21,上海市,310104,徐汇区,漕河泾
B0J15YWD7A,,Y CLUB,体育休闲服务;娱乐场所;酒吧,建国西路331号,18917829447,121.4521342,31.20623794,310000,上海市,21,上海市,310104,徐汇区,岳阳
B0J3S97CU6,,黑门楽酒天,体育休闲服务;娱乐场所;酒吧,番禺路与秀山路交叉口南100米,15001742819;19542817387,121.4237931,31.19702016,310000,上海市,21,上海市,310104,徐汇区,徐家汇
B0FFMEMVSQ,,KBT篮球运动馆,体育休闲服务;运动场馆;篮球场馆,小木桥路528号(大木桥路地铁站3号口步行360米),13916983468,121.4566799,31.19334086,310000,上海市,21,上海市,310104,徐汇区,枫林路
B00151BCC6,,康健社区体育场,体育休闲服务;运动场馆;综合体育馆,桂林西街168号(近浦北路),021-54199404,121.4135392,31.15409442,310000,上海市,21,上海市,310104,徐汇区,康健
B0G22CW8G0,,维度健身(新宜街A1座店),体育休闲服务;运动场馆;健身中心,宜山路700号84幢A1栋205室(桂林路地铁站4号口旁),17701806046,121.4123053,31.17667191,310000,上海市,21,上海市,310104,徐汇区,田林
B00156NZS8,,徐家汇街道敬老院(凯旋小区21号楼店),体育休闲服务;度假疗养场所;疗养院,",近南丹路与番禺路凯旋一村21号",021-64475197,121.4216084,31.19411216,310000,上海市,21,上海市,310104,徐汇区,徐家汇
B0J0YDKH75,,上海徐汇区乐龄汇养老院,体育休闲服务;度假疗养场所;疗养院,孝民路109号,021-33689019,121.447276,31.10766975,310000,上海市,21,上海市,310104,徐汇区,
B0J6DDBQ8F,,上海1980S M A Sport篮球馆,体育休闲服务;运动场馆;篮球场馆,浦北路6号4楼,17701616900,121.4256167,31.16204606,310000,上海市,21,上海市,310104,徐汇区,
B0JDMZ3WIH,,澜悦会游泳健身,体育休闲服务;运动场馆;游泳馆,浦北路中星铂尔曼酒店5楼(上海南站地铁站8号口步行440米),19821920109,121.4251641,31.16134387,310000,上海市,21,上海市,310104,徐汇区,
B0FFF620Q1,,七彩轮滑俱乐部(中星城店),购物服务;体育用品店;体育用品店|体育休闲服务;运动场馆;运动场所,浦北路9号中星城F3层(上海南站地铁站8号口步行270米),021-31667803;18321659295;4006785526,121.4241127,31.16060899,310000,上海市,21,上海市,310104,徐汇区,
B0JGH6L0JK,,BUFFALO篮球运动中心(中星城店),体育休闲服务;运动场馆;篮球场馆,浦北路9号中星城(上海南站地铁站8号口步行340米),,121.4235869,31.16089922,310000,上海市,21,上海市,310104,徐汇区,
B0I3UCNP2A,,瑞趣网羽体育中心,购物服务;体育用品店;体育用品店,石龙路666号长途客运南站4号门停车场内,13162885835,121.4291439,31.15488444,310000,上海市,21,上海市,310104,徐汇区,
B0I0YAVDYT,,无羽羽毛球培训,科教文化服务;科教文化场所;科教文化场所,柳州路辅路与动力南二路交叉口南40米,,121.4288434,31.15523584,310000,上海市,21,上海市,310104,徐汇区,
B0HRCZMATY,,羽+运动馆,体育休闲服务;体育休闲服务场所;体育休闲服务场所,漕河泾街道石龙路395号3A,18964497479,121.434293,31.15686013,310000,上海市,21,上海市,310104,徐汇区,
B0HRLH05FG,,迅鹿体育中心,体育休闲服务;运动场馆;综合体育馆,石龙路与永川路交叉口西南100米,17701893561,121.4335415,31.15694989,310000,上海市,21,上海市,310104,徐汇区,
B0FFIYEYA7,,耐克(汇金奥特莱斯北商场店),购物服务;体育用品店;耐克专卖店,沪闵路9001号汇金奥特莱斯北商场F1层,4008806453,121.4276816,31.15386599,310000,上海市,21,上海市,310104,徐汇区,
B0FFHS1QJ9,,New Balance(上海银泰购物中心工厂店),购物服务;体育用品店;体育用品店,石龙路750-3号上海南站南广场盛泰百货B1新白伦专柜,4008902887,121.4275794,31.15441356,310000,上海市,21,上海市,310104,徐汇区,
B001571AC4,,耐克(上海南站店),购物服务;体育用品店;耐克专卖店,沪闵路9001-3号盛泰奥特莱斯南商场B1层(近上海南站),4008806453,121.4265919,31.15377561,310000,上海市,21,上海市,310104,徐汇区,
B0FFFWPT8B,,VANS(上海南站店),购物服务;体育用品店;体育用品店,徐汇区石龙路750号汇金奥特莱斯b1,,121.4268874,31.15377999,310000,上海市,21,上海市,310104,徐汇区,
B0FFH868V5,,SKECHERS(上海南站店),购物服务;服装鞋帽皮具店;品牌鞋店,石龙路750-3号上海南站汇金百货B1层,,121.4275504,31.15420963,310000,上海市,21,上海市,310104,徐汇区,
B00156YQE7,,彪马(上海长途客运南站店),购物服务;体育用品店;彪马专卖店,石龙路750-3号上海汇金奥特莱斯B1,021-54359025,121.4279109,31.15427908,310000,上海市,21,上海市,310104,徐汇区,
B0J3UC3V4F,,BUFFALO篮球公园(南站店),体育休闲服务;体育休闲服务场所;体育休闲服务场所,上海市徐汇区石龙路728号(近上海长途南站2号门),17749740458,121.4288475,31.1538006,310000,上海市,21,上海市,310104,徐汇区,
B0FFFWAFWB,,阿迪达斯(上海南站折扣店),购物服务;体育用品店;阿迪达斯专卖店,石龙路750号上海南站南汇金奥特莱斯C区B1层,,121.4273001,31.15315785,310000,上海市,21,上海市,310104,徐汇区,
B0FFFXQXO9,,361度(汇金奥特莱斯南商场店),购物服务;体育用品店;体育用品店,石龙路750-3号汇金奥特莱斯南广场B1层运动户外馆,13764082165,121.4264878,31.15347064,310000,上海市,21,上海市,310104,徐汇区,
B0IATSPI7U,,科迈游泳培训搏击柔术乒乓球综合馆,体育休闲服务;运动场馆;乒乓球馆,嘉陵路与石龙路交叉口东60米,,121.426447,31.15019331,310000,上海市,21,上海市,310104,徐汇区,
B0FFGON7ZO,,中海馨园游泳馆,体育休闲服务;运动场馆;游泳馆,钦州南路8弄1-25号中海馨园,021-54355123,121.4239941,31.16509252,310000,上海市,21,上海市,310104,徐汇区,
B0FFM8YJ64,,HGA网球俱乐部(徐汇光大中心店),体育休闲服务;运动场馆;网球场,漕宝路66号光大会展中心4楼,4000399398,121.424171,31.1690207,310000,上海市,21,上海市,310104,徐汇区,
B0FFFPPEI8,,康健光大国际大酒店-乒乓球,体育休闲服务;运动场馆;乒乓球馆,漕宝路66号光大会展中心国际大酒店A座F4层,13816707800,121.4247738,31.16942422,310000,上海市,21,上海市,310104,徐汇区,
B0J3JL4I1V,,轻松星球(徐汇日月光店),体育休闲服务;运动场馆;运动场所,漕宝路36号2号楼106-2室,18621681324,121.4271254,31.169747,310000,上海市,21,上海市,310104,徐汇区,
B0JD317TYZ,,回力(徐汇日月光中心店),购物服务;体育用品店;体育用品店,漕宝路33号徐汇日月光中心B1层B1-23,,121.4281719,31.17074388,310000,上海市,21,上海市,310104,徐汇区,
B0J3HGIS21,,帅速乒乓球专业培训,体育休闲服务;运动场馆;乒乓球馆,漕宝路33号徐汇日月光中心F3层(漕宝路地铁站出入口旁),,121.4277873,31.17081133,310000,上海市,21,上海市,310104,徐汇区,
B0J21UIGFL,,帅速乒乓连锁(徐汇日月光中心店),购物服务;购物相关场所;购物相关场所,漕宝路33号徐汇日月光中心F3层(漕宝路地铁站出入口旁),,121.4279375,31.17079454,310000,上海市,21,上海市,310104,徐汇区,
B0HKRSP0DQ,,PadelUP板式网球(Padel),体育休闲服务;运动场馆;网球场,漕溪路250号银海大楼11楼露台,,121.4298476,31.17228342,310000,上海市,21,上海市,310104,徐汇区,
B0JRK16WN6,,弈非乒乓,体育休闲服务;运动场馆;乒乓球馆,冠生园路393号德必易园102,13601677091,121.4205145,31.16495878,310000,上海市,21,上海市,310104,徐汇区,
B0J11C9WBU,,弈非体育策划(上海)有限责任公司,公司企业;公司;公司,冠生园路与柳州路交叉口西南20米,,121.4206427,31.16500089,310000,上海市,21,上海市,310104,徐汇区,
B0FFH7D15M,,上海师范大学徐汇校区东部操场,体育休闲服务;运动场馆;运动场所,桂林路100号上海师范大学徐汇校区东部内,021-64322000,121.4187427,31.16217049,310000,上海市,21,上海市,310104,徐汇区,
B001541610,,徐汇区工人文化体育中心,体育休闲服务;休闲场所;休闲场所,桂林路46号,,121.4161013,31.15795935,310000,上海市,21,上海市,310104,徐汇区,
B0FFHRTOOU,,上海市康林体育中心,体育休闲服务;运动场馆;综合体育馆,浦北路270号康东网球馆1号楼,,121.4174196,31.15777857,310000,上海市,21,上海市,310104,徐汇区,
B0FFHW5LYG,,上海市田林体育俱乐部网球场,体育休闲服务;运动场馆;网球场,钦州路728号(近田林东路),,121.4235765,31.17655816,310000,上海市,21,上海市,310104,徐汇区,
B0GKY1KZQD,,冠培体育,购物服务;体育用品店;体育用品店,田林街道钦州路728号,,121.4240452,31.17683456,310000,上海市,21,上海市,310104,徐汇区,
B0J31XNLV1,,保龄球馆,体育休闲服务;运动场馆;运动场所,田林体育俱乐部(东门)二楼,,121.4242605,31.17643202,310000,上海市,21,上海市,310104,徐汇区,
B0HDUCKEAI,,真阳太极静修馆(体育公寓店),体育休闲服务;运动场馆;运动场所,田林东路360弄2号楼2楼A座,021-64226750,121.4241965,31.17565034,310000,上海市,21,上海市,310104,徐汇区,
B0FFK29C5Z,,迅猛龙乒乓球俱乐部(汇阳广场),体育休闲服务;运动场馆;乒乓球馆,田林东路75号汇阳广场三楼316商铺,13816708833,121.4288866,31.17628503,310000,上海市,21,上海市,310104,徐汇区,
B0FFK9HDRK,,择通体育,购物服务;体育用品店;体育用品店,田林东路285号好饰家07-08商铺,13916695399,121.4283157,31.1755816,310000,上海市,21,上海市,310104,徐汇区,
B0FFHXCPI7,,棒棒体育(汇阳广场店),购物服务;体育用品店;体育用品店,田林东路75号汇阳广场1F层,,121.4284479,31.17635439,310000,上海市,21,上海市,310104,徐汇区,
B0FFFFGS8T,,安踏(汇金奥特莱斯南商场店),购物服务;体育用品店;体育用品店,石龙路750汇金奥特莱斯南商场B2层,4008582020,121.4260151,31.15343405,310000,上海市,21,上海市,310104,徐汇区,
B0FFF55YAO,,Kappa(上海南站店),购物服务;专卖店;儿童用品店,石龙路750-3号盛泰奥特莱斯(南广场)B2层,,121.4260972,31.1535391,310000,上海市,21,上海市,310104,徐汇区,
B00155HT7M,,上海体育大学徐汇校区,科教文化服务;学校;高等院校,百色路1333号(华东理工大学地铁站2号口步行290米),,121.4270735,31.14363059,310000,上海市,21,上海市,310104,徐汇区,
B00154DMXB,,东方体育(田林路店),购物服务;体育用品店;体育用品店,田林东路451-459号,021-64081411,121.4207891,31.17398342,310000,上海市,21,上海市,310104,徐汇区,
B001558UIT,,阿迪达斯(东方体育店),购物服务;体育用品店;阿迪达斯专卖店,田林东路451号东方体育1层,18918083823,121.4209523,31.17404556,310000,上海市,21,上海市,310104,徐汇区,
B0J6S752JE,,耐克篮球公园,体育休闲服务;运动场馆;篮球场馆,徐家汇体育公园内(上海体育馆地铁站6号口步行390米),,121.4346575,31.18205677,310000,上海市,21,上海市,310104,徐汇区,
B00155G8EH,,上海东亚体育文化中心有限公司,公司企业;公司;公司,漕溪北路1111-4号(上海体育馆地铁站2号口步行320米),,121.4337176,31.18322268,310000,上海市,21,上海市,310104,徐汇区,
B0JBH7ZIQX,,YONEX,购物服务;体育用品店;体育用品店,零陵路747号(上海体育馆地铁站2号口步行430米),13795490280,121.4346101,31.18545399,310000,上海市,21,上海市,310104,徐汇区,
B0FFF3IXQE,,SKECHERS(飞洲国际广场店),购物服务;体育用品店;体育用品店,零陵路899号飞洲国际4楼(上海体育馆地铁站1号口旁),4009002311,121.4333618,31.18514016,310000,上海市,21,上海市,310104,徐汇区,
B0JUZUE7GB,,久事体育资产经营公司,公司企业;公司;公司,零陵路800号久事体育大厦15楼(徐家汇体育公园12号门中山南二路1500号进),,121.4355012,31.18154741,310000,上海市,21,上海市,310104,徐汇区,
B0J6S75PQ1,,威尔胜室外网球场,体育休闲服务;运动场馆;网球场,徐家汇体育公园内(上海体育馆地铁站6号口旁),,121.4323932,31.18268389,310000,上海市,21,上海市,310104,徐汇区,
B00154DRHM,,红双喜(三角东街),购物服务;体育用品店;体育用品店,零陵路797号(上海体育馆地铁站2号口步行150米),,121.4342484,31.18533746,310000,上海市,21,上海市,310104,徐汇区,
B0JGTAQGMX,,上海久事体育产业发展(集团)有限公司,公司企业;公司;公司,徐家汇体育公园久事体育大厦,,121.4355292,31.18158344,310000,上海市,21,上海市,310104,徐汇区,
B0FFIK0UFK,,一号线4号线上海体育馆站,体育休闲服务;体育休闲服务场所;体育休闲服务场所,中山西路2366弄华鼎广场2号楼(上海体育馆地铁站5号口旁),,121.4322087,31.18416187,310000,上海市,21,上海市,310104,徐汇区,
B0HG6NCVD1,,上海市·上海体育馆-羽毛球馆,体育休闲服务;运动场馆;羽毛球场,漕溪北路1111号上海体育馆内(近零陵路),,121.4336134,31.18338643,310000,上海市,21,上海市,310104,徐汇区,
B0K6ZKSJDA,,敏诚体育,购物服务;体育用品店;体育用品店,零陵路800号久事体育大厦1楼,,121.4355252,31.18159743,310000,上海市,21,上海市,310104,徐汇区,
B0FFFZKPQJ,,上海师范大学徐汇校区西部体育学院,科教文化服务;学校;高等院校,桂林路100号上海师范大学徐汇校区西部内,,121.4115728,31.16400894,310000,上海市,21,上海市,310104,徐汇区,
B0FFHCTBLM,,上海师范大学徐汇校区西部师大附中篮球馆,体育休闲服务;运动场馆;篮球场馆,桂林路120号(桂林公园地铁站4号口步行440米),,121.414384,31.16532518,310000,上海市,21,上海市,310104,徐汇区,
B0JD5L6LKS,,铭君游泳馆,体育休闲服务;运动场馆;游泳馆,美通科创空间西南门旁,,121.4266513,31.14982776,310000,上海市,21,上海市,310104,徐汇区,
B0FFJ04WNZ,,康健社区体育场-羽毛球馆,体育休闲服务;运动场馆;羽毛球场,桂林西街168号康健社区体育场内(近浦北路),15134014869,121.4131979,31.15450596,310000,上海市,21,上海市,310104,徐汇区,
B0JR15U2HF,,炼猫体育运动中心,体育休闲服务;运动场馆;运动场所,浦北路498号,,121.4126934,31.15507032,310000,上海市,21,上海市,310104,徐汇区,
B0FFHVT23E,,康健社区体育场-篮球场,体育休闲服务;运动场馆;篮球场馆,桂林西街168号(近浦北路),021-54199404,121.4134611,31.1546001,310000,上海市,21,上海市,310104,徐汇区,
B0J27C5ORW,,乐动力栖羽体育中心羽毛球馆,体育休闲服务;运动场馆;羽毛球场,喜泰支路6号,13072170790,121.4498001,31.14722573,310000,上海市,21,上海市,310104,徐汇区,
B0J27CF3KH,,乐动力栖羽体育中心篮球馆,体育休闲服务;运动场馆;篮球场馆,喜泰支路6号,18001697528,121.449784,31.14726468,310000,上海市,21,上海市,310104,徐汇区,
B0IB9U9RK9,,智跃体育,体育休闲服务;体育休闲服务场所;体育休闲服务场所,老沪闵路777号摩登设计1门(爱悠幼儿园四楼篮球羽毛球馆综合馆),17301719071,121.4250466,31.14232973,310000,上海市,21,上海市,310104,徐汇区,
B0FFLID77B,,上海体育大学徐汇校区-身训馆,科教文化服务;学校;高等院校,百色路1333号上海体育大学徐汇校区内,,121.4258337,31.14310529,310000,上海市,21,上海市,310104,徐汇区,
B0G3ZUQQKL,,溥冠体育,购物服务;体育用品店;体育用品店,老沪闵路777号摩登设计谷20栋4楼,18964074908,121.4249304,31.14229761,310000,上海市,21,上海市,310104,徐汇区,
B0FFKPXFO1,,动因体育(邮电学校店),购物服务;购物相关场所;购物相关场所,老沪闵路777-1号(华东理工大学地铁站2号口步行410米),,121.4248954,31.14232355,310000,上海市,21,上海市,310104,徐汇区,
B0HBK7SJXJ,,上海文教体育用品总公司,公司企业;公司;公司,桂林路与田林路交叉口南80米,,121.4127711,31.17171375,310000,上海市,21,上海市,310104,徐汇区,
B0IKUH0MM1,,Wilson欣林田体育(漕溪北路店),购物服务;购物相关场所;购物相关场所,漕溪北路739-2号(上海体育馆地铁站1号口步行260米),18121255305;18121255306,121.4327264,31.18661943,310000,上海市,21,上海市,310104,徐汇区,
B0IUCARH3R,,慧动体育足球篮球(上海体育场中心),体育休闲服务;运动场馆;综合体育馆,零陵路739号(上海体育场地铁站3号口步行330米),,121.4358635,31.18618868,310000,上海市,21,上海市,310104,徐汇区,
B0H1S5IWGR,,莱利碧诗意(上海)体育用品有限公司-RILEY(中国),公司企业;公司;商业贸易,斜土路2897弄50号海文商务楼115室(小白楼),021-64403258,121.4361819,31.18877392,310000,上海市,21,上海市,310104,徐汇区,
B0JUHAO657,,卓越体育·青少年体能训练中心(桂平路店),购物服务;购物相关场所;购物相关场所,桂平路136号,,121.4068578,31.15281737,310000,上海市,21,上海市,310104,徐汇区,
B00155L1AC,,华东理工大学徐汇校区体育馆,体育休闲服务;运动场馆;综合体育馆,梅陇路130号华东理工大学徐汇校区,,121.4154328,31.14418207,310000,上海市,21,上海市,310104,徐汇区,
B0FFG5DFBK,,华东理工大学徐汇校区体育科学与工程学院,科教文化服务;学校;高等院校,梅陇路130号华东理工大学徐汇校区,,121.4154548,31.14406415,310000,上海市,21,上海市,310104,徐汇区,
B0I2NUOHHT,,锐猎体育(GRC绿地滨江CLUB店),购物服务;体育用品店;体育用品店,云锦路500号B楼grc绿地滨江club b1-03,,121.4534572,31.16670376,310000,上海市,21,上海市,310104,徐汇区,
B0JKSX1499,,乐动力体育中心,体育休闲服务;运动场馆;综合体育馆,云锦路与龙启路交叉口西北100米,,121.4538252,31.16716837,310000,上海市,21,上海市,310104,徐汇区,
B0J0DBJTLG,,邮人体育(LUMINA 星扬西岸中心店),购物服务;体育用品店;体育用品店,龙耀路175号LUMINA 星扬西岸中心F1层,,121.4566695,31.16353495,310000,上海市,21,上海市,310104,徐汇区,
B0H0T7PU9N,,慧东体育(徐汇梅陇商业中心店),购物服务;体育用品店;体育用品店,梅陇路255号华轻梅陇购物中心徐汇梅陇商业中心店F3层,13621811857,121.4174752,31.14094751,310000,上海市,21,上海市,310104,徐汇区,
B00156LTRD,,华东理工大学徐汇校区体育中心,体育休闲服务;运动场馆;运动场所,梅陇路30号华东理工大学徐汇校区,,121.4169383,31.14457711,310000,上海市,21,上海市,310104,徐汇区,
B0FFM15I6R,,上海国澳江桥体育设施有限公司,公司企业;公司;公司,上中路479号上海坤政商务楼403,,121.4431289,31.14308713,310000,上海市,21,上海市,310104,徐汇区,
B0I1FYP4B0,,毛羽体育综合馆,体育休闲服务;运动场馆;羽毛球场,喜泰路247弄255号苑宏新村小区大门口进来直走到头,13117804998,121.4472146,31.14557008,310000,上海市,21,上海市,310104,徐汇区,
B0JUYROJ1V,,田林体育俱乐部篮球馆,体育休闲服务;运动场馆;篮球场馆,田林体育俱乐部东门旁,,121.4242865,31.17703174,310000,上海市,21,上海市,310104,徐汇区,
B0JAZKUNJV,,上海天霖体育发展有限公司,公司企业;公司;公司,钦州路与田林东路交叉口西北160米,,121.4242454,31.17701371,310000,上海市,21,上海市,310104,徐汇区,
B0FFJFBWJD,,师大康力搏体育运动中心,体育休闲服务;体育休闲服务场所;体育休闲服务场所,龙水南路336弄32号103室,18917863049,121.4504162,31.15320893,310000,上海市,21,上海市,310104,徐汇区,
B0FFJC8TFG,,上海泳闻体育游泳培训俱乐部(桂林路店),科教文化服务;培训机构;培训机构,桂林路与钦江路交叉口东20米,,121.4108619,31.1792707,310000,上海市,21,上海市,310104,徐汇区,
B0FFF5E5K8,,喜帅体育(书香逸居店),购物服务;体育用品店;体育用品店,上中路25号,13917897698,121.4289831,31.13820905,310000,上海市,21,上海市,310104,徐汇区,
B0J0VSOC2A,,智跃体育·青少年篮球培训,科教文化服务;培训机构;培训机构,老沪闵路与上中西路交叉口西北100米(凌云天地2楼),,121.4270349,31.13903299,310000,上海市,21,上海市,310104,徐汇区,
B0G221WF1K,,慧动体育(美千居商业广场店),购物服务;体育用品店;体育用品店,中山西路2368号美千居商业广场F1,,121.428804,31.18157623,310000,上海市,21,上海市,310104,徐汇区,
B0JRGH0PAW,,强民体育(长桥校区),科教文化服务;科教文化场所;科教文化场所,上中路273号,,121.437124,31.14051648,310000,上海市,21,上海市,310104,徐汇区,
B0HRDKTKOV,,明势体育综合馆篮球·乒乓球,体育休闲服务;运动场馆;乒乓球馆,天等路400号品域凌云里3号楼101室及201室,13402098242,121.4231872,31.13929216,310000,上海市,21,上海市,310104,徐汇区,
B0FFK1ZRGO,,呈康体育篮球训练基地(凌云1街坊),体育休闲服务;运动场馆;篮球场馆,1街坊,13262214016,121.4212999,31.13696934,310000,上海市,21,上海市,310104,徐汇区,
B0GR3RJXAO,,毛羽体育羽毛球培训(优幕影城店),体育休闲服务;运动场馆;羽毛球场,上中西路280号凌云一街坊美食F4层,13117804998,121.4215433,31.13672973,310000,上海市,21,上海市,310104,徐汇区,
B00155LL5P,,棒棒体育,购物服务;体育用品店;体育用品店,天钥桥路567号103棒棒体育,021-54666533,121.4380799,31.18765274,310000,上海市,21,上海市,310104,徐汇区,
B00155KZ3R,,上海体育场-1号通道,体育休闲服务;体育休闲服务场所;体育休闲服务场所,天钥桥路666号八万人体育场内(上海体育场地铁站3号口旁),021-64266666,121.4385871,31.18645424,310000,上海市,21,上海市,310104,徐汇区,
B0FFL5KTFH,,徐家汇体育场馆,体育休闲服务;运动场馆;运动场所,斜土路2701号(天钥桥路口)富驿时尚酒店,,121.4374857,31.18756675,310000,上海市,21,上海市,310104,徐汇区,
B0J1YUO871,,时不我待自习馆(上海体育场店),科教文化服务;培训机构;培训机构,斜土路2669号英雄大厦9楼902室,17717851141,121.4376951,31.18792294,310000,上海市,21,上海市,310104,徐汇区,
B0FFK9DWN9,,上海健乐世纪体育器材有限公司,公司企业;公司;公司,斜土路2601号嘉汇广场T2幢9楼H座,,121.4385728,31.1892818,310000,上海市,21,上海市,310104,徐汇区,
B0J0XKFH9F,,尚恒体育游泳健身中心,体育休闲服务;运动场馆;游泳馆|体育休闲服务;运动场馆;健身中心,平福路279号,,121.4431754,31.13912034,310000,上海市,21,上海市,310104,徐汇区,
B0H1BKSSBF,,上海阿拉吉文化体育中心,体育休闲服务;运动场馆;综合体育馆,三汇路与中山西路交叉口南40米,13801724269,121.4254136,31.18313602,310000,上海市,21,上海市,310104,徐汇区,
B0JBX7QABW,,TY SPORTS羽毛球馆上海瑶瑶乐体育文化发展有限公司,体育休闲服务;运动场馆;篮球场馆,漕宝路440号体育中心4楼(虹漕路地铁站1号口步行500米),19102127068,121.4043197,31.16501712,310000,上海市,21,上海市,310104,徐汇区,
B0FFJ4VWA0,,上海淡竹体育科技有限公司,公司企业;公司;公司,漕河泾新兴技术开发区桂平路418号29楼,021-54019856,121.4005655,31.16666748,310000,上海市,21,上海市,310104,徐汇区,
B0JDPCXB4L,,乐动力西岸风之谷体育公园足球场,体育休闲服务;运动场馆;足球场,龙吴路1800号,15301897285,121.4537317,31.13400463,310000,上海市,21,上海市,310104,徐汇区,
B0JDPUJOGF,,乐动力西岸风之谷体育公园板式网球,体育休闲服务;运动场馆;网球场,龙吴路1800号,,121.4533577,31.13444553,310000,上海市,21,上海市,310104,徐汇区,
B0IBBAXV4W,,徐家汇体育公园足球公园,体育休闲服务;运动场馆;运动场所,中山南二路与天钥桥路交叉口西南220米,,121.4380985,31.18138093,310000,上海市,21,上海市,310104,徐汇区,
B0FFM8KV1E,,乐活体育网球羽毛球培训(天钥桥路店),体育休闲服务;运动场馆;篮球场馆,天钥桥路968号,17701877544,121.4394295,31.17974213,310000,上海市,21,上海市,310104,徐汇区,
B0FFG95G2F,,麦斯卡体育用品商店,购物服务;体育用品店;体育用品店,凌云路370-1号,13817285558,121.4149749,31.13852973,310000,上海市,21,上海市,310104,徐汇区,
B001570K6D,,上海应用技术大学体育教育学院,科教文化服务;学校;成人教育,漕宝路与桂林路交叉口东300米,,121.4171284,31.16892554,310000,上海市,21,上海市,310104,徐汇区,
B0FFL7CZP0,,聚动力贝岭体育公园(中国电子贝岭大厦店),体育休闲服务;运动场馆;运动场所,宜山路810号,18616771227,121.401888,31.17534224,310000,上海市,21,上海市,310104,徐汇区,
B0HDRNRKQS,,健强体育羽毛球篮球足球网球培训,科教文化服务;培训机构;培训机构,桂平路与钦江路交叉口东南140米,,121.3976095,31.17562071,310000,上海市,21,上海市,310104,徐汇区,
B0J6ASUU2U,,上海民航职业技术学院徐汇校区体育运动馆,体育休闲服务;运动场馆;运动场所,龙华西路1号上海民航职业技术学院徐汇校区,,121.4522053,31.17259687,310000,上海市,21,上海市,310104,徐汇区,
B00155LAEL,,徐汇区青少年体育运动学校,科教文化服务;学校;学校,枫林路329号(东安路地铁站1号口步行390米),,121.4526355,31.19501957,310000,上海市,21,上海市,310104,徐汇区,
B0FFJ9OMP8,,金冠乒乓球体育培训俱乐部,科教文化服务;培训机构;培训机构,虹桥路808号加华广场B座301室,13524709157,121.4194505,31.1966677,310000,上海市,21,上海市,310104,徐汇区,
B0H6N7F1H9,,煜煜体育青少年羽毛球培训基地,购物服务;体育用品店;体育用品店,小木桥路528号2楼(大木桥路地铁站3号口步行350米),13587383929,121.4566579,31.19344576,310000,上海市,21,上海市,310104,徐汇区,
B0HU2ST210,,臻龙跆拳道搏击体育中心,体育休闲服务;运动场馆;跆拳道场馆,小木桥路528号103室(大木桥路地铁站3号口步行370米),18018585881,121.4566779,31.19342482,310000,上海市,21,上海市,310104,徐汇区,
B0JRMUOB95,,强民体育(位育校区),科教文化服务;培训机构;培训机构,小木桥路528号二楼羽毛球馆最里面,,121.4566739,31.19337083,310000,上海市,21,上海市,310104,徐汇区,
B0KB7CITMU,,鞑行体育(上师大科技园店),购物服务;体育用品店;体育用品店,桂林路70弄91-111号上师大科技园,,121.4092105,31.15971784,310000,上海市,21,上海市,310104,徐汇区,
B0H0XXBO3O,,强民体育(凌云一街坊美食店),体育休闲服务;运动场馆;运动场所,上中西路280号4楼优幕影城5号厅旁边,,121.4208584,31.13717877,310000,上海市,21,上海市,310104,徐汇区,
B0FFGC0QLJ,,滔博体育,公司企业;公司;公司,柳州路928号百丽国际广场F20层,,121.4162408,31.18770026,310000,上海市,21,上海市,310104,徐汇区,
B0J2LMUR56,,上海景御体育发展有限公司,公司企业;公司;公司,中山西路1600-1602号宏汇国际广场,,121.4172428,31.18850971,310000,上海市,21,上海市,310104,徐汇区,
B00155M0I9,,上海交通大学徐汇校区体育馆,体育休闲服务;运动场馆;综合体育馆,华山路1954号上海交通大学徐汇校区,021-62932971,121.4289867,31.20089988,310000,上海市,21,上海市,310104,徐汇区,
B0FFFZS72R,,上海交通大学徐汇校区郑坚固体育中心,体育休闲服务;运动场馆;综合体育馆,华山路1954号上海交通大学校内,,121.4279851,31.2001059,310000,上海市,21,上海市,310104,徐汇区,
B0FFJE8BY1,,昂立慧动体育足球篮球综合培训(番禺路店),体育休闲服务;运动场馆;足球场,番禺路868号,13801716497,121.4236096,31.19913191,310000,上海市,21,上海市,310104,徐汇区,
B0GUSROODQ,,启辰体育游泳俱乐部(东安路店),体育休闲服务;运动场馆;综合体育馆,东安路149弄,13341825368,121.447979,31.19751909,310000,上海市,21,上海市,310104,徐汇区,
B0H33LX435,,上海星学体育文化传播有限公司,科教文化服务;科教文化场所;科教文化场所,龙兰路277号云锦天地(东航·滨江中心店),,121.4528855,31.16803176,310000,上海市,21,上海市,310104,徐汇区,
B0HKYCWK8F,,上海东方体育用品有限公司,公司企业;公司;公司,南丹东路255号5楼(徐家汇地铁站2号口步行110米),,121.4339333,31.19124401,310000,上海市,21,上海市,310104,徐汇区,
B0I0YCZ5GR,,徐家汇飞镖体育活动中心,体育休闲服务;运动场馆;运动场所,南丹东路255号(徐家汇地铁站2号口步行110米),,121.4339764,31.19122109,310000,上海市,21,上海市,310104,徐汇区,
B001532E93,,徐汇区第一少年业余体育学校,科教文化服务;学校;学校,乌鲁木齐南路64号(衡山路地铁站4号口步行430米),021-64337008,121.4439704,31.20757596,310000,上海市,21,上海市,310104,徐汇区,
B0015083B6,,上海市徐汇体育馆,体育休闲服务;运动场馆;综合体育馆,华泾路1190弄,,121.4381159,31.11967446,310000,上海市,21,上海市,310104,徐汇区,
B0FFGL0RHF,,上海盛大花园青少年体育俱乐部,体育休闲服务;运动场馆;运动场所,宛平南路与龙恒东路交叉口西320米,,121.4490053,31.17807501,310000,上海市,21,上海市,310104,徐汇区,
B0J0NUIGR6,,阿迪达斯体育(中国)有限公司上海分公司,购物服务;体育用品店;体育用品店|公司企业;公司;公司,恭城路160号TWO itc F12层,,121.4311305,31.19852811,310000,上海市,21,上海市,310104,徐汇区,
B0G3ASE79J,,复旦大学枫林综合体育馆,体育休闲服务;运动场馆;综合体育馆,医学院路138号复旦大学枫林校区内,,121.4464492,31.19767581,310000,上海市,21,上海市,310104,徐汇区,
B0FFHGYADX,,复旦大学上海医学院学生体育活动中心,体育休闲服务;运动场馆;运动场所,医学院路138号复旦大学上海医学院枫林校区,021-54237900,121.4441847,31.19787112,310000,上海市,21,上海市,310104,徐汇区,
B0JARCVGXD,,篮途体育(百联徐汇商业广场店),体育休闲服务;运动场馆;运动场所,华山路2038号百联徐汇商业广场,16621583921,121.4320982,31.19935615,310000,上海市,21,上海市,310104,徐汇区,
B0KBLA56DM,,勋然体育(华鑫天地店),购物服务;体育用品店;体育用品店,田林路200号华鑫天地A8栋504,,121.4025556,31.17087465,310000,上海市,21,上海市,310104,徐汇区,
B0I01ZVCDY,,体育运动,购物服务;体育用品店;体育用品店,虹梅南路680弄小区西北门西北60米,,121.4162277,31.13117368,310000,上海市,21,上海市,310104,徐汇区,
B0FFHGOPN5,,东方体育(陕西南路360弄小区店),购物服务;体育用品店;体育用品店,陕西南路360号(陕西南路地铁站6号口步行180米),15900761900,121.4554475,31.2164327,310000,上海市,21,上海市,310104,徐汇区,
B0I2DR1XP2,,斯伯丁体育用品(凯滨国际店),购物服务;体育用品店;体育用品店,凯滨路199号凯滨国际F3层,,121.4502189,31.18454538,310000,上海市,21,上海市,310104,徐汇区,
