id,行业类型,名称,类型,地址,联系电话,lng,lat,省份代码,省份名称,城市代码,城市名称,区域代码,区域名称,所在商圈,rating
B0FFJCJMGI,diner,润苑·悦椿轩(徐汇万科中心店),餐饮服务;中餐厅;中餐厅,定安路55号徐汇万科中心A座203,18616799693,121.4247954,31.16203914,310000,上海市,21,上海市,310104,徐汇区,,"{'cost': '350.00', 'opentime2': '11:00-21:00', 'rating': '4.9', 'open_time': '11:00-21:00', 'meal_ordering': '0'}"
B0HR4X2THN,diner,润苑·影Vision(徐汇万科中心A座店),餐饮服务;中餐厅;中餐厅,安定路55号徐汇万科中心A座2层203(距地铁15号线上海南站出口步行670米),18616799693,121.4249148,31.16187762,310000,上海市,21,上海市,310104,徐汇区,,"{'cost': '1800.00', 'opentime2': '11:00-13:30；18:30-20:30', 'rating': '4.8', 'open_time': '11:00-13:30 18:30-20:30', 'meal_ordering': '0'}"
B0H22BHQ2T,diner,马记永·兰州牛肉面(徐汇万科中心店),餐饮服务;快餐厅;快餐厅,安定路55号徐汇万科中心A座T2-102B,17621624426,121.4249449,31.16199757,310000,上海市,21,上海市,310104,徐汇区,,"{'cost': '28.00', 'opentime2': '周一至周日 10:00-22:00', 'rating': '4.4', 'open_time': '10:00-22:00', 'meal_ordering': '0'}"
B0G0R4A55O,diner,老乡鸡(徐汇万科中心店),餐饮服务;快餐厅;快餐厅,南宁路980号一层01单元,021-64225227;18016476935;4007661777,121.4243653,31.16134074,310000,上海市,21,上海市,310104,徐汇区,,"{'cost': '33.00', 'opentime2': '10:00-21:00', 'rating': '4.6', 'open_time': '10:00-21:00', 'meal_ordering': '0'}"
B0I33UYDPB,diner,胡子大厨·超级小炒肉(徐汇万科中心店),餐饮服务;中餐厅;中餐厅,徐汇万科中心A座,13140073771;19145607423,121.4248526,31.16191641,310000,上海市,21,上海市,310104,徐汇区,,"{'cost': [], 'opentime2': '10:30-21:00', 'rating': '4.3', 'open_time': '10:30-21:00', 'meal_ordering': '0'}"
B0H0XA2WGH,diner,沃歌斯(徐汇万科中心店),餐饮服务;外国餐厅;西餐厅(综合风味),定安路55号徐汇万科中心A座1层102-103,021-54590832,121.4247162,31.1621628,310000,上海市,21,上海市,310104,徐汇区,,"{'cost': [], 'opentime2': [], 'rating': '4.3', 'open_time': [], 'meal_ordering': '0'}"
B0I2UHS7DJ,diner,喜家德虾仁水饺(徐汇万科中心店),餐饮服务;中餐厅;中餐厅,定安路55号徐汇万科中心1期,18408084320,121.4249268,31.1620155,310000,上海市,21,上海市,310104,徐汇区,,"{'cost': [], 'opentime2': '10:00-20:00', 'rating': '4.5', 'open_time': '10:00-20:00', 'meal_ordering': '0'}"
B0J2H1JRAZ,diner,小满手工粉(徐汇万科中心店),餐饮服务;中餐厅;中餐厅,定安路55号徐汇万科中心1期F1层,17337659091;4000036177,121.424953,31.16123339,310000,上海市,21,上海市,310104,徐汇区,,"{'cost': [], 'opentime2': '10:00-20:30', 'rating': '4.2', 'open_time': '10:00-20:30', 'meal_ordering': '0'}"
B0IA31A3QG,diner,锦·日本料理,餐饮服务;外国餐厅;日本料理,浦北路1号上海中星铂尔曼大酒店2楼(近柳州路),[],121.4219397,31.16337265,310000,上海市,21,上海市,310104,徐汇区,,"{'cost': '332.00', 'opentime2': [], 'rating': '3.9', 'open_time': [], 'meal_ordering': '0'}"
B0H2XGDI33,diner,真功夫(徐汇万科中心店),餐饮服务;快餐厅;快餐厅,定安路55号徐汇万科中心1期F1层,021-64360061;15921015171,121.4251025,31.16138762,310000,上海市,21,上海市,310104,徐汇区,,"{'cost': '29.00', 'opentime2': '周一至周日 10:00-21:00', 'rating': '4.1', 'open_time': '10:00-21:00', 'meal_ordering': '0'}"
B0JDBSI16P,diner,肯德基(徐汇万科店),餐饮服务;快餐厅;肯德基,南宁路970号徐汇万科中心一期一层T1-101,021-54035866,121.4248156,31.16187336,310000,上海市,21,上海市,310104,徐汇区,,"{'cost': [], 'opentime2': '06:00-22:00', 'rating': '4.0', 'open_time': '06:00-22:00', 'meal_ordering': '0'}"
B0J3DDG5EY,diner,Tanstaafl·时食融合西式简餐(徐汇万科中心F座店),餐饮服务;快餐厅;快餐厅,徐汇万科中心F座,13621799550;17802127067,121.4244107,31.16462944,310000,上海市,21,上海市,310104,徐汇区,,"{'cost': [], 'opentime2': [], 'rating': '4.0', 'open_time': [], 'meal_ordering': '0'}"
B0HGOHUIWZ,diner,揭阿姨面馆·黄焖鸡米饭(徐汇万科中心店),餐饮服务;快餐厅;快餐厅,沪闵路9339-9号1层餐厅,13020226777,121.4241961,31.16479572,310000,上海市,21,上海市,310104,徐汇区,,"{'cost': '19.00', 'opentime2': [], 'rating': '4.2', 'open_time': [], 'meal_ordering': '0'}"
B0JKXRM8G7,diner,东北菜(李锦记店),餐饮服务;中餐厅;东北菜,南宁路970号李锦记大厦F2层,17278275153,121.4247624,31.16115197,310000,上海市,21,上海市,310104,徐汇区,,"{'cost': [], 'opentime2': [], 'rating': '3.6', 'open_time': [], 'meal_ordering': '0'}"
B0JALLC1TL,diner,鱼汤面(徐汇万科中心F座店),餐饮服务;中餐厅;中餐厅,徐汇万科中心F座,[],121.4241982,31.16442612,310000,上海市,21,上海市,310104,徐汇区,,"{'cost': [], 'opentime2': [], 'rating': '4.0', 'open_time': [], 'meal_ordering': '0'}"
B0J0M13FPG,diner,新疆炒米粉(李锦记大厦店),餐饮服务;中餐厅;中餐厅,南宁路970号李锦记大厦F2层,18256454755,121.4249942,31.16127445,310000,上海市,21,上海市,310104,徐汇区,,"{'cost': [], 'opentime2': [], 'rating': '3.6', 'open_time': [], 'meal_ordering': '0'}"
B0JRCN0XUL,diner,叫了个皮皮虾(徐汇万科中心店),餐饮服务;中餐厅;中餐厅,定安路55号徐汇万科中心1期F2层,13459196850,121.424916,31.16118833,310000,上海市,21,上海市,310104,徐汇区,,"{'cost': [], 'opentime2': '15:00-23:30', 'rating': '3.6', 'open_time': '15:00-23:30', 'meal_ordering': '0'}"
B0JA9LJZFU,diner,粥皇茶餐厅(徐汇万科中心1期店),餐饮服务;中餐厅;广东菜(粤菜),定安路55号徐汇万科中心1期F2层,13701858973,121.4248086,31.16127296,310000,上海市,21,上海市,310104,徐汇区,,"{'cost': [], 'opentime2': [], 'rating': '4.0', 'open_time': [], 'meal_ordering': '0'}"
B0KBXXF6BU,diner,鸭丫家烤鸭卷(李锦记大厦店),餐饮服务;中餐厅;中餐厅,南宁路970号李锦记大厦F2层,[],121.4248979,31.16115932,310000,上海市,21,上海市,310104,徐汇区,,"{'cost': [], 'opentime2': [], 'rating': '3.6', 'open_time': [], 'meal_ordering': '0'}"
B0I3TCBCGC,diner,稻湘缘(徐汇万科中心2期店),餐饮服务;中餐厅;中餐厅,徐汇万科中心H座定安路1楼,[],121.4235483,31.16351841,310000,上海市,21,上海市,310104,徐汇区,,"{'cost': [], 'opentime2': [], 'rating': '4.3', 'open_time': [], 'meal_ordering': '0'}"
B0FFIISTMK,diner,徐汇万科中心B1食堂(徐汇万科中心1期店),餐饮服务;中餐厅;中餐厅,定安路55号徐汇万科中心1期F1层,13818006958,121.4250483,31.16143443,310000,上海市,21,上海市,310104,徐汇区,,"{'cost': '21.00', 'opentime2': [], 'rating': '4.2', 'open_time': [], 'meal_ordering': '0'}"
B0J075FQUM,diner,豚大圣河豚打边炉(李锦记大厦店),餐饮服务;中餐厅;中餐厅,南宁路970号李锦记大厦F2层,13564053909,121.4249811,31.16132536,310000,上海市,21,上海市,310104,徐汇区,,"{'cost': [], 'opentime2': [], 'rating': '3.3', 'open_time': [], 'meal_ordering': '0'}"
B0JKV9PIEU,diner,山风小馆,餐饮服务;中餐厅;中餐厅,沪闵路9299号中智大厦,[],121.4235283,31.16293797,310000,上海市,21,上海市,310104,徐汇区,,"{'cost': [], 'opentime2': [], 'rating': '2.3', 'open_time': [], 'meal_ordering': '0'}"
B0JK36ACD9,diner,千韧潮汕牛肉裸条(李锦记大厦店),餐饮服务;中餐厅;中餐厅,南宁路970号李锦记大厦F2层,13381597691,121.4249982,31.16120853,310000,上海市,21,上海市,310104,徐汇区,,"{'cost': [], 'opentime2': [], 'rating': '3.7', 'open_time': [], 'meal_ordering': '0'}"
B0JK7RKK0X,diner,状元盖码饭(李锦记店),餐饮服务;中餐厅;中餐厅,南宁路970号李锦记大厦F2层,19876643414,121.4247926,31.16121898,310000,上海市,21,上海市,310104,徐汇区,,"{'cost': [], 'opentime2': [], 'rating': '3.7', 'open_time': [], 'meal_ordering': '0'}"
B0JKRARZEO,diner,消失的potato肉酱土豆泥浇汁拌饭(李锦记大厦店),餐饮服务;快餐厅;快餐厅,南宁路970号李锦记大厦,[],121.4248176,31.16121305,310000,上海市,21,上海市,310104,徐汇区,,"{'cost': [], 'opentime2': [], 'rating': '2.4', 'open_time': [], 'meal_ordering': '0'}"
B0FFHYQIQH,diner,北宴(徐汇万科中心A座店)(暂停营业),餐饮服务;中餐厅;中餐厅,"定安路55号,徐汇万科中心A座105室",13651736332,121.4248256,31.16180745,310000,上海市,21,上海市,310104,徐汇区,,"{'cost': '43.00', 'opentime2': '每天10:00-22:00', 'rating': '3.9', 'open_time': '10:00-22:00', 'meal_ordering': '0'}"
B0H1M7YUBK,diner,鼎鼎香麻辣香锅(徐汇万科中心店),餐饮服务;快餐厅;快餐厅,南宁路970号2层(上海南站地铁站10号口步行410米),17310011091,121.4249771,31.1611905,310000,上海市,21,上海市,310104,徐汇区,,"{'cost': [], 'opentime2': [], 'rating': '3.7', 'open_time': [], 'meal_ordering': '0'}"
B0FFF0B0QS,diner,麦当劳(中星城店),餐饮服务;快餐厅;麦当劳,柳州路99号中星城1层(上海南站地铁站8号口步行360米),021-64182052;021-64182075,121.4242208,31.160829,310000,上海市,21,上海市,310104,徐汇区,康健,
B00156O98L,diner,润苑大酒楼(徐汇店),餐饮服务;中餐厅;综合酒楼,田东路258弄4号,18616799693,121.4307592,31.17745833,310000,上海市,21,上海市,310104,徐汇区,,"{'cost': '199.00', 'opentime2': '11:00-14:00；17:00-21:00', 'rating': '4.9', 'open_time': '11:00-14:00 17:00-21:00', 'meal_ordering': '0'}"
B0FFFXOQ0J,diner,光明邨大酒家(汇阳广场店),餐饮服务;中餐厅;上海菜,田林东路75号汇阳广场2层,021-64480577,121.4289998,31.17628219,310000,上海市,21,上海市,310104,徐汇区,漕河泾,
B0FFFOAEEN,diner,上海中星铂尔曼大酒店汇●西餐厅,餐饮服务;外国餐厅;西餐厅(综合风味),浦北路1号上海中星铂尔曼大酒店2层,021-24268888,121.4206652,31.16317391,310000,上海市,21,上海市,310104,徐汇区,,"{'cost': '244.00', 'opentime2': '06:30-10:30；11:30-14:30', 'rating': '4.1', 'open_time': '06:30-10:30 11:30-14:30', 'meal_ordering': '0'}"
B0FFFEAVF6,diner,上海中星铂尔曼大酒店悦·中餐厅,餐饮服务;中餐厅;中餐厅,浦北路1号上海中星铂尔曼大酒店2层,[],121.420576,31.16330458,310000,上海市,21,上海市,310104,徐汇区,,"{'cost': '309.00', 'opentime2': '周一至周日 11:30-14:00，17:30-21:30', 'rating': '4.2', 'open_time': '11:30-14:00 17:30-21:30', 'meal_ordering': '0'}"
B00157GM3P,diner,萨莉亚意式餐厅(中星城店),餐饮服务;外国餐厅;意式菜品餐厅,浦北路9号中星城3楼306号商铺,021-64827650,121.4193639,31.16252773,310000,上海市,21,上海市,310104,徐汇区,,"{'cost': '38.00', 'opentime2': '10:00-21:30', 'rating': '4.5', 'open_time': '10:00-21:30', 'meal_ordering': '0'}"
B0FFG74KA0,diner,大鼓米线(中星城店),餐饮服务;快餐厅;快餐厅,浦北路9号中星城F2层(上海南站地铁站8号口步行360米),13328153009;15985058087,121.4193077,31.16256956,310000,上海市,21,上海市,310104,徐汇区,,"{'cost': '33.00', 'opentime2': '周一至周日 09:00-21:00', 'rating': '4.5', 'open_time': '09:00-21:00', 'meal_ordering': '0'}"
B0FFJI4XZL,diner,客缘初见(中星城店),餐饮服务;中餐厅;中餐厅,浦北路9号中星城F3层(上海南站地铁站8号口步行340米),021-26063588,121.4194752,31.1622992,310000,上海市,21,上海市,310104,徐汇区,,"{'cost': '100.00', 'opentime2': '周一至周日 11:00-21:00', 'rating': '4.5', 'open_time': '11:00-21:00', 'meal_ordering': '0'}"
B0H1O1W2WJ,diner,马记永·兰州牛肉面(上海中星城店),餐饮服务;快餐厅;快餐厅,浦北路9号二层203室(上海南站地铁站8号口步行340米),17395023421;17621473284,121.4197498,31.16242667,310000,上海市,21,上海市,310104,徐汇区,,"{'cost': '50.00', 'opentime2': '10:30-21:00', 'rating': '4.0', 'open_time': '10:30-21:00', 'meal_ordering': '0'}"
B00157I7IT,diner,川堂风·砂锅·跷脚牛肉(中星城店),餐饮服务;中餐厅;中餐厅,浦北路9号中星城3楼,021-54107068,121.4191503,31.16263417,310000,上海市,21,上海市,310104,徐汇区,,"{'cost': '62.00', 'opentime2': '周一至周五10:30-14:00；16:00-21:00；周六至周日10:30-14:30；16:00-21:00', 'rating': '4.7', 'open_time': '10:30-14:00 16:00-21:00', 'meal_ordering': '0'}"
B0FFMCQ5WY,diner,壹鲜大嘴巴牛蛙(中星城店),餐饮服务;中餐厅;中餐厅,浦北路9号中星城F3层(上海南站地铁站8号口步行350米),13162024773,121.4196546,31.16253035,310000,上海市,21,上海市,310104,徐汇区,,"{'cost': '113.00', 'opentime2': '09:00-21:00', 'rating': '4.2', 'open_time': '09:00-21:00', 'meal_ordering': '0'}"
B0FFM65753,diner,张亮麻辣烫(柳州路店),餐饮服务;中餐厅;四川菜(川菜),柳州路82号低层107室(上海南站地铁站8号口步行190米),18079991031,121.4194904,31.1611774,310000,上海市,21,上海市,310104,徐汇区,,"{'cost': '30.00', 'opentime2': '09:00-02:00', 'rating': '4.4', 'open_time': '09:00-02:00', 'meal_ordering': '0'}"
B0J13B9D6C,diner,探七局烤鱼牛蛙·湘菜(中星城店),餐饮服务;中餐厅;中餐厅,浦北路9号中星城F2层(上海南站地铁站8号口步行340米),15974361602;17621167294,121.4194962,31.16268584,310000,上海市,21,上海市,310104,徐汇区,,"{'cost': [], 'opentime2': [], 'rating': '4.0', 'open_time': [], 'meal_ordering': '0'}"
B0IK57U6OK,diner,汉堡王(上海美乐园),餐饮服务;快餐厅;快餐厅,柳州路138号1层102-1室,13501636174,121.4168135,31.16352752,310000,上海市,21,上海市,310104,徐汇区,,"{'cost': [], 'opentime2': '【正常】全年10:00-22:00', 'rating': '4.6', 'open_time': '10:00-22:00', 'meal_ordering': '0'}"
B0FFKU6JMI,diner,于林志桂林米粉(柳州路店),餐饮服务;中餐厅;中餐厅,柳州路90-2号(上海南站地铁站8号口步行250米),15001916481;18516273822,121.4188998,31.16173756,310000,上海市,21,上海市,310104,徐汇区,,"{'cost': '20.00', 'opentime2': '08:30-24:00', 'rating': '4.4', 'open_time': '08:30-24:00', 'meal_ordering': '0'}"
B0GK7MYOT7,diner,悸动烧仙草(徐汇柳州路店),餐饮服务;休闲餐饮场所;休闲餐饮场所,柳州路88号-临3铺,13122155023,121.4191445,31.16153529,310000,上海市,21,上海市,310104,徐汇区,,"{'cost': '13.00', 'opentime2': '【正常】全年周一至周五10:00-21:00；【正常】全年周六至周日10:00-22:00', 'rating': '4.1', 'open_time': '10:00-21:00', 'meal_ordering': '0'}"
B0J315IC2Q,diner,哥哥の深夜食堂美乐园店,餐饮服务;外国餐厅;日本料理,柳州路138号101-1号汉堡王傍边,15921909774,121.4168455,31.16347864,310000,上海市,21,上海市,310104,徐汇区,,"{'cost': [], 'opentime2': '周一至周五17:00-01:30', 'rating': '4.7', 'open_time': '17:00-01:30', 'meal_ordering': '0'}"
B0FFGZPZNE,diner,江西特色小炒(康宁坊店),餐饮服务;中餐厅;中餐厅,柳州路88号(上海南站地铁站8号口步行240米),13022605008;18930025637,121.4190342,31.16162497,310000,上海市,21,上海市,310104,徐汇区,,"{'cost': '31.00', 'opentime2': '09:30-23:15', 'rating': '4.3', 'open_time': '09:30-23:15', 'meal_ordering': '0'}"
B0FFG6GI23,diner,沙县小吃(柳州路店),餐饮服务;中餐厅;中餐厅,柳州路82号-4甲(上海南站地铁站8号口步行190米),15000360922;17717355604,121.4193931,31.16132904,310000,上海市,21,上海市,310104,徐汇区,,"{'cost': '13.00', 'opentime2': '09:30-23:00', 'rating': '4.4', 'open_time': '09:30-23:00', 'meal_ordering': '0'}"
B0FFJJ7DVX,diner,老上海馄饨铺(柳州路店),餐饮服务;中餐厅;中餐厅,柳州路88号-2(上海南站地铁站8号口步行230米),18816586180,121.4190502,31.16161201,310000,上海市,21,上海市,310104,徐汇区,,"{'cost': '13.00', 'opentime2': '06:00-23:30', 'rating': '4.0', 'open_time': '06:00-23:30', 'meal_ordering': '0'}"
B0JRNRLV8C,diner,融百厨·瑧精·家常饭(浦北路店),餐饮服务;快餐厅;快餐厅,浦北路6号1楼,13564720818,121.4204624,31.16426732,310000,上海市,21,上海市,310104,徐汇区,,"{'cost': [], 'opentime2': '10:30-20:00', 'rating': '3.6', 'open_time': '10:30-20:00', 'meal_ordering': '0'}"
B0JAXM69JD,diner,陕西老味道,餐饮服务;中餐厅;中餐厅,柳州路90-3号(上海南站地铁站8号口步行260米),13681741622,121.4189218,31.16172063,310000,上海市,21,上海市,310104,徐汇区,,"{'cost': [], 'opentime2': '07:00-02:00', 'rating': '4.2', 'open_time': '07:00-02:00', 'meal_ordering': '0'}"
B0HB6RM8D9,diner,手撕大排骨(柳州路店),餐饮服务;中餐厅;中餐厅,柳州路82号-3(上海南站地铁站8号口步行200米),19512350995,121.4193951,31.16132704,310000,上海市,21,上海市,310104,徐汇区,,"{'cost': [], 'opentime2': '10:00-24:00', 'rating': '4.0', 'open_time': '10:00-24:00', 'meal_ordering': '0'}"
B0J2TC6L6K,diner,香百厘·手撕大排骨·蒸羊羔(中星城店),餐饮服务;中餐厅;综合酒楼,柳州路82号-3号,18018323712,121.4201811,31.162041,310000,上海市,21,上海市,310104,徐汇区,,"{'cost': [], 'opentime2': '08:00-02:00', 'rating': '3.7', 'open_time': '08:00-02:00', 'meal_ordering': '0'}"
B0FFHUO991,diner,中国兰州牛肉面(柳州路店),餐饮服务;中餐厅;清真菜馆,柳州路92-3号(上海南站地铁站8口步行270米),18697196612,121.4187274,31.16188205,310000,上海市,21,上海市,310104,徐汇区,,"{'cost': '14.00', 'opentime2': '06:00-24:00', 'rating': '4.1', 'open_time': '06:00-24:00', 'meal_ordering': '0'}"
B0GUNOK7AE,diner,老长沙臭豆腐(上海南站店),餐饮服务;中餐厅;中餐厅,康宁坊东北1门旁(上海南站地铁站8号口步行200米),18516065225;18650608989,121.4192759,31.16142668,310000,上海市,21,上海市,310104,徐汇区,,"{'cost': [], 'opentime2': [], 'rating': '3.9', 'open_time': [], 'meal_ordering': '0'}"
B0JKRU12Z7,diner,新疆团结烤肉店,餐饮服务;中餐厅;清真菜馆,沪闵路辅路与柳州路交叉口西20米,19190043239,121.4194283,31.16111833,310000,上海市,21,上海市,310104,徐汇区,,"{'cost': [], 'opentime2': [], 'rating': '3.8', 'open_time': [], 'meal_ordering': '0'}"
B0J3D4I7WS,diner,怪susu土豆泥拌饭(柳州路店),餐饮服务;中餐厅;中餐厅,柳州路与沪闵路辅路交叉口西20米,15800569189,121.4194343,31.16120225,310000,上海市,21,上海市,310104,徐汇区,,"{'cost': [], 'opentime2': [], 'rating': [], 'open_time': [], 'meal_ordering': '0'}"
B0IKXSTN7O,diner,练塘农家菜(冠生苑冠生园路237弄店),餐饮服务;中餐厅;中餐厅,钦州南路36号,18117367027,121.4172082,31.16434343,310000,上海市,21,上海市,310104,徐汇区,,"{'cost': [], 'opentime2': [], 'rating': '4.2', 'open_time': [], 'meal_ordering': '0'}"
B0JUYOUR61,diner,沂蒙山炒鸡,餐饮服务;中餐厅;中餐厅,柳州路与浦北路交叉口东南100米,13376293581,121.4188116,31.1618103,310000,上海市,21,上海市,310104,徐汇区,,"{'cost': [], 'opentime2': [], 'rating': '3.6', 'open_time': [], 'meal_ordering': '0'}"
B0K6ODUO22,diner,单县羊肉汤,餐饮服务;中餐厅;中餐厅,康宁坊东北1门旁(上海南站地铁站8号口步行250米),17351259888,121.418978,31.16169677,310000,上海市,21,上海市,310104,徐汇区,,"{'cost': [], 'opentime2': [], 'rating': '3.6', 'open_time': [], 'meal_ordering': '0'}"
B0HKGLI7CE,diner,菜饭骨头汤(柳州路店),餐饮服务;快餐厅;快餐厅,柳州路82号(上海南站地铁站8号口步行190米),15601813023;15921973935,121.4193501,31.16134493,310000,上海市,21,上海市,310104,徐汇区,,"{'cost': [], 'opentime2': [], 'rating': '4.1', 'open_time': [], 'meal_ordering': '0'}"
B0KB9Y4M0X,diner,武汉热干面,餐饮服务;中餐厅;中餐厅,康宁坊东北1门旁(上海南站地铁站8号口步行210米),[],121.4192437,31.16145259,310000,上海市,21,上海市,310104,徐汇区,,"{'cost': [], 'opentime2': [], 'rating': '3.8', 'open_time': [], 'meal_ordering': '0'}"
B0I2GM7LMZ,diner,正宗兰州拉面(康宁坊店),餐饮服务;中餐厅;清真菜馆,浦北路21弄1-41号康宁坊,[],121.4187354,31.16174321,310000,上海市,21,上海市,310104,徐汇区,,"{'cost': [], 'opentime2': [], 'rating': '3.7', 'open_time': [], 'meal_ordering': '0'}"
B0J0SDINF2,diner,肉爆土豆泥拌饭,餐饮服务;中餐厅;中餐厅,沪闵路辅路与柳州路交叉口西40米,[],121.4194063,31.1610973,310000,上海市,21,上海市,310104,徐汇区,,"{'cost': [], 'opentime2': [], 'rating': '3.4', 'open_time': [], 'meal_ordering': '0'}"
B0HD1R3LRT,diner,聚福农家菜(钦州南路店),餐饮服务;中餐厅;中餐厅,冠生园路237弄50号,[],121.4171852,31.16435538,310000,上海市,21,上海市,310104,徐汇区,,"{'cost': [], 'opentime2': '09:30-22:00', 'rating': '4.1', 'open_time': '09:30-22:00', 'meal_ordering': '0'}"
B0HD1A2C4K,diner,小云小吃(南站店),餐饮服务;中餐厅;中餐厅,柳州路92号(上海南站地铁站8号口步行240米),13564640292,121.418978,31.16164083,310000,上海市,21,上海市,310104,徐汇区,,"{'cost': [], 'opentime2': [], 'rating': '3.8', 'open_time': [], 'meal_ordering': '0'}"
B0HB6RLCZ5,diner,胡记锅贴(柳州路店),餐饮服务;快餐厅;快餐厅,康健新村街道柳州路86号胡记锅贴,13918505453;18325369653,121.4191756,31.16150938,310000,上海市,21,上海市,310104,徐汇区,,"{'cost': [], 'opentime2': [], 'rating': '4.3', 'open_time': [], 'meal_ordering': '0'}"
B00155G1IX,diner,东北农家小院(钦州路店),餐饮服务;中餐厅;东北菜,钦州路138号101室,13122248828,121.4216883,31.16705125,310000,上海市,21,上海市,310104,徐汇区,,"{'cost': '67.00', 'opentime2': '09:00-23:00', 'rating': '4.6', 'open_time': '09:00-23:00', 'meal_ordering': '0'}"
B0FFFS5HAI,diner,蜀地源冒菜(钦州路店),餐饮服务;中餐厅;中餐厅,钦州路132号,13162165288,121.4216833,31.16689739,310000,上海市,21,上海市,310104,徐汇区,,"{'cost': '39.00', 'opentime2': '09:30-23:00', 'rating': '4.3', 'open_time': '09:30-23:00', 'meal_ordering': '0'}"
B0FFI1R4PA,diner,开心大食堂(梓树园店),餐饮服务;中餐厅;中餐厅,钦州路128号101室,13585881585;18702198920,121.4216453,31.16670251,310000,上海市,21,上海市,310104,徐汇区,,"{'cost': '27.00', 'opentime2': '09:00-22:00', 'rating': '4.3', 'open_time': '09:00-22:00', 'meal_ordering': '0'}"
B0FFF3JKL9,diner,太瑞堂,餐饮服务;中餐厅;综合酒楼,沪闵路9450-1号(漕宝路地铁站5号口步行380米),021-33686876,121.4244243,31.16805994,310000,上海市,21,上海市,310104,徐汇区,,"{'cost': '105.00', 'opentime2': '周一至周日 09:30-21:30', 'rating': '4.3', 'open_time': '09:30-21:30', 'meal_ordering': '0'}"
B00156XRVZ,diner,沙县小食(钦州店),餐饮服务;中餐厅;特色/地方风味餐厅,钦州路116号,18917321762,121.4216654,31.16639687,310000,上海市,21,上海市,310104,徐汇区,,"{'cost': '24.00', 'opentime2': '09:00-23:00', 'rating': '4.1', 'open_time': '09:00-23:00', 'meal_ordering': '0'}"
B0KBLA3GXR,diner,袁记云饺(上海市徐汇区康健路店),餐饮服务;中餐厅;特色/地方风味餐厅,市辖区康健路10号-3,13916250680,121.4237399,31.16916206,310000,上海市,21,上海市,310104,徐汇区,,"{'cost': [], 'opentime2': [], 'rating': '4.3', 'open_time': [], 'meal_ordering': '0'}"
B0FFFA2F9G,diner,黄山菜饭骨头汤(泰成商务楼店),餐饮服务;快餐厅;快餐厅,沪闵路9506号-1号(漕宝路地铁站1号线1号出口向南步行270米),13122862806;13917049362,121.4247309,31.16970604,310000,上海市,21,上海市,310104,徐汇区,,"{'cost': '22.00', 'opentime2': '10:30-22:00', 'rating': '4.4', 'open_time': '10:30-22:00', 'meal_ordering': '0'}"
B0FFHXTC68,diner,留夫鸭(沪闵路店),餐饮服务;快餐厅;快餐厅,沪闵路9502-4号,15121012458,121.4247289,31.16963111,310000,上海市,21,上海市,310104,徐汇区,,"{'cost': '30.00', 'opentime2': '【正常】全年08:00-22:00', 'rating': '4.2', 'open_time': '08:00-22:00', 'meal_ordering': '0'}"
B0IRA5V462,diner,酸菜红烧牛肉面(南天公寓店),餐饮服务;快餐厅;快餐厅,康健路2号(漕宝路地铁站5号口步行260米),13917271477;19512247331,121.4245183,31.16913407,310000,上海市,21,上海市,310104,徐汇区,,"{'cost': [], 'opentime2': '08:00-02:00', 'rating': '4.4', 'open_time': '08:00-02:00', 'meal_ordering': '0'}"
B0K657IIK3,diner,炒面米饭(梓树园店),餐饮服务;中餐厅;中餐厅,钦州路108号梓树园,[],121.4216664,31.16641085,310000,上海市,21,上海市,310104,徐汇区,,"{'cost': [], 'opentime2': [], 'rating': '3.4', 'open_time': [], 'meal_ordering': '0'}"
B0FFGOMG3M,diner,特色农家小炒(徐汇日月光店),餐饮服务;中餐厅;中餐厅,康健路2号底层东部(漕宝路地铁站5号口步行260米),13701970381;13761702648;13816782891,121.4245354,31.16910714,310000,上海市,21,上海市,310104,徐汇区,,"{'cost': '105.00', 'opentime2': '10:00-21:00', 'rating': '3.8', 'open_time': '10:00-21:00', 'meal_ordering': '0'}"
B0FFLF6ZUC,diner,兰州拉面(钦州路店),餐饮服务;快餐厅;快餐厅,钦州路134号101室-2,[],121.4216843,31.16692437,310000,上海市,21,上海市,310104,徐汇区,,"{'cost': [], 'opentime2': '08:00-22:00', 'rating': '4.2', 'open_time': '08:00-22:00', 'meal_ordering': '0'}"
B0H24KMQWU,diner,大米先生(徐汇万科中心C座店),餐饮服务;快餐厅;快餐厅,徐汇万科中心C座(上海南站地铁站10号口步行280米),15990511866;19888446532,121.4240233,31.16052871,310000,上海市,21,上海市,310104,徐汇区,,"{'cost': '25.00', 'opentime2': '10:00-20:30', 'rating': '4.6', 'open_time': '10:00-20:30', 'meal_ordering': '0'}"
B0FFH7D4W0,diner,沙县小吃(金牛苑小区店),餐饮服务;中餐厅;特色/地方风味餐厅,龙川北路912号(上海南站地铁站1号口步行450米),13906083919,121.4260373,31.1564273,310000,上海市,21,上海市,310104,徐汇区,,"{'cost': '14.00', 'opentime2': '周一至周日 07:00-01:00', 'rating': '4.1', 'open_time': '07:00-01:00', 'meal_ordering': '0'}"
B00156NTQK,diner,蔡先生汤包馆(冠生园店),餐饮服务;中餐厅;中餐厅,冠生园路228号,13641697816,121.4177561,31.16720356,310000,上海市,21,上海市,310104,徐汇区,,"{'cost': '13.00', 'opentime2': '周一至周日 06:00-21:00', 'rating': '4.6', 'open_time': '06:00-21:00', 'meal_ordering': '0'}"
B00152BDDF,diner,启东小海鲜(习勤路),餐饮服务;中餐厅;海鲜酒楼|餐饮服务;中餐厅;上海菜,康建路94号-98号,021-64364429;021-64846387;15800591729,121.4184525,31.16913598,310000,上海市,21,上海市,310104,徐汇区,,"{'cost': '118.00', 'opentime2': '周一至周日 09:00-23:00', 'rating': '4.6', 'open_time': '09:00-23:00', 'meal_ordering': '0'}"
B00156NTQ6,diner,紫燕百味鸡(冠生园店),餐饮服务;中餐厅;四川菜(川菜),冠生园路230弄24号(近柳州路),021-34073155;4008886517,121.4171818,31.16716546,310000,上海市,21,上海市,310104,徐汇区,,"{'cost': '27.00', 'opentime2': '09:00-19:00', 'rating': '4.4', 'open_time': '09:00-19:00', 'meal_ordering': '0'}"
B0FFFA03K1,diner,河南面馆(康健路店),餐饮服务;中餐厅;中餐厅,康健路49号(漕宝路地铁站8号口步行480米),[],121.421328,31.16942596,310000,上海市,21,上海市,310104,徐汇区,,"{'cost': '22.00', 'opentime2': '10:00-22:00', 'rating': '4.2', 'open_time': '10:00-22:00', 'meal_ordering': '0'}"
B0FFIZTKAQ,diner,家常菜(梓树园店),餐饮服务;中餐厅;中餐厅,钦州路108号梓树园,[],121.4216131,31.16713898,310000,上海市,21,上海市,310104,徐汇区,,"{'cost': [], 'opentime2': [], 'rating': '3.4', 'open_time': [], 'meal_ordering': '0'}"
B0FFFVF2PX,diner,精品牛肉面(冠生苑冠生园路235弄店),餐饮服务;中餐厅;清真菜馆,冠生园路235弄1-5单号冠生苑冠生园路235弄,19521357162,121.4176027,31.16694452,310000,上海市,21,上海市,310104,徐汇区,,"{'cost': '21.00', 'opentime2': '08:00-23:00', 'rating': '3.9', 'open_time': '08:00-23:00', 'meal_ordering': '0'}"
B0FFHJTMZH,diner,蜀府冒菜(习勤路店),餐饮服务;中餐厅;中餐厅,习勤路52号,15800405448;17717642908,121.4186177,31.16967377,310000,上海市,21,上海市,310104,徐汇区,,"{'cost': '30.00', 'opentime2': '周一至周日 09:30-24:00', 'rating': '4.3', 'open_time': '09:30-24:00', 'meal_ordering': '0'}"
B0FFGYTIGK,diner,溪雨观酸菜鱼(全季酒店店),餐饮服务;中餐厅;中餐厅,"康健路138号溪雨观酸菜鱼,柳州路与康健路路口向东100米,漕河泾文化中心对面",021-33685955;13701852795;15000928173,121.4166582,31.16905251,310000,上海市,21,上海市,310104,徐汇区,,"{'cost': '83.00', 'opentime2': '10:30-23:00', 'rating': '4.7', 'open_time': '10:30-23:00', 'meal_ordering': '0'}"
B0FFGK6NGV,diner,正宗福建馄饨王(冠生苑冠生园路235弄店),餐饮服务;中餐厅;特色/地方风味餐厅,冠生园路235弄1-5单号冠生苑冠生园路235弄,13922154518,121.4175607,31.16695542,310000,上海市,21,上海市,310104,徐汇区,,"{'cost': '11.00', 'opentime2': '06:00-24:00', 'rating': '4.0', 'open_time': '06:00-24:00', 'meal_ordering': '0'}"
B001573RQP,diner,老鸿兴城市饭堂上海习勤路店,餐饮服务;中餐厅;中餐厅,习勤路88号,[],121.4186389,31.16907243,310000,上海市,21,上海市,310104,徐汇区,,"{'cost': '17.00', 'opentime2': [], 'rating': '4.2', 'open_time': [], 'meal_ordering': '0'}"
B0ID77KYTA,diner,赛八珍贡鹅(冠生园路店),餐饮服务;中餐厅;中餐厅,冠生园路233号一层,021-34073155;13699480647,121.4179586,31.16685132,310000,上海市,21,上海市,310104,徐汇区,,"{'cost': [], 'opentime2': [], 'rating': '3.8', 'open_time': [], 'meal_ordering': '0'}"
B0FFKSJE82,diner,早安山丘(康健路店),餐饮服务;中餐厅;中餐厅,康健路139号底层南部,13020139168;4009988352,121.4163936,31.16918688,310000,上海市,21,上海市,310104,徐汇区,,"{'cost': '16.00', 'opentime2': '周一至周日 05:00-20:30', 'rating': '4.6', 'open_time': '05:00-20:30', 'meal_ordering': '0'}"
B0G0OOWFUQ,diner,饭饺(光大店),餐饮服务;中餐厅;中餐厅,习勤路50号-3,17621065985;18663226391,121.4186167,31.16973769,310000,上海市,21,上海市,310104,徐汇区,,"{'cost': [], 'opentime2': '00:00-24:00', 'rating': '4.3', 'open_time': '24小时营业', 'meal_ordering': '0'}"
B0HK159R4P,diner,小谷姐姐麻辣拌·麻辣烫(康健路店),餐饮服务;中餐厅;火锅店,康健路138号2幢1层-2室04,18639893308,121.4166502,31.16902253,310000,上海市,21,上海市,310104,徐汇区,,"{'cost': [], 'opentime2': '【正常】全年周一至周五10:00-21:00；【正常】全年周六至周日10:00-21:00', 'rating': '4.3', 'open_time': '10:00-21:00', 'meal_ordering': '0'}"
B0KBKUDD2I,diner,安稳社区食堂(习勤小区康健路105弄店),餐饮服务;中餐厅;中餐厅,康健路小区东门旁,[],121.4184525,31.16913598,310000,上海市,21,上海市,310104,徐汇区,,"{'cost': [], 'opentime2': '每天09:00-10:30；14:00-16:30', 'rating': '4.1', 'open_time': '09:00-10:30 14:00-16:30', 'meal_ordering': '0'}"
B0FFGQW023,diner,东池便当(沪闵路店),餐饮服务;中餐厅;中餐厅,泰成商务楼东门旁(漕宝路地铁站1号口步行200米),021-54198139;13564171426,121.4247478,31.17003374,310000,上海市,21,上海市,310104,徐汇区,,"{'cost': '24.00', 'opentime2': '10:00-20:00', 'rating': '4.0', 'open_time': '10:00-20:00', 'meal_ordering': '0'}"
B0FFF5UPBO,diner,兰州拉面(泰成商务楼店),餐饮服务;中餐厅;清真菜馆,沪闵路9510号泰成商务楼F1层,17701836229;18993007444,121.4247449,31.1699618,310000,上海市,21,上海市,310104,徐汇区,,"{'cost': '19.00', 'opentime2': '07:00-24:00', 'rating': '4.1', 'open_time': '07:00-24:00', 'meal_ordering': '0'}"
B0H1BYPOLV,diner,江西小炒(泰成商务楼店),餐饮服务;中餐厅;中餐厅,沪闵路9510号泰成商务楼F1层,13661650525;13916599941,121.4247439,31.16995482,310000,上海市,21,上海市,310104,徐汇区,,"{'cost': '27.00', 'opentime2': '10:00-22:00', 'rating': '4.4', 'open_time': '10:00-22:00', 'meal_ordering': '0'}"
B0H1URXUDF,diner,鹅福记(徐汇日月光店),餐饮服务;中餐厅;中餐厅,漕宝路36号(漕宝路地铁站7号口步行130米),13611925215,121.4233563,31.17172246,310000,上海市,21,上海市,310104,徐汇区,,"{'cost': '57.00', 'opentime2': '【正常】全年10:00-20:30', 'rating': '4.4', 'open_time': '10:00-20:30', 'meal_ordering': '0'}"
B0J2YUIK9G,diner,胖哥俩肉蟹煲(上海徐汇日月光店),餐饮服务;中餐厅;特色/地方风味餐厅,漕宝路33号A座地下一层B1-21-1号,13138952018,121.424285,31.17256495,310000,上海市,21,上海市,310104,徐汇区,,"{'cost': [], 'opentime2': '10:30-21:30', 'rating': '4.6', 'open_time': '10:30-21:30', 'meal_ordering': '0'}"
B0JD0HSWXC,diner,曾三仙米线(漕宝幸福里店),餐饮服务;中餐厅;中餐厅,漕宝路36号(漕宝路地铁站8号口步行250米),13122894218;13818571470,121.4223544,31.17163111,310000,上海市,21,上海市,310104,徐汇区,,"{'cost': [], 'opentime2': '10:00-21:00', 'rating': '4.3', 'open_time': '10:00-21:00', 'meal_ordering': '0'}"
B0J2PH7RNV,diner,8PINTS八品脱·小花园餐酒吧(漕宝路店),餐饮服务;外国餐厅;西餐厅(综合风味),漕宝路36号2号楼C单元103室,13331831181,121.4222822,31.17177579,310000,上海市,21,上海市,310104,徐汇区,,"{'cost': [], 'opentime2': '10:00-24:00', 'rating': '4.5', 'open_time': '10:00-24:00', 'meal_ordering': '0'}"
B0FFIR267R,diner,肯德基(漕宝路站店),餐饮服务;快餐厅;肯德基,漕溪路280号一号楼1层,021-64088857,121.424905,31.17247764,310000,上海市,21,上海市,310104,徐汇区,,"{'cost': '31.00', 'opentime2': '06:00-23:00', 'rating': '4.7', 'open_time': '06:00-23:00', 'meal_ordering': '0'}"
B0FFIK4VQG,diner,立方铁@铁板烧(徐汇日月光中心店),餐饮服务;中餐厅;中餐厅,漕宝路33号徐汇日月光负一楼(漕宝路地铁站10号口旁),021-34197909;18871484337,121.4238196,31.17258873,310000,上海市,21,上海市,310104,徐汇区,,"{'cost': '100.00', 'opentime2': '10:00-22:00', 'rating': '4.6', 'open_time': '10:00-22:00', 'meal_ordering': '0'}"
B0FFIJS7EK,diner,寿司沼津港(徐汇日月光中心店),餐饮服务;外国餐厅;日本料理,漕宝路33号日月光中心L2-17铺(漕宝路地铁站出入口旁),021-34197957;13817471159,121.4235739,31.17246524,310000,上海市,21,上海市,310104,徐汇区,,"{'cost': '110.00', 'opentime2': '周一至周日 11:00-22:00', 'rating': '4.6', 'open_time': '11:00-22:00', 'meal_ordering': '0'}"
B0JKDHTABB,diner,塔哈尔(徐汇日月光店),餐饮服务;中餐厅;西北菜,漕宝路33号徐汇日月光中心A座B1-01-23,021-57525760,121.4237504,31.17257858,310000,上海市,21,上海市,310104,徐汇区,,"{'cost': [], 'opentime2': '【正常】全年10:00-21:30', 'rating': '4.7', 'open_time': '10:00-21:30', 'meal_ordering': '0'}"
B0FFJP5TU3,diner,绝味鸭脖(徐汇漕宝路店),餐饮服务;中餐厅;中餐厅,漕溪路280号1号楼106-107室,4009995917,121.4249982,31.17247889,310000,上海市,21,上海市,310104,徐汇区,,"{'cost': '41.00', 'opentime2': '【正常】全年08:00-22:00', 'rating': '4.4', 'open_time': '08:00-22:00', 'meal_ordering': '0'}"
B0FFJD45KM,diner,平成屋(漕宝日月光店),餐饮服务;外国餐厅;日本料理,漕宝路33号徐汇日月光B座L1-2829号一层沿街,021-34197828,121.4224455,31.1725374,310000,上海市,21,上海市,310104,徐汇区,,"{'cost': '94.00', 'opentime2': '【正常】全年11:00-24:00', 'rating': '4.7', 'open_time': '11:00-24:00', 'meal_ordering': '0'}"
B0G25PSZAI,diner,小满手工粉(徐汇日月光中心店),餐饮服务;中餐厅;中餐厅,漕宝路33号徐汇日月光中心B座B2-47,17746113862;18616273891;4000036177,121.423296,31.17265236,310000,上海市,21,上海市,310104,徐汇区,,"{'cost': '37.00', 'opentime2': '周一至周日 09:00-21:00', 'rating': '4.4', 'open_time': '09:00-21:00', 'meal_ordering': '0'}"
B0J1NAF5IO,diner,眉州东坡小酒馆(上海日月光店),餐饮服务;中餐厅;四川菜(川菜),漕宝路33号徐汇日月光中心地上一层01部位L1-07号,4008527527,121.4232689,31.17272322,310000,上海市,21,上海市,310104,徐汇区,,"{'cost': [], 'opentime2': '【正常】全年10:00-22:30', 'rating': '4.6', 'open_time': '10:00-22:30', 'meal_ordering': '0'}"
B0FFIKK2XF,diner,秦香阁·西北家常菜(徐汇日月光中心),餐饮服务;中餐厅;特色/地方风味餐厅,漕宝路33号徐汇日月光中心D栋4楼33-36,021-34197952;13156027556,121.4241756,31.17288734,310000,上海市,21,上海市,310104,徐汇区,,"{'cost': '62.00', 'opentime2': '10:00-22:00', 'rating': '4.8', 'open_time': '10:00-22:00', 'meal_ordering': '0'}"
B0J0RSGFH6,diner,胡子大厨(徐汇日月光中心店),餐饮服务;中餐厅;中餐厅,漕宝路33号徐汇日月光中心B楼(漕宝路地铁站出入口旁),19117393627,121.4233211,31.17256851,310000,上海市,21,上海市,310104,徐汇区,,"{'cost': [], 'opentime2': '10:00-21:00', 'rating': '4.3', 'open_time': '10:00-21:00', 'meal_ordering': '0'}"
B0K6044PWY,diner,米村拌饭(徐汇日月光店),餐饮服务;中餐厅;中餐厅,酒宝路33号地下2层01部位B240号,18346458627,121.4237895,31.17259266,310000,上海市,21,上海市,310104,徐汇区,,"{'cost': [], 'opentime2': [], 'rating': '4.6', 'open_time': [], 'meal_ordering': '0'}"
B0HGFP4FGA,diner,新发现(上海徐汇日月光店),餐饮服务;中餐厅;浙江菜,漕宝路33号地下一层01部位B1-03号,18019743035,121.4225919,31.1726876,310000,上海市,21,上海市,310104,徐汇区,,"{'cost': '70.00', 'opentime2': '【正常】全年10:00-21:00', 'rating': '4.7', 'open_time': '10:00-21:00', 'meal_ordering': '0'}"
B0J3UL4IGY,diner,小菜园餐厅(徐汇日月光中心店),餐饮服务;中餐厅;中餐厅,漕宝路33号徐汇日月光中心B1层(漕宝路地铁站8号口旁),021-64225797,121.4234194,31.17259373,310000,上海市,21,上海市,310104,徐汇区,,"{'cost': [], 'opentime2': '10:00-22:00', 'rating': '4.7', 'open_time': '10:00-22:00', 'meal_ordering': '0'}"
B0J2BSROG0,diner,马记永·兰州牛肉面(漕宝路徐汇日月光店),餐饮服务;中餐厅;清真菜馆,漕宝路33号徐汇日月光B座地B2层(漕宝路地铁站出入口旁),15936800499;19137179146,121.4234585,31.17259782,310000,上海市,21,上海市,310104,徐汇区,,"{'cost': [], 'opentime2': '10:30-21:30', 'rating': '4.6', 'open_time': '10:30-21:30', 'meal_ordering': '0'}"
B0FFJ9SMFM,diner,青花椒砂锅鱼(徐汇日月光中心店),餐饮服务;中餐厅;特色/地方风味餐厅,漕宝路33号日月光中心B座2层L2-20号,021-54106681,121.4227093,31.17257301,310000,上海市,21,上海市,310104,徐汇区,,"{'cost': '100.00', 'opentime2': '周一至周日 10:00-22:00', 'rating': '4.7', 'open_time': '10:00-22:00', 'meal_ordering': '0'}"
B0FFLCNA7N,diner,炙柒Sekinana·精致日料铁板烧(徐汇日月光店),餐饮服务;外国餐厅;日本料理,漕宝路33号日月光商场2L21-26-27,021-34197976;15342660019,121.4227113,31.17258499,310000,上海市,21,上海市,310104,徐汇区,,"{'cost': '125.00', 'opentime2': '11:00-14:00；17:00-21:00', 'rating': '4.5', 'open_time': '11:00-14:00 17:00-21:00', 'meal_ordering': '0'}"
B0J3ZZVB6M,diner,Popeyes(徐汇日月光中心店),餐饮服务;快餐厅;快餐厅,漕宝路33号徐汇日月光中心商场1层01部位L1-75号,13564109746;4009609277,121.4242218,31.17252283,310000,上海市,21,上海市,310104,徐汇区,,"{'cost': [], 'opentime2': [], 'rating': '4.5', 'open_time': [], 'meal_ordering': '0'}"
B0IKXSPEX2,diner,云中鱼·蒸汽石锅鱼(徐汇日月光中心店),餐饮服务;中餐厅;火锅店,漕宝路33号地下一层01部位B1-08号,18317177738,121.4232689,31.17272322,310000,上海市,21,上海市,310104,徐汇区,,"{'cost': '315.00', 'opentime2': '10:00-22:00', 'rating': '4.6', 'open_time': '10:00-22:00', 'meal_ordering': '0'}"
B0FFHFDJA3,diner,左庭右院(徐汇日月光中心店),餐饮服务;中餐厅;火锅店,漕宝路33号徐汇日月光中心B座B1-05,021-34197905,121.4226059,31.17274857,310000,上海市,21,上海市,310104,徐汇区,,"{'cost': '118.00', 'opentime2': '10:00-22:30', 'rating': '4.7', 'open_time': '10:00-22:30', 'meal_ordering': '0'}"
B0JRFSSS3V,diner,刃极日料寿喜烧(徐汇日月光中心店),餐饮服务;外国餐厅;日本料理,漕宝路33号徐汇日月光中心B1层B1-21-2,[],121.4243251,31.17273687,310000,上海市,21,上海市,310104,徐汇区,,"{'cost': [], 'opentime2': [], 'rating': '4.6', 'open_time': [], 'meal_ordering': '0'}"
B0FFILA6U4,diner,小杨生煎(徐汇日月光中心店),餐饮服务;中餐厅;中餐厅,漕宝路33号(徐汇日月光中心)商场B2层12号(部位),021-34197927;021-63588818,121.4239008,31.17295357,310000,上海市,21,上海市,310104,徐汇区,,"{'cost': '27.00', 'opentime2': '08:00-22:00', 'rating': '4.6', 'open_time': '08:00-22:00', 'meal_ordering': '0'}"
B0FFJ4XRXK,diner,白玉兰食品(徐汇日月光中心店),餐饮服务;快餐厅;快餐厅,漕宝路33号徐汇日月光B2-10-1(漕宝路地铁站出入口旁),021-64385612;18855836537,121.4237232,31.17293514,310000,上海市,21,上海市,310104,徐汇区,,"{'cost': '22.00', 'opentime2': '周一至周日 10:00-22:00', 'rating': '4.5', 'open_time': '10:00-22:00', 'meal_ordering': '0'}"
B0JADZ4MKU,diner,关东小磨东北菜(徐汇日月光中心店),餐饮服务;中餐厅;东北菜,漕宝路33号徐汇日月光中心B1层(漕宝路地铁站8号口旁),021-34197879;13159999731,121.4230824,31.17271277,310000,上海市,21,上海市,310104,徐汇区,,"{'cost': [], 'opentime2': '11:00-21:00', 'rating': '4.6', 'open_time': '11:00-21:00', 'meal_ordering': '0'}"
B0JKRZRCHI,diner,山茑茑山野火锅(徐汇日月光中心),餐饮服务;中餐厅;火锅店,漕宝路33号徐汇日月光中心B1层B1-03,021-34197977,121.4224826,31.17275427,310000,上海市,21,上海市,310104,徐汇区,,"{'cost': [], 'opentime2': '09:00-20:00', 'rating': '4.6', 'open_time': '09:00-20:00', 'meal_ordering': '0'}"
B0FFIGU0YB,diner,红唇串串香(徐汇日月光店),餐饮服务;中餐厅;火锅店,漕宝路33号徐汇日月光中心A座B2-32,19713987589,121.4236922,31.17272827,310000,上海市,21,上海市,310104,徐汇区,,"{'cost': '32.00', 'opentime2': '周一至周日 09:00-22:00', 'rating': '4.2', 'open_time': '09:00-22:00', 'meal_ordering': '0'}"
B0J02566YP,diner,馬仁義·好吃店(徐汇日月光店),餐饮服务;中餐厅;中餐厅,漕宝路33号徐汇日月光L1-01-02,13107736009,121.4225047,31.17264543,310000,上海市,21,上海市,310104,徐汇区,,"{'cost': [], 'opentime2': '10:00-22:00', 'rating': '4.6', 'open_time': '10:00-22:00', 'meal_ordering': '0'}"
B0FFKH9413,diner,九鼎轩脆毛肚火锅(徐汇日月光中心店),餐饮服务;中餐厅;火锅店,漕宝路33号徐汇日月光中心A座负一楼十九号,021-34197886,121.4241525,31.17293922,310000,上海市,21,上海市,310104,徐汇区,,"{'cost': '104.00', 'opentime2': '周一至周五09:00-20:00,周六至周日10:00-22:06', 'rating': '4.4', 'open_time': '09:00-20:00', 'meal_ordering': '0'}"
B0H6HXKSVZ,diner,潮界(徐汇日月光店),餐饮服务;中餐厅;潮州菜,漕宝路33号一层01部位L1-5152号,13641918170,121.4235287,31.17298959,310000,上海市,21,上海市,310104,徐汇区,,"{'cost': '97.00', 'opentime2': '11:00-14:00；17:00-21:00', 'rating': '4.5', 'open_time': '11:00-14:00 17:00-21:00', 'meal_ordering': '0'}"
B0FFHR8S7T,diner,巡湘记(徐汇日月光中心店),餐饮服务;中餐厅;湖南菜(湘菜),漕宝路33号徐汇日月光1层D座(漕宝路地铁站出入口旁),021-34197817;13524967420,121.4237062,31.17285817,310000,上海市,21,上海市,310104,徐汇区,,"{'cost': '90.00', 'opentime2': '周一至周日 10:00-22:00', 'rating': '4.6', 'open_time': '10:00-22:00', 'meal_ordering': '0'}"
B0JRDNQ7C6,diner,煲仔皇(徐汇日月光中心店),餐饮服务;中餐厅;中餐厅,漕宝路33号徐汇日月光中心B2层(漕宝路地铁站10号口旁),18203801614,121.423951,31.17268697,310000,上海市,21,上海市,310104,徐汇区,,"{'cost': [], 'opentime2': '10:00-21:00', 'rating': '4.4', 'open_time': '10:00-21:00', 'meal_ordering': '0'}"
B0FFINMZQC,diner,和府捞面(徐汇日月光中心店),餐饮服务;快餐厅;快餐厅,漕宝路33号徐汇日月光中心B2-07-08,13524999162;18262508077;4001616777,121.4234695,31.17291352,310000,上海市,21,上海市,310104,徐汇区,,"{'cost': '43.00', 'opentime2': '【正常】全年10:00-22:00', 'rating': '4.7', 'open_time': '10:00-22:00', 'meal_ordering': '0'}"
B0HAUSS1TA,diner,烧肉王(徐汇日月光中心店),餐饮服务;外国餐厅;外国餐厅,漕宝路33号徐汇日月光中心F1层,18019271602,121.4230092,31.17288941,310000,上海市,21,上海市,310104,徐汇区,,"{'cost': '133.00', 'opentime2': '【正常】全年11:00-22:00', 'rating': '4.6', 'open_time': '11:00-22:00', 'meal_ordering': '0'}"
B0JAG7EU1R,diner,桂满陇杭州小馆(徐汇日月光中心店),餐饮服务;中餐厅;中餐厅,漕宝路33号徐汇日月光中心商场C区1楼(华为九龙冰室旁边),15601800520,121.4229389,31.17285827,310000,上海市,21,上海市,310104,徐汇区,,"{'cost': [], 'opentime2': '10:30-14:00；16:30-21:00', 'rating': '4.7', 'open_time': '10:30-14:00 16:30-21:00', 'meal_ordering': '0'}"
B0J17HJS65,diner,厚贞日式烤肉(徐汇日月光店),餐饮服务;外国餐厅;日本料理,漕宝路33号徐汇日月光中心C座一楼,13564734478,121.4231506,31.17295569,310000,上海市,21,上海市,310104,徐汇区,,"{'cost': [], 'opentime2': '11:00-22:00', 'rating': '4.6', 'open_time': '11:00-22:00', 'meal_ordering': '0'}"
B0J3N5X998,diner,萨莉亚意式餐厅(徐汇日月光中心店),餐饮服务;外国餐厅;意式菜品餐厅,漕宝路33号徐汇日月光中心L1层L1-03/05,[],121.4224575,31.17296,310000,上海市,21,上海市,310104,徐汇区,,"{'cost': [], 'opentime2': '10:00-22:00', 'rating': '4.8', 'open_time': '10:00-22:00', 'meal_ordering': '0'}"
B0JRYSANQW,diner,班班的摊摊(徐汇日月光店),餐饮服务;外国餐厅;外国餐厅,漕宝路33号D座1层(M stand对面),18175139234,121.4241776,31.17289234,310000,上海市,21,上海市,310104,徐汇区,,"{'cost': [], 'opentime2': '10:30-21:00', 'rating': '4.6', 'open_time': '10:30-21:00', 'meal_ordering': '0'}"
B0G07760CS,diner,九龙冰室(徐汇日月光店),餐饮服务;外国餐厅;西餐厅(综合风味),漕宝路33号徐汇日月光中心C座一楼(L1-2325)号单元,13651859725;18221095423,121.4226471,31.17285656,310000,上海市,21,上海市,310104,徐汇区,,"{'cost': '62.00', 'opentime2': '周一至周日 10:00-22:00', 'rating': '4.6', 'open_time': '10:00-22:00', 'meal_ordering': '0'}"
B0I3MUOI9W,diner,粉档·南昌粉面馆(徐汇日月光中心店),餐饮服务;中餐厅;中餐厅,漕宝路33号徐汇日月光中心B2层B2-26,19921957816,121.4240663,31.17267828,310000,上海市,21,上海市,310104,徐汇区,,"{'cost': [], 'opentime2': '10:00-22:00', 'rating': '4.3', 'open_time': '10:00-22:00', 'meal_ordering': '0'}"
B0JDBSCLDA,diner,牛腩之旅(徐汇日月光中心店),餐饮服务;中餐厅;中餐厅,漕宝路33号徐汇日月光中心B2层B2-15,13275771877;17786612828,121.423972,31.1729078,310000,上海市,21,上海市,310104,徐汇区,,"{'cost': [], 'opentime2': '10:00-22:00', 'rating': '4.3', 'open_time': '10:00-22:00', 'meal_ordering': '0'}"
B0H6S4VEH0,diner,江边城外烤全鱼(徐汇日月光中心店),餐饮服务;中餐厅;云贵菜,漕宝路33号徐汇日月光中心B1层B1-09,021-64399626;15000814854,121.4228246,31.17297187,310000,上海市,21,上海市,310104,徐汇区,,"{'cost': '103.00', 'opentime2': '11:00-22:00', 'rating': '4.6', 'open_time': '11:00-22:00', 'meal_ordering': '0'}"
B0JRB5XGH8,diner,鲜飒飒砂锅川菜·椒麻鱼(徐汇日月光中心店),餐饮服务;中餐厅;四川菜(川菜),漕宝路33号徐汇日月光中心B2层(漕宝路地铁站10号口旁),15000586596;18221280724,121.423991,31.17279995,310000,上海市,21,上海市,310104,徐汇区,,"{'cost': [], 'opentime2': '10:00-21:00', 'rating': '4.3', 'open_time': '10:00-21:00', 'meal_ordering': '0'}"
B0FFILKJS1,diner,圆苑(徐汇日月光中心店),餐饮服务;中餐厅;中餐厅,漕宝路33号日月光中心L2-0203,021-34197863;19821660181,121.4224776,31.17291609,310000,上海市,21,上海市,310104,徐汇区,,"{'cost': '500.00', 'opentime2': '00:00-24:00', 'rating': '4.4', 'open_time': '24小时营业', 'meal_ordering': '0'}"
B0IRUAYHWX,diner,成都你六姐·牛肉冒菜是一绝(徐汇日月光中心店),餐饮服务;中餐厅;中餐厅,徐家汇路618号日月光中心泰康区B2层,021-61139780;16621040813,121.4238436,31.17291147,310000,上海市,21,上海市,310104,徐汇区,,"{'cost': '45.00', 'opentime2': '周一至周日 11:00-20:00', 'rating': '4.4', 'open_time': '11:00-20:00', 'meal_ordering': '0'}"
B0K6DA8TAC,diner,魔都三兄弟酸辣粉·米线(徐汇日月光中心店),餐饮服务;中餐厅;中餐厅,漕宝路33号徐汇日月光中心B2层B2-53,15821237635;18701792594,121.4234515,31.17271168,310000,上海市,21,上海市,310104,徐汇区,,"{'cost': [], 'opentime2': '10:00-21:00', 'rating': '4.3', 'open_time': '10:00-21:00', 'meal_ordering': '0'}"
B0JKLZ3IQZ,diner,甲乙饼(徐汇日月光中心店),餐饮服务;中餐厅;中餐厅,漕宝路33号徐汇日月光中心B2层(漕宝路地铁站出入口旁),[],121.4236169,31.17280801,310000,上海市,21,上海市,310104,徐汇区,,"{'cost': [], 'opentime2': '10:00-21:00', 'rating': '4.2', 'open_time': '10:00-21:00', 'meal_ordering': '0'}"
B0FFK0BI1P,diner,渔上(徐汇日月光中心店),餐饮服务;外国餐厅;日本料理,漕宝路33号日月光中心2层c座L2-23,[],121.422989,31.17285939,310000,上海市,21,上海市,310104,徐汇区,,"{'cost': '158.00', 'opentime2': '【正常】全年11:00-21:00', 'rating': '4.3', 'open_time': '11:00-21:00', 'meal_ordering': '0'}"
B0FFIG8HHV,diner,红烧牛肉面(汇腾广场店),餐饮服务;中餐厅;中餐厅,漕溪路280号汇腾广场F1层(漕宝路地铁站6号口步行70米),18621500658,121.4250644,31.17279674,310000,上海市,21,上海市,310104,徐汇区,,"{'cost': '16.00', 'opentime2': '00:00-24:00', 'rating': '4.5', 'open_time': '24小时营业', 'meal_ordering': '0'}"
B0FFJF7ETB,diner,西贝莜面村(上海漕宝路日月光店),餐饮服务;中餐厅;西北菜,漕宝路33号徐汇日月光中心4楼L4-20,15731177353;4008207320,121.423955,31.17297768,310000,上海市,21,上海市,310104,徐汇区,,"{'cost': '102.00', 'opentime2': '周一至周日 11:00-14:30，17:00-21:30', 'rating': '4.7', 'open_time': '11:00-14:30 17:00-21:30', 'meal_ordering': '0'}"
B0G2Z7HFN8,diner,海金滋(徐汇日月光中心C座店),餐饮服务;中餐厅;中餐厅,日月光中心33号C座二楼05-2号,021-54566706;18116428731,121.4229218,31.17306801,310000,上海市,21,上海市,310104,徐汇区,,"{'cost': '68.00', 'opentime2': '10:00-21:00', 'rating': '4.7', 'open_time': '10:00-21:00', 'meal_ordering': '0'}"
B0J2T58L9N,diner,赛百味(徐汇日月光店),餐饮服务;快餐厅;快餐厅,漕宝路33号徐汇日月光中心商场地上层01部位L1-11/12号,19117048576,121.4231556,31.17308856,310000,上海市,21,上海市,310104,徐汇区,,"{'cost': [], 'opentime2': '【正常】全年周一至周五08:00-21:30；【正常】全年周六至周日10:00-21:30', 'rating': '4.4', 'open_time': '08:00-21:30', 'meal_ordering': '0'}"
B0FFILKJ4D,diner,博望坡,餐饮服务;中餐厅;中餐厅,漕溪路260号(希岸酒店旁),021-62779877;021-64836113;13916771146,121.4250893,31.17374482,310000,上海市,21,上海市,310104,徐汇区,,"{'cost': '58.00', 'opentime2': '周一至周日 10:00-22:00', 'rating': '4.6', 'open_time': '10:00-22:00', 'meal_ordering': '0'}"
B0JABCQX5W,diner,咏發顺德海鲜大排档(徐汇日月光中心D座店),餐饮服务;中餐厅;海鲜酒楼,漕宝路33号徐汇日月光中心D座B1层17号,13142967593,121.4235637,31.1728788,310000,上海市,21,上海市,310104,徐汇区,,"{'cost': [], 'opentime2': [], 'rating': '4.6', 'open_time': [], 'meal_ordering': '0'}"
B0FFKZZYB0,diner,Magnet磁食(徐汇日月光中心店),餐饮服务;外国餐厅;西餐厅(综合风味)|餐饮服务;外国餐厅;美式风味,漕宝路33号日月光中心D栋1楼56号,021-34197944,121.423966,31.17307461,310000,上海市,21,上海市,310104,徐汇区,,"{'cost': '152.00', 'opentime2': '10:30-22:00', 'rating': '4.4', 'open_time': '10:30-22:00', 'meal_ordering': '0'}"
B0JG6YM5JV,diner,肯德基(新动力北店),餐饮服务;快餐厅;快餐厅,沪闵路9001-3号地下一层06北1-C15,18502179227,121.4201937,31.15869153,310000,上海市,21,上海市,310104,徐汇区,,"{'cost': [], 'opentime2': [], 'rating': '4.3', 'open_time': [], 'meal_ordering': '0'}"
B00156PE8F,diner,永和大王(汇金奥特莱斯店),餐饮服务;快餐厅;永和豆浆,沪闵路9001-3号银泰购物中心北广场B1层,021-54205621;4008159797,121.4190096,31.15852715,310000,上海市,21,上海市,310104,徐汇区,,"{'cost': '20.00', 'opentime2': '06:00-21:00', 'rating': '4.5', 'open_time': '06:00-21:00', 'meal_ordering': '0'}"
B00156P799,diner,吉野家(上海柳州路店),餐饮服务;快餐厅;吉野家,沪闵路9001号柳州路地铁1号线及3号线通道口处北广场,021-22056003;13916598494,121.4204214,31.15784892,310000,上海市,21,上海市,310104,徐汇区,,"{'cost': '25.00', 'opentime2': '09:00-22:00', 'rating': '4.3', 'open_time': '09:00-22:00', 'meal_ordering': '0'}"
B0JB46X637,diner,肯德基(新南站精选店),餐饮服务;快餐厅;肯德基,沪闵路9001号上海南站候车大厅,021-54358730,121.4208276,31.157686,310000,上海市,21,上海市,310104,徐汇区,,"{'cost': [], 'opentime2': '06:00-22:00', 'rating': '4.1', 'open_time': '06:00-22:00', 'meal_ordering': '0'}"
B0FFF5OBYX,diner,永和大王(动力北一路店),餐饮服务;快餐厅;快餐厅,地铁1号线上海南站换乘通道内(上海南站地铁站4出口旁),021-22056016;021-60349517;4008159797,121.4203703,31.1578488,310000,上海市,21,上海市,310104,徐汇区,,"{'cost': '24.00', 'opentime2': '周一至周日 06:00-23:00', 'rating': '4.4', 'open_time': '06:00-23:00', 'meal_ordering': '0'}"
B0G254SJTA,diner,牛约堡·手作牛肉汉堡(上海南站店),餐饮服务;快餐厅;快餐厅,沪闵路9020号-2号(上海南站地铁站8号口步行270米),13524399680,121.4186965,31.16047346,310000,上海市,21,上海市,310104,徐汇区,,"{'cost': '28.00', 'opentime2': '10:00-22:00', 'rating': '4.0', 'open_time': '10:00-22:00', 'meal_ordering': '0'}"
B0HKP7A25H,diner,拌将干拌麻辣烫(康宁坊店),餐饮服务;快餐厅;快餐厅,沪闵路9022-3号(上海南站地铁站8号口步行250米),13564638566,121.418892,31.16065068,310000,上海市,21,上海市,310104,徐汇区,,"{'cost': [], 'opentime2': [], 'rating': '4.0', 'open_time': [], 'meal_ordering': '0'}"
B00156NB99,diner,十二泷町(上海南站店),餐饮服务;中餐厅;特色/地方风味餐厅,上海南站地铁一、三号线换乘通道南侧,15821265047;18616867159,121.421327,31.15729954,310000,上海市,21,上海市,310104,徐汇区,,"{'cost': '8.00', 'opentime2': '周一至周日 10:00-22:00', 'rating': '3.8', 'open_time': '10:00-22:00', 'meal_ordering': '0'}"
B0J15PTRPM,diner,快乐星汉堡(康宁坊店),餐饮服务;快餐厅;快餐厅,沪闵路9022-1号(上海南站地铁站8号口步行260米),13210776976,121.4188408,31.16060463,310000,上海市,21,上海市,310104,徐汇区,,"{'cost': [], 'opentime2': [], 'rating': '3.7', 'open_time': [], 'meal_ordering': '0'}"
B0JDS7S67H,diner,啾食辣·水煮鲜牛肉(康宁坊店),餐饮服务;中餐厅;中餐厅,沪闵路辅路与柳州路交叉口西南120米,15800698515,121.4187446,31.16060043,310000,上海市,21,上海市,310104,徐汇区,,"{'cost': [], 'opentime2': '08:30-23:00', 'rating': '3.7', 'open_time': '08:30-23:00', 'meal_ordering': '0'}"
B0J0MMV46M,diner,粤式茶点(康宁坊店),餐饮服务;快餐厅;快餐厅,浦北路21弄1-41号康宁坊,[],121.4187166,31.16049248,310000,上海市,21,上海市,310104,徐汇区,,"{'cost': [], 'opentime2': [], 'rating': '3.7', 'open_time': [], 'meal_ordering': '0'}"
B0JDL7T3KF,diner,煎并煎(汇金奥特莱斯店),餐饮服务;中餐厅;中餐厅,沪闵路9001-3号(上海南站地铁站5号口步行60米),13651641295,121.4190598,31.15846432,310000,上海市,21,上海市,310104,徐汇区,,"{'cost': [], 'opentime2': [], 'rating': '4.0', 'open_time': [], 'meal_ordering': '0'}"
B0K6NC5N13,diner,肯德基(柳州2店),餐饮服务;快餐厅;快餐厅,上海南站地铁1号线里面,021-22057414,121.4205902,31.15634787,310000,上海市,21,上海市,310104,徐汇区,,"{'cost': [], 'opentime2': '06:00-22:00', 'rating': '4.1', 'open_time': '06:00-22:00', 'meal_ordering': '0'}"
B0G3Z7SQYN,diner,牛家人大碗牛肉面(上海南站店),餐饮服务;快餐厅;快餐厅,沪闵路9018号-1号(上海南站地铁站8号口步行250米),[],121.418881,31.16064066,310000,上海市,21,上海市,310104,徐汇区,,"{'cost': [], 'opentime2': '每天08:00-23:00', 'rating': '3.7', 'open_time': '08:00-23:00', 'meal_ordering': '0'}"
B00155LNF4,diner,香乡村大龙虾(浦北路店),餐饮服务;中餐厅;海鲜酒楼,浦北路331号,021-54489957;13761136829,121.4165989,31.15648554,310000,上海市,21,上海市,310104,徐汇区,康健,
B0FFF5UKKO,diner,沙县小吃(宾阳路店),餐饮服务;中餐厅;特色/地方风味餐厅,宾阳路62弄4号底层,13052353400,121.4288067,31.16791719,310000,上海市,21,上海市,310104,徐汇区,,"{'cost': '16.00', 'opentime2': [], 'rating': '4.2', 'open_time': [], 'meal_ordering': '0'}"
B0FFIC56P6,diner,红烧牛肉面,餐饮服务;中餐厅;中餐厅,南宁路660号,13917112468,121.4307881,31.16704609,310000,上海市,21,上海市,310104,徐汇区,,"{'cost': '19.00', 'opentime2': '06:00-24:00', 'rating': '4.1', 'open_time': '06:00-24:00', 'meal_ordering': '0'}"
B0FFGBXJ5X,diner,福建千里香馄饨面馆(梦蝶苑店),餐饮服务;快餐厅;快餐厅,宾阳路50弄1号梦蝶苑小区门岗边,15800768922,121.4278625,31.16760777,310000,上海市,21,上海市,310104,徐汇区,,"{'cost': [], 'opentime2': [], 'rating': '4.2', 'open_time': [], 'meal_ordering': '0'}"
B0JD6S233G,diner,春光小厨,餐饮服务;中餐厅;中餐厅,石龙路569号2号楼102,13003263877,121.4271669,31.15743037,310000,上海市,21,上海市,310104,徐汇区,,"{'cost': [], 'opentime2': '10:30-14:00；16:30-21:30', 'rating': '4.7', 'open_time': '10:30-14:00 16:30-21:30', 'meal_ordering': '0'}"
B0HANRO4HP,diner,宴福里·本帮悦味,餐饮服务;中餐厅;中餐厅,漕宝路38号上海华夏假日酒店2楼(漕宝路地铁站8号口步行290米),021-54061777,121.4207068,31.17155235,310000,上海市,21,上海市,310104,徐汇区,,"{'cost': '150.00', 'opentime2': '【正常】全年10:00-22:00', 'rating': '4.7', 'open_time': '10:00-22:00', 'meal_ordering': '0'}"
B0HK3HLLS1,diner,SHADOWS(光大店),餐饮服务;中餐厅;中餐厅,光大会展中心82-1号(漕宝路地铁站8号口步行430米),021-64087660,121.4188852,31.17063334,310000,上海市,21,上海市,310104,徐汇区,,"{'cost': '190.00', 'opentime2': '11:00-24:00', 'rating': '4.6', 'open_time': '11:00-24:00', 'meal_ordering': '0'}"
B0FFIGT50B,diner,淮南牛肉汤(习勤小区店),餐饮服务;中餐厅;中餐厅,习勤路50号(近光大会展中心),13721189166,121.4186157,31.16980063,310000,上海市,21,上海市,310104,徐汇区,,"{'cost': '15.00', 'opentime2': '10:00-22:00', 'rating': '4.5', 'open_time': '10:00-22:00', 'meal_ordering': '0'}"
B0HDD7BEZB,diner,神町烧肉,餐饮服务;外国餐厅;日本料理,漕宝路38号上海华夏假日酒店1层,021-33671188,121.4206638,31.17143638,310000,上海市,21,上海市,310104,徐汇区,,"{'cost': '328.00', 'opentime2': '11:00-22:00', 'rating': '4.1', 'open_time': '11:00-22:00', 'meal_ordering': '0'}"
B001573435,diner,精品牛肉面(习勤路店),餐饮服务;中餐厅;清真菜馆,习勤路22-2号,13007735511;13162680001,121.4185635,31.17002728,310000,上海市,21,上海市,310104,徐汇区,,"{'cost': '16.00', 'opentime2': '09:00-22:00', 'rating': '4.4', 'open_time': '09:00-22:00', 'meal_ordering': '0'}"
B00156CU3Q,diner,肯德基(光大店),餐饮服务;快餐厅;肯德基,漕宝路78号,021-54651723,121.4189342,31.17128077,310000,上海市,21,上海市,310104,徐汇区,,"{'cost': '140.00', 'opentime2': '周一至周日 06:00-23:00', 'rating': '4.7', 'open_time': '06:00-23:00', 'meal_ordering': '0'}"
B0H3S7M5W7,diner,陳香貴·蘭州牛肉面(万商生活广场店),餐饮服务;中餐厅;中餐厅,漕宝路78号万商生活广场光大店F1层,15317652539;17721120600,121.4189664,31.17128884,310000,上海市,21,上海市,310104,徐汇区,,"{'cost': '32.00', 'opentime2': '周一至周日 10:00-22:00', 'rating': '4.5', 'open_time': '10:00-22:00', 'meal_ordering': '0'}"
B00156CU3C,diner,久久丫鸭脖(J上海徐汇习勤路店),餐饮服务;快餐厅;快餐厅,习勤路22号,13918459452;18721906051,121.4185675,31.17015716,310000,上海市,21,上海市,310104,徐汇区,,"{'cost': '27.00', 'opentime2': '周一至周日 09:00-21:00', 'rating': '4.2', 'open_time': '09:00-21:00', 'meal_ordering': '0'}"
B0H3S7NMHL,diner,泉鲤章鱼烧(光大会展店),餐饮服务;快餐厅;快餐厅,习勤路22号,13817501634;18221265328,121.4185755,31.17011622,310000,上海市,21,上海市,310104,徐汇区,,"{'cost': '30.00', 'opentime2': '周一至周日 10:00-22:00', 'rating': '4.1', 'open_time': '10:00-22:00', 'meal_ordering': '0'}"
B0FFJ1515G,diner,老上海馄饨(习勤小区店),餐饮服务;中餐厅;中餐厅,习勤路18号,18721973299,121.4185825,31.17030104,310000,上海市,21,上海市,310104,徐汇区,,"{'cost': '15.00', 'opentime2': '07:00-22:00', 'rating': '4.0', 'open_time': '07:00-22:00', 'meal_ordering': '0'}"
B00156PZIB,diner,千里香馄饨王(习勤路店),餐饮服务;中餐厅;中餐厅,习勤路22号,18221313823,121.4185947,31.16996242,310000,上海市,21,上海市,310104,徐汇区,,"{'cost': [], 'opentime2': '07:00-23:00', 'rating': '4.3', 'open_time': '07:00-23:00', 'meal_ordering': '0'}"
B0JR7ADF58,diner,牛汼湘·老长沙手工米粉(万商生活广场店),餐饮服务;中餐厅;中餐厅,漕宝路78号万商生活广场光大店F1层,13381997151,121.4193303,31.17145243,310000,上海市,21,上海市,310104,徐汇区,,"{'cost': [], 'opentime2': '09:30-22:00', 'rating': '4.3', 'open_time': '09:30-22:00', 'meal_ordering': '0'}"
B00156YMSO,diner,三江小厨(三江路店),餐饮服务;中餐厅;海鲜酒楼,三江路64(近漕宝路地铁站),021-64511765;021-64831717;13816810855,121.4290822,31.17108075,310000,上海市,21,上海市,310104,徐汇区,,"{'cost': '79.00', 'opentime2': '10:00-21:00', 'rating': '4.4', 'open_time': '10:00-21:00', 'meal_ordering': '0'}"
B0HUG5Q4MR,diner,小蛮椒麻辣烫·麻辣拌(徐汇龙漕路店),餐饮服务;中餐厅;中餐厅,龙漕路28号(漕宝路地铁站4号口步行150米),18121341119,121.4271353,31.17222296,310000,上海市,21,上海市,310104,徐汇区,,"{'cost': '28.00', 'opentime2': '周一至周日 10:00-20:00', 'rating': '4.4', 'open_time': '10:00-20:00', 'meal_ordering': '0'}"
B0FFHGHMY3,diner,麦当劳(上海南站一店),餐饮服务;快餐厅;麦当劳,石龙路750号(上海南站地铁站2号口步行50米),021-54355094;021-54363985;4008517517,121.4224384,31.15597755,310000,上海市,21,上海市,310104,徐汇区,,"{'cost': '58.00', 'opentime2': '周一至周日 07:00-23:00', 'rating': '4.6', 'open_time': '07:00-23:00', 'meal_ordering': '0'}"
B00155QNAW,diner,呷哺呷哺(上海南站店),餐饮服务;快餐厅;呷哺呷哺,石龙路750-3号上海南站南广场地下商城B2,021-34281817;021-60349455;4008177878,121.4218307,31.1556035,310000,上海市,21,上海市,310104,徐汇区,,"{'cost': '70.00', 'opentime2': '10:00-22:00', 'rating': '4.6', 'open_time': '10:00-22:00', 'meal_ordering': '0'}"
B00156YBKH,diner,拿渡麻辣香锅(上海南站店),餐饮服务;中餐厅;特色/地方风味餐厅,石龙路750-3号B2层(上海南站地铁站2号口旁),021-64757008;15800402306,121.4220352,31.15594762,310000,上海市,21,上海市,310104,徐汇区,,"{'cost': '63.00', 'opentime2': '周一至周日 10:00-21:00', 'rating': '4.1', 'open_time': '10:00-21:00', 'meal_ordering': '0'}"
B00156YBMJ,diner,肯德基(动力南广场店),餐饮服务;快餐厅;肯德基,石龙路750-3号上海南站地下商场南馆,021-54358730,121.4219019,31.15566061,310000,上海市,21,上海市,310104,徐汇区,,"{'cost': '57.00', 'opentime2': '06:00-23:00', 'rating': '4.6', 'open_time': '06:00-23:00', 'meal_ordering': '0'}"
B0FFFW3X5F,diner,美珍香(南站店),餐饮服务;中餐厅;中餐厅,石龙路750-3号(上海南站地铁站2号口旁),021-54358390,121.4221988,31.15585111,310000,上海市,21,上海市,310104,徐汇区,,"{'cost': '74.00', 'opentime2': '周一至周日 11:00-14:00，17:00-21:00', 'rating': '4.2', 'open_time': '11:00-14:00 17:00-21:00', 'meal_ordering': '0'}"
B0HUCZU9Q0,diner,Hotties火辣炸鸡(上海南站店),餐饮服务;快餐厅;快餐厅,石龙路750号-3号上海南站南广场b1层(星巴克旁),17521675507,121.4221716,31.15588901,310000,上海市,21,上海市,310104,徐汇区,,"{'cost': '62.00', 'opentime2': '10:00-24:00', 'rating': '4.1', 'open_time': '10:00-24:00', 'meal_ordering': '0'}"
B0FFGMFTAY,diner,川湘农家菜(南站店),餐饮服务;中餐厅;中餐厅,石龙路633号-635号(上海南站地铁站1号口步行490米),021-54081300;18261239649;18918061300,121.4251155,31.15608619,310000,上海市,21,上海市,310104,徐汇区,,"{'cost': '51.00', 'opentime2': '周一至周日 09:00-21:00', 'rating': '4.1', 'open_time': '09:00-21:00', 'meal_ordering': '0'}"
B0HK5SM3SR,diner,Road生活馆,餐饮服务;中餐厅;中餐厅,石龙支路27号A栋(石龙路地铁站西北入口步行100米),021-51506998,121.4311786,31.16100258,310000,上海市,21,上海市,310104,徐汇区,,"{'cost': [], 'opentime2': '09:00-21:00', 'rating': '4.0', 'open_time': '09:00-21:00', 'meal_ordering': '0'}"
B0IB2AS3QZ,diner,惠容久·日料串烧·烤鸵鸟蛋,餐饮服务;外国餐厅;日本料理,市辖区番禺路868号-5,13681819123,121.4237268,31.19890316,310000,上海市,21,上海市,310104,徐汇区,徐家汇,
B00156PFIA,diner,达美乐比萨(番禺路店),餐饮服务;快餐厅;快餐厅,番禺路667号底楼丙座,4001597597,121.4247801,31.20089243,310000,上海市,21,上海市,310104,徐汇区,徐家汇,
B00156QT9P,diner,吉野家(上海美罗城店),餐饮服务;快餐厅;吉野家,肇嘉浜路1111号地下一层B段B1-34单元,021-54271571,121.4344861,31.19440333,310000,上海市,21,上海市,310104,徐汇区,徐家汇,
B00156YNHR,diner,小杨生煎(天钥桥路店),餐饮服务;中餐厅;特色/地方风味餐厅,天钥桥路93-4(徐家汇地铁站14号口步行320米),021-34240263,121.437003,31.19496724,310000,上海市,21,上海市,310104,徐汇区,徐家汇,
B0FFHD1HPF,diner,胖哥俩肉蟹煲(百脑汇店),餐饮服务;中餐厅;中餐厅,漕溪北路339号百脑汇5楼5Y07号商铺,021-61208318;15000099465;19821669055,121.4339071,31.19270324,310000,上海市,21,上海市,310104,徐汇区,徐家汇,
B0FFHCZE8X,diner,肯德基(新美罗店),餐饮服务;快餐厅;肯德基|公司企业;公司;公司,肇嘉浜路1111号,021-64267901,121.4352665,31.19532614,310000,上海市,21,上海市,310104,徐汇区,徐家汇,
B0FFFGVKG7,diner,云海肴(美罗城店),餐饮服务;中餐厅;云贵菜,肇嘉浜路1111号美罗城A区5层,021-64687776,121.4353106,31.1951473,310000,上海市,21,上海市,310104,徐汇区,徐家汇,
B0KDMOGXTI,diner,申宴酒楼(徐家汇店),餐饮服务;中餐厅;上海菜,天钥桥路40号汇联商厦四楼,021-33632285;021-33632286,121.4366333,31.1947837,310000,上海市,21,上海市,310104,徐汇区,徐家汇,
B0FFH0YM14,diner,MAKAN迪拜餐厅,餐饮服务;外国餐厅;外国餐厅,漕溪北路45号2楼,18621054392,121.4353618,31.19383504,310000,上海市,21,上海市,310104,徐汇区,徐家汇,
B0FFFS4UGF,diner,必胜客(美罗城店),餐饮服务;快餐厅;必胜客,肇嘉浜路1111号美罗城1层,021-54653639;4008200775,121.4353006,31.1953192,310000,上海市,21,上海市,310104,徐汇区,徐家汇,
B00155QI03,diner,王品牛排(圣爱大厦店),餐饮服务;外国餐厅;牛扒店(扒房),徐家汇地铁站,021-64282170;15921866529,121.4332057,31.19366466,310000,上海市,21,上海市,310104,徐汇区,徐家汇,
B0HRL50ONN,diner,纪录片《人生一串》体验店(徐家汇店),餐饮服务;中餐厅;中餐厅,市辖区天钥桥路214号哈尼美食广场2楼,021-64283699,121.4374331,31.19299695,310000,上海市,21,上海市,310104,徐汇区,徐家汇,
B0G0VOP38L,diner,大肆撸串(徐家汇店),餐饮服务;中餐厅;综合酒楼,天钥桥路123号2层(徐家汇地铁站14号口步行370米),13381921164;18701835440,121.4372727,31.19441897,310000,上海市,21,上海市,310104,徐汇区,徐家汇,
B0FFGBE5I1,diner,博多一幸舍(美罗城店),餐饮服务;外国餐厅;日本料理,肇嘉浜路1111号美罗城B区B1层,021-64860109;17721384556,121.4348688,31.1947118,310000,上海市,21,上海市,310104,徐汇区,徐家汇,
B0FFIQDCB5,diner,西堤牛排(美罗城店),餐饮服务;外国餐厅;西餐厅(综合风味),肇嘉浜路1111号美罗城F4层,021-33688099,121.4353457,31.19472657,310000,上海市,21,上海市,310104,徐汇区,徐家汇,
B0JBAZ933H,diner,丑爷铜锅涮肉(美罗城店),餐饮服务;中餐厅;火锅店,肇嘉浜路1111号美罗城5F层5-12A,021-33680268;021-56609330,121.4349008,31.19515463,310000,上海市,21,上海市,310104,徐汇区,徐家汇,
B0FFGUDAJ3,diner,佬街佬味(天钥桥路),餐饮服务;快餐厅;快餐厅,天钥桥路90-1号,19901758360,121.4365141,31.1949854,310000,上海市,21,上海市,310104,徐汇区,徐家汇,
B0FFINC00V,diner,太二酸菜鱼(美罗城店),餐饮服务;中餐厅;四川菜(川菜),肇嘉浜路1111号美罗城3楼,4006092822,121.4348858,31.19517859,310000,上海市,21,上海市,310104,徐汇区,徐家汇,
B00156DW2C,diner,苏浙汇(肇嘉浜路店),餐饮服务;中餐厅;浙江菜,市肇嘉浜路388号一层(嘉善路地铁站5号口步行340米),021-64159918,121.4525064,31.20407283,310000,上海市,21,上海市,310104,徐汇区,岳阳,
B0FFFWUOQJ,diner,小杨盱眙龙虾馆,餐饮服务;中餐厅;中餐厅,罗秀路875-5号(罗秀路地铁站2号口步行330米),18501707779,121.428662,31.13313933,310000,上海市,21,上海市,310104,徐汇区,梅陇,
B0FFGWPY36,diner,赤坂亭·M9和牛烧肉·铁板烧·日料旗舰店(上海汇金百货店),餐饮服务;外国餐厅;日本料理,肇嘉浜路1000号8层801商铺,021-33561717,121.4356351,31.19686999,310000,上海市,21,上海市,310104,徐汇区,徐家汇,
B0HDVGWUMT,diner,陶陶居·庭院(One ITC店),餐饮服务;中餐厅;广东菜(粤菜),华山路1901号三层301&302室,021-33567066,121.4331601,31.19981056,310000,上海市,21,上海市,310104,徐汇区,徐家汇,
B0GRSCCOJW,diner,蘩楼(徐家汇汇金店),餐饮服务;中餐厅;广东菜(粤菜),肇嘉浜路1000号汇金百货6楼,021-64269808,121.4361181,31.19720663,310000,上海市,21,上海市,310104,徐汇区,徐家汇,
B0HRH75933,diner,披头士日本料理(百联徐汇商业广场店),餐饮服务;外国餐厅;韩国料理,国权路59号1层,15245828888,121.4326172,31.19901411,310000,上海市,21,上海市,310104,徐汇区,徐家汇,
B00156XTCB,diner,海底捞火锅(华山路店),餐饮服务;中餐厅;火锅店,华山路2068号百联徐汇商业广场南5楼,021-64185337;021-64188837,121.4326613,31.19893522,310000,上海市,21,上海市,310104,徐汇区,徐家汇,
B0HRCKJTYQ,diner,牛小新烧肉屋(徐汇店),餐饮服务;中餐厅;中餐厅,华山路2038号百联商场3楼,021-33883503,121.4323557,31.19941551,310000,上海市,21,上海市,310104,徐汇区,徐家汇,
B0FFF6NP9D,diner,麦当劳(百联徐汇商业广场店),餐饮服务;快餐厅;麦当劳|餐饮服务;冷饮店;冷饮店,华山路2038号百联徐汇商业广场1F层,021-54070766;4008517517,121.4327695,31.19883043,310000,上海市,21,上海市,310104,徐汇区,徐家汇,
B0H3MS9WNK,diner,牛New寿喜烧(百联徐汇商业广场店),餐饮服务;外国餐厅;日本料理,华山路2038号百联徐汇商业广场3F层,021-33883153,121.432512,31.19923184,310000,上海市,21,上海市,310104,徐汇区,徐家汇,
B0I1JA979P,diner,阿嬷手作(港汇恒隆广场店),餐饮服务;中餐厅;中餐厅,虹桥路1号102部位165铺(徐家汇地铁站出口旁),13381850137,121.43241,31.19689384,310000,上海市,21,上海市,310104,徐汇区,徐家汇,
B00154ORDR,diner,新利查西菜馆(广元路店),餐饮服务;外国餐厅;西餐厅(综合风味),广元路196号甲(近天平路),021-62828618;18117083442,121.4338173,31.20068716,310000,上海市,21,上海市,310104,徐汇区,徐家汇,
B0FFFHA7TI,diner,金时代顺风大酒店(百联徐汇商业广场店),餐饮服务;中餐厅;浙江菜|住宿服务;宾馆酒店;宾馆酒店,华山路2038百联徐汇商业广场5层,021-54070568;021-64077777,121.4326592,31.19907215,310000,上海市,21,上海市,310104,徐汇区,徐家汇,
B0FFH4LK59,diner,肯德基(汇金店),餐饮服务;快餐厅;肯德基,肇嘉浜路998号,021-64269045,121.4361,31.19724758,310000,上海市,21,上海市,310104,徐汇区,徐家汇,
B0FFGC1556,diner,孔雀(港汇恒隆广场店),餐饮服务;中餐厅;四川菜(川菜),虹桥路1号港汇广场5楼(徐家汇地铁站出口旁),021-57575677;18117431793,121.4326274,31.19694015,310000,上海市,21,上海市,310104,徐汇区,徐家汇,
B0FFFA0DFD,diner,港丽餐厅(港汇店),餐饮服务;中餐厅;中餐厅,虹桥路1号港汇广场6层603BC(徐家汇地铁站12号出口),021-64484677,121.432987,31.19728253,310000,上海市,21,上海市,310104,徐汇区,徐家汇,
B0ID6H06XS,diner,萨莉亚意式餐厅(百联徐汇商业广场店),餐饮服务;外国餐厅;意式菜品餐厅,华山路2038号百联徐汇商业广场3F层,021-64329051,121.4326102,31.1987992,310000,上海市,21,上海市,310104,徐汇区,徐家汇,
B00151149F,diner,恒悦轩精致香港粤菜(徐家汇店),餐饮服务;中餐厅;综合酒楼,宛平路290号徐家汇公园内(东侧),021-64729778,121.4390219,31.19935862,310000,上海市,21,上海市,310104,徐汇区,徐家汇,
B00155L0K9,diner,三人行骨头王火锅(徐汇总店),餐饮服务;中餐厅;火锅店,肇嘉浜路879号,021-64682289;021-64690312,121.4407417,31.19893497,310000,上海市,21,上海市,310104,徐汇区,徐家汇,
B0H2956QT3,diner,传世南门涮肉(橡胶小区店),餐饮服务;中餐厅;火锅店,肇嘉浜路883号,021-64694611,121.4404901,31.19877358,310000,上海市,21,上海市,310104,徐汇区,徐家汇,
B00154DN73,diner,和记小菜(新东亚大厦店),餐饮服务;中餐厅;中餐厅,南丹东路238新东亚大厦4层,021-64691799;15618683528,121.4346908,31.19102533,310000,上海市,21,上海市,310104,徐汇区,龙华,
B0HRHU2XLT,diner,对酒当歌·地道川菜(南丹东路店),餐饮服务;中餐厅;四川菜(川菜),市辖区南丹东路300弄9-1号,021-64221797,121.4338572,31.19057022,310000,上海市,21,上海市,310104,徐汇区,龙华,
B0FFLHL5BV,diner,德林酸菜鱼火锅,餐饮服务;中餐厅;火锅店,南丹东路157号-1(徐家汇地铁站2号口步行400米),021-64382885,121.436831,31.19180051,310000,上海市,21,上海市,310104,徐汇区,,
B0HDH5EGZQ,diner,渝利重庆火锅(漕河泾印象城店),餐饮服务;中餐厅;火锅店,漕河泾印象城古美路1520号18幢2层L2-11室,021-33561397;15399825390,121.3958726,31.16382285,310000,上海市,21,上海市,310104,徐汇区,虹梅路,
B0HG6CE0ZX,diner,炼瓦家日式烧肉·寿喜烧(漕河泾印象城店),餐饮服务;中餐厅;中餐厅,古美路1520号18幢漕河泾印象城下沉式广场B1层B1-19号,13524071894,121.3956766,31.16412771,310000,上海市,21,上海市,310104,徐汇区,漕河泾,
B0HBFCZ2CD,diner,家府潮汕菜(漕河泾印象城店),餐饮服务;中餐厅;潮州菜,漕宝路1011号漕河泾印象城3层15-16号,021-54246108,121.3955076,31.16366397,310000,上海市,21,上海市,310104,徐汇区,虹梅路,
B0FFFHBLBY,diner,宋记名羊天下(斜土路店),餐饮服务;中餐厅;特色/地方风味餐厅,斜土路2701(上海体育场地铁站3号口步行190米),021-54890079;15988524657,121.4375558,31.18746292,310000,上海市,21,上海市,310104,徐汇区,龙华,
B0J1HCCOV6,diner,鸿姐老火锅(万体馆店),餐饮服务;中餐厅;火锅店,斜土路2701号-6临2701号202,021-33671777,121.4374937,31.18737886,310000,上海市,21,上海市,310104,徐汇区,龙华,
B0FFIWUS5J,diner,晶焱上海菜(南丹路店),餐饮服务;中餐厅;上海菜,南丹路169号(徐家汇地铁站1号口步行330米),021-62130852,121.4291408,31.19111592,310000,上海市,21,上海市,310104,徐汇区,徐家汇,
B0JDU5MU8M,diner,台鄉缘·台府(徐家汇店),餐饮服务;中餐厅;浙江菜,南丹路15号(3、4、5层),021-64180559,121.4309198,31.19120642,310000,上海市,21,上海市,310104,徐汇区,徐家汇,
B0FFJ0MLYT,diner,新顺记(南洋1931店),餐饮服务;中餐厅;广东菜(粤菜),裕德路111号南洋1931商场3楼(裕德路与文定路交叉口旁),021-61254877,121.4280863,31.18807999,310000,上海市,21,上海市,310104,徐汇区,徐家汇,
B00155L0A7,diner,耶里夏丽(田林东路店),餐饮服务;中餐厅;中餐厅,田林东路411号(近钦州路),021-64519797;13916045759,121.4223631,31.17459679,310000,上海市,21,上海市,310104,徐汇区,田林,
B0FFGJI44G,diner,汉堡王(漕河泾店),餐饮服务;快餐厅;快餐厅,虹梅路1535号星联科研大厦5号楼,021-64956568;4008988788,121.3950205,31.16627967,310000,上海市,21,上海市,310104,徐汇区,虹梅路,
B00154DMHG,diner,肯德基(永隆店),餐饮服务;快餐厅;肯德基,淮海中路1298号,021-64747044,121.4461229,31.21544352,310000,上海市,21,上海市,310104,徐汇区,湖南路,
B0FFH9U6YY,diner,CHICKEN&EGG葡式霹雳烤鸡(悟锦世纪大楼店),餐饮服务;外国餐厅;西餐厅(综合风味),富民路291号悟锦世纪大楼1楼,021-61212606;13818956471,121.4477105,31.21924203,310000,上海市,21,上海市,310104,徐汇区,淮海路,
B0FFFZKBOC,,BOOM BOOM BAGELS,体育休闲服务;娱乐场所;酒吧|餐饮服务;快餐厅;快餐厅,安福路39号(乌鲁木齐路)(常熟路地铁站8号口步行280米),15021408818,121.4427236,31.21672113,310000,上海市,21,上海市,310104,徐汇区,中山公园,
B0FFHD82L3,diner,Funkadeli(悟锦世纪大楼店),餐饮服务;外国餐厅;意式菜品餐厅,富民路291号101B室,021-61701318,121.4478198,31.21924825,310000,上海市,21,上海市,310104,徐汇区,淮海路,
B0I2UU1JT0,diner,很久以前羊肉串(天钥桥路店),餐饮服务;中餐厅;特色/地方风味餐厅,天钥桥路333号腾飞大厦一层,13482879901,121.4378954,31.18948451,310000,上海市,21,上海市,310104,徐汇区,龙华,
B0FFG508O1,diner,红盔甲(天钥桥店),餐饮服务;中餐厅;海鲜酒楼,天钥桥路323号美城天地2楼,021-54252373,121.4377139,31.1904627,310000,上海市,21,上海市,310104,徐汇区,龙华,
B00155IU34,diner,耶里夏丽(南丹东路店),餐饮服务;中餐厅;中餐厅,南丹东路106号(近天钥桥路),17891922593,121.4383421,31.19182713,310000,上海市,21,上海市,310104,徐汇区,龙华,
B0I32RLHM0,diner,啫苑·广州啫啫煲(徐汇店),餐饮服务;中餐厅;中餐厅,天钥桥路333号腾飞大厦一层,021-33566968,121.4378182,31.18956533,310000,上海市,21,上海市,310104,徐汇区,龙华,
B0FFHJPDV1,diner,浙里(绿地缤纷城店),餐饮服务;中餐厅;浙江菜,瑞平路36号绿地缤纷1层(地铁龙华中路站五号出口左侧),021-33635997,121.4531929,31.18536465,310000,上海市,21,上海市,310104,徐汇区,龙华,
B0FFI0QAUP,diner,稻香海鲜点心酒家(绿地缤纷城店),餐饮服务;中餐厅;综合酒楼,瑞平路92号绿地滨纷城WF-101商铺,021-33632233,121.4524048,31.18484212,310000,上海市,21,上海市,310104,徐汇区,龙华,
B0FFIW2FJO,diner,临湖素食(保利.时光里店),餐饮服务;中餐厅;中餐厅,瑞平路230号保利.时光里F2层,021-33567008,121.4508266,31.18370714,310000,上海市,21,上海市,310104,徐汇区,龙华,
B0FFFCV3LT,diner,萨莉亚意式餐厅(正大乐城店),餐饮服务;外国餐厅;意式菜品餐厅,中山南二路699号正大乐城B1层B-8,021-60932087,121.4530162,31.18754416,310000,上海市,21,上海市,310104,徐汇区,,
B0FFKKK1AV,diner,云中鱼云南蒸汽石锅鱼(绿地缤纷城店),餐饮服务;中餐厅;火锅店,东安路562号绿地缤纷城2层WA-203室,15221716085,121.4520968,31.18570199,310000,上海市,21,上海市,310104,徐汇区,龙华,
B0FFJB4DAC,diner,老山东御膳坊(绿地缤纷城店),餐饮服务;中餐厅;山东菜(鲁菜),龙华路759号绿地缤纷城月光中庭5层502室,021-33637718;021-33637728;18116121089,121.4512917,31.18552527,310000,上海市,21,上海市,310104,徐汇区,龙华,
B00156TM31,diner,夏朵花园(徐汇店),餐饮服务;外国餐厅;西餐厅(综合风味),复兴西路268号,15316655544,121.4331609,31.21318508,310000,上海市,21,上海市,310104,徐汇区,湖南路,
B0FFI5FLUM,diner,夏朵餐厅(丁香店),餐饮服务;外国餐厅;西餐厅(综合风味),华山路855号夏朵丁香店,021-62128085,121.43318,31.21345098,310000,上海市,21,上海市,310104,徐汇区,中山公园,
B00155M8OJ,diner,申粤轩(上海徐汇区),餐饮服务;中餐厅;中餐厅,华山路849号丁香花园2号楼底商(近武康路),021-62511166,121.4341727,31.21448905,310000,上海市,21,上海市,310104,徐汇区,中山公园,
B0FFFWQ2I3,diner,隐居武康花园,餐饮服务;外国餐厅;意式菜品餐厅,武康路100弄1号,021-54019891,121.4361116,31.21359566,310000,上海市,21,上海市,310104,徐汇区,中山公园,
B00155L24I,diner,麦当劳((虹梅南路店),餐饮服务;快餐厅;麦当劳,沪闵路8075号虹梅商务大厦F1层(锦江乐园地铁站出入口旁),021-54212135;18721521320;4000517117,121.4092129,31.14397312,310000,上海市,21,上海市,310104,徐汇区,梅陇,
B00156D2GA,diner,龙汇酒家(沪闵路店),餐饮服务;中餐厅;综合酒楼|住宿服务;宾馆酒店;宾馆酒店,沪闵路8093号(近大娘水饺肯德基),021-54010357;021-54011337;13816571561,121.4103816,31.14529705,310000,上海市,21,上海市,310104,徐汇区,梅陇,
B0JBZMFT59,diner,对酒当歌·地道川菜(宜山路店),餐饮服务;中餐厅;四川菜(川菜),市辖区宜山路485号2号3号楼一二层,021-64179528,121.4217485,31.18355058,310000,上海市,21,上海市,310104,徐汇区,田林,
B0G3U4XUKD,diner,海底捞火锅(光启城店),餐饮服务;中餐厅;火锅店,上海市市辖区徐汇区宜山路455号大华光启城5F507-511商铺,021-54010959;021-54010960,121.4234435,31.18645601,310000,上海市,21,上海市,310104,徐汇区,徐家汇,
B0FFGI6HBL,diner,麦当劳(光启城店),餐饮服务;快餐厅;麦当劳,宜山路455号地下二层11-1、11-2、12、13室光启城时尚购物中心,021-60407365;4008517517,121.4234816,31.18623016,310000,上海市,21,上海市,310104,徐汇区,徐家汇,
B0JADK8OE7,diner,玺炖·中国铁锅炖(宜山路店),餐饮服务;中餐厅;中餐厅,宜山路483号,17388182504,121.4218025,31.18367158,310000,上海市,21,上海市,310104,徐汇区,田林,
B0GK713UKN,diner,韩宫宴(光启城店),餐饮服务;外国餐厅;韩国料理,宜山路455号光启城F5层(宜山路地铁站7号口旁),021-33680308,121.4235186,31.18580042,310000,上海市,21,上海市,310104,徐汇区,徐家汇,
B0JKAZIB6R,diner,荔湾大酒楼·粤菜(东湖路店),餐饮服务;中餐厅;海鲜酒楼,东湖路9号东湖大厦3楼,15212438242,121.4490711,31.21796454,310000,上海市,21,上海市,310104,徐汇区,淮海路,
B0H235RZS2,diner,鸿姐老火锅(襄阳南路店),餐饮服务;中餐厅;火锅店,襄阳南路102号2楼(襄阳南路与南昌路交叉口),021-54246019,121.4522737,31.21639038,310000,上海市,21,上海市,310104,徐汇区,淮海路,
B001579HOM,diner,成隆行蟹王府(淮海店),餐饮服务;中餐厅;上海菜,汾阳路1号淮海国际广场裙楼3层,021-64670999,121.4515286,31.21702539,310000,上海市,21,上海市,310104,徐汇区,淮海路,
B0G0SAYXPO,diner,BLAZ,餐饮服务;外国餐厅;法式菜品餐厅,东湖路20号(陕西南路地铁站7号口步行470米),18019447400,121.4502983,31.21802918,310000,上海市,21,上海市,310104,徐汇区,淮海路,
B0FFGJ8RBX,diner,赛百味(襄阳南路店),餐饮服务;快餐厅;快餐厅,襄阳南路175号环中商厦西楼101室,021-64482899,121.4527451,31.21516203,310000,上海市,21,上海市,310104,徐汇区,淮海路,
B00156E830,diner,博多新记粤菜馆,餐饮服务;中餐厅;广东菜(粤菜),复兴中路1252弄15号2-4层,021-64668573;021-64738977;021-64745301,121.4531642,31.21561378,310000,上海市,21,上海市,310104,徐汇区,淮海路,
B0FFMAXJ5X,diner,Alimentari Grande(东湖路店),餐饮服务;中餐厅;中餐厅,东湖路20号101、201室,021-33565118;13167196760,121.4503053,31.21801021,310000,上海市,21,上海市,310104,徐汇区,淮海路,
B0FFFABXER,diner,香港池仔记肠粉王(襄阳南路124弄小区店),餐饮服务;中餐厅;中餐厅,襄阳南路150号(近南昌路),021-64338308;021-64738977,121.4524372,31.21570407,310000,上海市,21,上海市,310104,徐汇区,淮海路,
B0HRAYLI51,diner,MAD DRAGON神经龙,餐饮服务;外国餐厅;西餐厅(综合风味),东湖路56弄16-57号东湖路56弄小区,021-33563996;18817510925,121.4504216,31.2179275,310000,上海市,21,上海市,310104,徐汇区,淮海路,
B0FFF4PYB5,diner,Liquid Laundry,餐饮服务;外国餐厅;外国餐厅,淮海中路1028号嘉华坊2楼,021-64459589,121.4511525,31.21785516,310000,上海市,21,上海市,310104,徐汇区,淮海路,
B0FFLFBYMG,diner,Alimentari(安福路店),餐饮服务;外国餐厅;外国餐厅,安福路158-160号,021-54036991,121.440191,31.21625557,310000,上海市,21,上海市,310104,徐汇区,湖南路,
B00154DGHJ,diner,湖南乡村风味馆(乌鲁木齐中路店),餐饮服务;中餐厅;湖南菜(湘菜),乌鲁木齐中路168号(近安福路),021-64370952,121.4408956,31.21538629,310000,上海市,21,上海市,310104,徐汇区,湖南路,
B0FFH5S86O,diner,缘·烧肉酒场·自助放题(宛平88店),餐饮服务;中餐厅;中餐厅,宛平南路108号永丰国际广场3楼,13052261999,121.4408181,31.19675518,310000,上海市,21,上海市,310104,徐汇区,徐家汇,
B0FFH9L5JS,diner,钟路商会·缘家(永新坊店),餐饮服务;外国餐厅;韩国料理,天钥桥路131号永新坊天钥桥路店B1层,021-54246070;17621790076,121.4379952,31.19408939,310000,上海市,21,上海市,310104,徐汇区,徐家汇,
B0H6SHZHHA,diner,绿杨邨酒家(徐家汇直营店),餐饮服务;中餐厅;中餐厅,天钥桥路133号11室(永新坊内),021-64570007;17316507920,121.4388971,31.19423992,310000,上海市,21,上海市,310104,徐汇区,徐家汇,
B0FFGF7IIK,diner,哈灵面馆(宛平南路四店),餐饮服务;中餐厅;中餐厅,宛平南路264号,021-54561016,121.4417122,31.19508269,310000,上海市,21,上海市,310104,徐汇区,徐家汇,
B0G3ZDRR05,diner,牛New寿喜烧(城开YOYO店),餐饮服务;外国餐厅;日本料理,天钥桥路123号城开yoyo3层302室(近辛耕路),021-54565515,121.4377076,31.19430478,310000,上海市,21,上海市,310104,徐汇区,徐家汇,
B0FFIXU5S3,diner,麦当劳(桂满陇店),餐饮服务;快餐厅;快餐厅,天钥桥路149号桂满陇F1层,021-64160185;4008517517,121.4380914,31.19391565,310000,上海市,21,上海市,310104,徐汇区,徐家汇,
B0FFIMI4JP,diner,楠山宥渔,餐饮服务;中餐厅;海鲜酒楼,南丹东路8号2楼,18049772717,121.4411191,31.19268776,310000,上海市,21,上海市,310104,徐汇区,龙华,
B00155QM1P,diner,柠檬草(永新坊店),餐饮服务;外国餐厅;泰国/越南菜品餐厅,天钥桥路131号永新坊B1楼06室,021-34281700,121.4380293,31.19409145,310000,上海市,21,上海市,310104,徐汇区,徐家汇,
B00155I4AV,diner,蓝蛙(桂满陇店),餐饮服务;外国餐厅;西餐厅(综合风味),辛耕路131号永新坊B1层,021-33686117;13585839957,121.4386746,31.19443142,310000,上海市,21,上海市,310104,徐汇区,徐家汇,
B0FFGI6IPF,diner,汉堡王(梅陇),餐饮服务;快餐厅;快餐厅,上中西路280号1楼108号,021-54852261;4008988788,121.4215633,31.13702859,310000,上海市,21,上海市,310104,徐汇区,梅陇,
B0J6VZ4WAJ,diner,七欣天(徐汇凌云壹街坊店),餐饮服务;中餐厅;中餐厅,上中西路280号1层商场109室,021-34173877,121.4214802,31.13694454,310000,上海市,21,上海市,310104,徐汇区,梅陇,
B0FFG8UA3W,diner,蔡先生(浦北店),餐饮服务;中餐厅;中餐厅,浦北路936号,021-54194158;13816372983;18003961565,121.4102447,31.15417329,310000,上海市,21,上海市,310104,徐汇区,康健,
B0GK3CTXLI,diner,麦当劳(金地·喜悦荟oopcity店),餐饮服务;快餐厅;麦当劳,金地喜悦荟,021-54566535;4008517517,121.4067687,31.15355794,310000,上海市,21,上海市,310104,徐汇区,康健,
B0HDOS6Y40,diner,青年公社(上海正大店),餐饮服务;中餐厅;北京菜,中山南二路699号正大乐城3楼2-3012-301号,021-60700558,121.4527353,31.18849604,310000,上海市,21,上海市,310104,徐汇区,,
B00156FLJS,diner,建国328,餐饮服务;中餐厅;中餐厅,建国西路328号(近襄阳南路),021-64713819,121.4529012,31.20688837,310000,上海市,21,上海市,310104,徐汇区,岳阳,
B00155HXJN,diner,大可堂,餐饮服务;中餐厅;综合酒楼|餐饮服务;茶艺馆;茶艺馆,襄阳南路388弄25号,021-64675077;021-64676577,121.4530614,31.20954645,310000,上海市,21,上海市,310104,徐汇区,岳阳,
B00156EMLH,diner,成都鱼庄(华发路店),餐饮服务;中餐厅;海鲜酒楼,华发路35号(近龙吴路),021-34030207,121.449541,31.12884201,310000,上海市,21,上海市,310104,徐汇区,华泾,
B0KB2NEZAL,diner,冯三孃跷脚牛肉(嘉善路直营店),餐饮服务;中餐厅;中餐厅,嘉善路518号,18149735296,121.4559618,31.205871,310000,上海市,21,上海市,310104,徐汇区,岳阳,
B00155DZF2,diner,阿根酒家(襄阳南路444弄小区店),餐饮服务;中餐厅;综合酒楼,襄阳南路444弄1-71号襄阳南路444弄小区,021-54658377;021-64662056;18321867058,121.4533142,31.20876641,310000,上海市,21,上海市,310104,徐汇区,岳阳,
B0FFFT277Z,diner,云味大可堂,餐饮服务;中餐厅;中餐厅,陕西南路548号乙(近绍兴路),021-61070333;021-61070808,121.4570095,31.20986658,310000,上海市,21,上海市,310104,徐汇区,岳阳,
B0FFIP3GOS,diner,Banana GG,餐饮服务;外国餐厅;西餐厅(综合风味),襄阳南路391号,18701920474,121.4534906,31.20897771,310000,上海市,21,上海市,310104,徐汇区,岳阳,
B00155LWDN,diner,新苑私房菜(尚街Loft时尚生活园区店),餐饮服务;中餐厅;中餐厅,嘉善路508号尚街Loft1号楼1层102室,021-64375017;021-64375357;15821339450,121.4550973,31.20644268,310000,上海市,21,上海市,310104,徐汇区,岳阳,
B0FFH9L4OD,diner,BREADetc咖啡面包(三金大厦写字楼店),餐饮服务;糕饼店;糕饼店|餐饮服务;休闲餐饮场所;休闲餐饮场所,建国西路304号一层,021-54198211;021-54198775,121.4533785,31.20723529,310000,上海市,21,上海市,310104,徐汇区,岳阳,
B0HU17D1DV,diner,念味招财锅鲜货海鲜火锅(大木桥路店),餐饮服务;中餐厅;火锅店,大木桥路428号家宁生活广场2楼,021-64157769;19821788922,121.4576092,31.19830865,310000,上海市,21,上海市,310104,徐汇区,枫林路,
B0FFHBC04H,diner,蔡先生(斜土店),餐饮服务;中餐厅;中餐厅,斜土路1478号,13731970540;17821741413,121.4557859,31.19935076,310000,上海市,21,上海市,310104,徐汇区,枫林路,
B0J3HCRGRH,diner,(清真)德元兰州纯汤牛肉面,餐饮服务;快餐厅;快餐厅,桂平路329号-1,15000000590,121.4016751,31.16238886,310000,上海市,21,上海市,310104,徐汇区,康健,
B0GR6ZY9NN,diner,相逢菌语(桂平路店),餐饮服务;中餐厅;火锅店,桂平路329号,021-64186616;13052575716,121.4016731,31.16239286,310000,上海市,21,上海市,310104,徐汇区,康健,
B0FFIZ2430,diner,粤汕一牛(百第宜山大楼店),餐饮服务;中餐厅;中餐厅,中山西路2006号百第宜山大楼F2层,021-34604259;021-60531779;13790586798,121.4215261,31.184242,310000,上海市,21,上海市,310104,徐汇区,田林,
B0FFI7UWYI,diner,汉堡王(东阔生活广场店),餐饮服务;快餐厅;快餐厅,华发路254号272号108-109-119号商铺,021-60711157;4008988788,121.4455018,31.12901441,310000,上海市,21,上海市,310104,徐汇区,华泾,
B00156NUT8,diner,耶里夏丽(肇嘉浜路店),餐饮服务;中餐厅;清真菜馆,肇嘉浜路680号金钟大厦2号楼,021-64668388;13288825547;15201752487;17634544725,121.4449161,31.20142084,310000,上海市,21,上海市,310104,徐汇区,,
B0FFIREFVW,diner,威皇广福和小海鲜(乌鲁木齐南路店),餐饮服务;中餐厅;中餐厅,乌鲁木齐南路370号,021-64374654;15921352491,121.4453481,31.20268509,310000,上海市,21,上海市,310104,徐汇区,岳阳,
B0FFH3MHWO,diner,维园悦谱(乌鲁木齐南路店),餐饮服务;中餐厅;中餐厅,乌鲁木齐南路298号2楼,18918731535,121.4450102,31.20361596,310000,上海市,21,上海市,310104,徐汇区,岳阳,
B0FFI6BSIV,diner,le Comptoir de Pierre Gagnaire,餐饮服务;外国餐厅;法式菜品餐厅,建国西路480号(建业里),021-33391886;021-54669928,121.4473197,31.20515596,310000,上海市,21,上海市,310104,徐汇区,岳阳,
B0FFK6M5HE,diner,麦当劳(绿地·汇中心店),餐饮服务;快餐厅;快餐厅,云锦路500号绿地汇中心A座F1层,4008517517,121.4532506,31.16734895,310000,上海市,21,上海市,310104,徐汇区,龙华,
B0JRHLPXQI,diner,大牛寿喜烧(西岸凤巢店),餐饮服务;外国餐厅;日本料理,云锦路683号西岸凤巢AIPLAZ楼5楼,021-60290228,121.4555,31.165782,310000,上海市,21,上海市,310104,徐汇区,龙华,
B0FFG2ZLCG,diner,傣妹火锅(上海田林店),餐饮服务;中餐厅;火锅店,田林路103-10、11号一层,021-54199122;021-64080731;15956093583,121.4122056,31.17200822,310000,上海市,21,上海市,310104,徐汇区,田林,
B00154DMEX,diner,麦当劳(好又多上海田林分沃尔玛店),餐饮服务;快餐厅;麦当劳|餐饮服务;冷饮店;冷饮店,桂林路402号沃尔玛1层(桂林公园地铁站6号口步行260米),021-64510397;4008517517,121.4125898,31.1725512,310000,上海市,21,上海市,310104,徐汇区,漕河泾,
B0GUBRQ67L,diner,萨莉亚意式餐厅(田林路二店),餐饮服务;外国餐厅;意式菜品餐厅,虹梅国际广场1层(桂林公园地铁站6号口步行400米),021-33632057,121.4111998,31.17177671,310000,上海市,21,上海市,310104,徐汇区,漕河泾,
B0FFHI1P0N,diner,潇湘记(田林店),餐饮服务;中餐厅;湖南菜(湘菜),田林路118-2号2楼(桂林公园地铁站6号口步行310米),021-64707757;15874581892,121.4119764,31.17225295,310000,上海市,21,上海市,310104,徐汇区,漕河泾,
B0FFIR77NL,diner,麦当劳(上海桂箐路餐厅),餐饮服务;快餐厅;麦当劳,桂箐路65号新研大厦F1层,021-54591623;4008517517,121.4001378,31.17436348,310000,上海市,21,上海市,310104,徐汇区,漕河泾,
B0FFF407ML,diner,人和馆(肇嘉浜路店),餐饮服务;中餐厅;中餐厅,肇嘉浜路407(嘉善路地铁站5号口步行230米),021-64030731,121.453464,31.20362225,310000,上海市,21,上海市,310104,徐汇区,枫林路,
B0IRCO7K49,diner,威皇广福和小海鲜(嘉善路店),餐饮服务;中餐厅;中餐厅,肇嘉浜路268号紫苑大厦,021-64375577,121.4565857,31.20504989,310000,上海市,21,上海市,310104,徐汇区,岳阳,
B0HUGAPAAW,diner,齐齐哈尔烤肉(紫苑大厦店),餐饮服务;中餐厅;中餐厅,肇嘉浜路258紫苑大厦F1层,021-64371177;17717514957,121.4565526,31.20524472,310000,上海市,21,上海市,310104,徐汇区,岳阳,
B0IBLRSAV2,diner,麦当劳(玖時活力中心店),餐饮服务;快餐厅;麦当劳,大木桥路18号1楼1012(嘉善路地铁站4号口旁),021-64160598;4009200205,121.4564133,31.20341727,310000,上海市,21,上海市,310104,徐汇区,枫林路,
B0GRMHYP9J,hotel,王朝-齐家花园大酒店,住宿服务;宾馆酒店;宾馆酒店|餐饮服务;中餐厅;中餐厅,肇嘉浜路288号鼎新大楼(嘉善路地铁站5号口步行130米),021-64712222;021-64718777;13816979975,121.4560331,31.20507456,310000,上海市,21,上海市,310104,徐汇区,岳阳,
B00155IVER,diner,美粤华·精致粤菜,餐饮服务;中餐厅;综合酒楼|住宿服务;宾馆酒店;宾馆酒店,肇嘉浜路238号5楼(陕西南路口),021-64377979;021-64667777,121.4573849,31.20538165,310000,上海市,21,上海市,310104,徐汇区,岳阳,
B0FFHRNSEA,diner,麦当劳(正大乐城店),餐饮服务;快餐厅;麦当劳,中山南二路699号正大乐城6区1层101,021-60932325,121.4540018,31.188401,310000,上海市,21,上海市,310104,徐汇区,,
B0J1GLAFVS,diner,AJIYA炭火烧肉(正大乐城店),餐饮服务;外国餐厅;日本料理,中山南二路679号正大乐城三幢一层106号,021-34161398,121.4539667,31.18910357,310000,上海市,21,上海市,310104,徐汇区,,
B0H1U90WGV,diner,羊倌毡房·羔羊料理(徐汇店),餐饮服务;中餐厅;特色/地方风味餐厅,中山南二路699号正大乐城1楼6号电梯左转10米,021-58390506,121.4540218,31.18885282,310000,上海市,21,上海市,310104,徐汇区,,
B0H0ADUV6S,diner,平成屋日式料理(正大乐城店),餐饮服务;外国餐厅;日本料理,正大乐城599号,021-60193025,121.4537582,31.18817155,310000,上海市,21,上海市,310104,徐汇区,,
B0FFHCTJJV,diner,达美乐比萨(桂林路店),餐饮服务;外国餐厅;意式菜品餐厅,桂林路402号76幢113室,4001597597,121.4110986,31.17413145,310000,上海市,21,上海市,310104,徐汇区,田林,
B0FFGWEHTB,diner,红盔甲(田林店),餐饮服务;中餐厅;火锅店,田林路126号3层(桂林公园地铁站6号口步行430米),021-64170869,121.4106564,31.17197929,310000,上海市,21,上海市,310104,徐汇区,田林,
B0I2UHVG15,diner,京元盛铜锅涮肉(上海总店),餐饮服务;中餐厅;火锅店,田林路124-4号3楼(红盔甲隔壁),021-64280599,121.4106264,31.17196028,310000,上海市,21,上海市,310104,徐汇区,漕河泾,
B0HUMRUKL7,diner,额尔敦传统涮(淮海路店),餐饮服务;中餐厅;火锅店,淮海中路1728号(上海图书馆地铁站3号口步行360米),021-64316076,121.4361472,31.20790446,310000,上海市,21,上海市,310104,徐汇区,湖南路,
B00155ILI9,diner,东北四季饺子王(淮海中路店),餐饮服务;中餐厅;特色/地方风味餐厅,淮海中路1791号,021-64330349;13512109777;15843578868,121.4354028,31.20701565,310000,上海市,21,上海市,310104,徐汇区,湖南路,
B0FFG92CZB,diner,唐宫(汇京店),餐饮服务;中餐厅;广东菜(粤菜),虹桥路777号汇京国际大厦三楼,021-33686969,121.4184503,31.19791713,310000,上海市,21,上海市,310104,徐汇区,徐家汇,
B0FFLKFRNE,diner,大焰日本料理(天星城店),餐饮服务;外国餐厅;日本料理,上海凯旋路1669号二楼(虹桥路地铁站6号口步行150米),021-64474199,121.4172981,31.19683263,310000,上海市,21,上海市,310104,徐汇区,虹桥,
B0FFF00GW5,diner,老于家东北人家(徐家汇店),餐饮服务;中餐厅;东北菜,宛平南路404号(近斜土路),021-54245270,121.4430956,31.19236169,310000,上海市,21,上海市,310104,徐汇区,龙华,
B0FFFA057D,diner,披头士串烧日本料理(斜土路店),餐饮服务;外国餐厅;日本料理,斜土路2905号(上海体育场地铁站3号口步行240米),021-64812005;18221535177,121.4364246,31.18618662,310000,上海市,21,上海市,310104,徐汇区,龙华,
B0FFHTL7KG,diner,肯德基(飞洲国际店),餐饮服务;快餐厅;肯德基,零陵路899号飞洲国际广场地下一层B1-33号商铺,021-54270950,121.4324511,31.18501481,310000,上海市,21,上海市,310104,徐汇区,龙华,
B00155GNPD,diner,辛香汇(飞洲国际广场店),餐饮服务;中餐厅;四川菜(川菜),零陵路899号飞洲国际广场(零陵路)F5层,13761909306,121.4325002,31.18496691,310000,上海市,21,上海市,310104,徐汇区,龙华,
B0FFHOSK55,diner,萨莉亚意式餐厅(飞洲国际广场店),餐饮服务;外国餐厅;意式菜品餐厅,零陵路899号飞洲国际广场b1层,021-54363035,121.4335722,31.18500555,310000,上海市,21,上海市,310104,徐汇区,龙华,
B00156G74J,diner,老吉士饭馆(天平路店),餐饮服务;中餐厅;中餐厅,天平路41号(近淮海中路),021-62829260,121.433354,31.20502232,310000,上海市,21,上海市,310104,徐汇区,湖南路,
B00155D9L0,diner,牧羊餐厅,餐饮服务;中餐厅;上海菜,天平路208弄车间1号(近康平路),021-62823612;13917463902;18916007325,121.4324346,31.2017315,310000,上海市,21,上海市,310104,徐汇区,徐家汇,
B0FFF00F49,diner,麦当劳(桂平路店),餐饮服务;快餐厅;麦当劳,桂平路391号1号楼114B室,021-64157826;4008517517,121.3987863,31.16645444,310000,上海市,21,上海市,310104,徐汇区,虹梅路,
B00155MWJ9,diner,青年公社(肇嘉浜店),餐饮服务;中餐厅;中餐厅,肇嘉浜路159号友谊时代大厦1-2层(近瑞金南路),021-64177999;021-64187588,121.4599736,31.20513514,310000,上海市,21,上海市,310104,徐汇区,枫林路,
B0FFFHB087,diner,Solo(衡山路店),餐饮服务;外国餐厅;西餐厅(综合风味)|餐饮服务;外国餐厅;意式菜品餐厅,衡山路191号103(永平里、近高安路),021-33686199;021-64330779,121.4425631,31.20711143,310000,上海市,21,上海市,310104,徐汇区,岳阳,
B0FFHHU2HZ,diner,COLCA(衡山路店),餐饮服务;外国餐厅;外国餐厅,衡山路199号2201室(衡山路地铁站1号口步行150米),021-54015366,121.4425361,31.2068605,310000,上海市,21,上海市,310104,徐汇区,岳阳,
B0FFGCY4N3,diner,威皇广福和小海鲜(襄阳南路店),餐饮服务;中餐厅;海鲜酒楼,襄阳南路215号,021-54046529,121.4528435,31.21330914,310000,上海市,21,上海市,310104,徐汇区,淮海路,
B0FFI0BYB7,diner,The Bull&Claw(毕勋公寓店),餐饮服务;外国餐厅;西餐厅(综合风味),110 Fenyang Lu、汾阳路110号,021-33567608,121.4490836,31.21238423,310000,上海市,21,上海市,310104,徐汇区,岳阳,
B0FFHCAWYS,diner,小桃园(复兴中路店),餐饮服务;快餐厅;快餐厅,复兴中路1251号-1(陕西南路地铁站7号口步行280米),13564507070;18017066740,121.4529196,31.21436181,310000,上海市,21,上海市,310104,徐汇区,淮海路,
B0FFF3AGS1,diner,熠盛粤味(永康路店),餐饮服务;中餐厅;广东菜(粤菜),永康路132号,021-64735602,121.4521697,31.21240105,310000,上海市,21,上海市,310104,徐汇区,淮海路,
B0J6P78VS1,diner,谢记大牌档(乌鲁木齐中路),餐饮服务;中餐厅;上海菜,乌鲁木齐中路298号(常熟路地铁站8号口步行450米),13764220607;15800760650,121.4416344,31.21362852,310000,上海市,21,上海市,310104,徐汇区,湖南路,
B00155EM9W,diner,严记老北京涮锅,餐饮服务;中餐厅;火锅店,乌鲁木齐中路346号1楼(近复兴西路),021-64313886;13661533787,121.4419121,31.21276446,310000,上海市,21,上海市,310104,徐汇区,中山公园,
B00154DW44,diner,雍福会,餐饮服务;中餐厅;浙江菜,永福路200号(原英国领事馆),021-54662727,121.4382723,31.21124251,310000,上海市,21,上海市,310104,徐汇区,中山公园,
B0G17RZECZ,diner,上金雀华人餐厅(上海总部店),餐饮服务;中餐厅;广东菜(粤菜),乌鲁木齐中路247号-10(常熟路地铁站8号口步行440米),13361959927,121.4417747,31.21385667,310000,上海市,21,上海市,310104,徐汇区,中山公园,
B00155GPAF,diner,颐品居涮肉(宁海路乌中店),餐饮服务;中餐厅;火锅店,乌鲁木齐中路352号1-3层,021-64715147,121.4419733,31.2127226,310000,上海市,21,上海市,310104,徐汇区,中山公园,
B0FFG69LLS,diner,麦当劳(田尚坊店)(装修中),餐饮服务;快餐厅;麦当劳,钦州北路218号田尚坊1层,021-33563929,121.4157708,31.18263242,310000,上海市,21,上海市,310104,徐汇区,田林,
B0FFHJXRQX,diner,丰茂烤串(钦州北路店),餐饮服务;中餐厅;特色/地方风味餐厅,钦州北路226号地下一层21、22、23、25单元,021-33566773,121.4133026,31.1825576,310000,上海市,21,上海市,310104,徐汇区,田林,
B0FFF00F2D,diner,潮州府(徐家汇店),餐饮服务;中餐厅;潮州菜,广元西路60号裙房(近华山路),021-64040018;021-64040019,121.431451,31.19936817,310000,上海市,21,上海市,310104,徐汇区,徐家汇,
B00156NZKE,diner,麦当劳(斜土路2号餐厅),餐饮服务;快餐厅;麦当劳,斜土路1969号,021-64157368;4009200205,121.4518942,31.19790147,310000,上海市,21,上海市,310104,徐汇区,枫林路,
B0FFKSLE4J,diner,布衣海鲜烧烤大牌档(中山西路),餐饮服务;中餐厅;中餐厅,中山西路2240号,13817276460,121.4255158,31.18287128,310000,上海市,21,上海市,310104,徐汇区,田林,
B0FFF3JKRU,diner,狼来了碳烤羊腿烧烤龙虾(总店),餐饮服务;中餐厅;特色/地方风味餐厅,柳州路476号,18701717781,121.4186455,31.17434313,310000,上海市,21,上海市,310104,徐汇区,田林,
B0JUTX0PRB,diner,麦当劳(明申商务广场店),餐饮服务;快餐厅;麦当劳,漕宝路400号明申商务广场F1层,4008517517,121.4067657,31.1657276,310000,上海市,21,上海市,310104,徐汇区,漕河泾,
B0J6B5SS1X,diner,岩姐撸串儿·地道老烧烤(明申商务广场店),餐饮服务;中餐厅;中餐厅,漕宝路400号1层B.C室(虹漕路地铁站1号口步行200米),17621785575,121.4070958,31.1657937,310000,上海市,21,上海市,310104,徐汇区,康健,
B0JDLUTAT0,diner,五里关火锅(上海鑫耀·光环Live店),餐饮服务;中餐厅;火锅店,苍梧路10号,13311933667,121.4092817,31.16973869,310000,上海市,21,上海市,310104,徐汇区,漕河泾,
B0IAMK8WNC,diner,一绪寿喜烧(漕河泾印象城店),餐饮服务;外国餐厅;日本料理,古美路1520号漕河泾印象城3层(虹梅路地铁站7号口旁),021-54250678,121.3947177,31.16356611,310000,上海市,21,上海市,310104,徐汇区,虹梅路,
B0HD35PKBI,diner,新时泰(漕河泾印象城店),餐饮服务;外国餐厅;泰国/越南菜品餐厅,古美路1520号18幢3层L3-20室,021-54366098,121.3952457,31.16371097,310000,上海市,21,上海市,310104,徐汇区,虹梅路,
B0J0MZUA90,diner,眉州东坡·麻婆豆腐(漕河泾印象城店),餐饮服务;中餐厅;中餐厅,漕宝路1011号漕河泾印象城3F层(虹梅路地铁站7号口旁),021-33568688,121.3945857,31.16356812,310000,上海市,21,上海市,310104,徐汇区,漕河泾,
B0FFFX3Y6M,diner,仁和h2西式简餐店,餐饮服务;外国餐厅;西餐厅(综合风味),永嘉路595号(乌鲁木齐南路),,121.4446962,31.20668084,310000,上海市,21,上海市,310104,徐汇区,岳阳,
B0FFKTLZKS,diner,香守·潮汕海鲜港式火锅,餐饮服务;中餐厅;火锅店,岳阳路190号,021-52035177;13166000821;13167051110,121.4477176,31.20696992,310000,上海市,21,上海市,310104,徐汇区,岳阳,
B0FFIK4ZW8,diner,kru(上海衡山路休闲街店),餐饮服务;外国餐厅;外国餐厅,衡山路199号永平里(衡山路地铁站4号口步行80米),021-54565913,121.4427065,31.20672889,310000,上海市,21,上海市,310104,徐汇区,岳阳,
B0FFGL4CYP,diner,肯德基(东安路站店),餐饮服务;快餐厅;肯德基,东安路270号轨道交通七号线东安路站站厅层,021-64035247,121.4500618,31.19279392,310000,上海市,21,上海市,310104,徐汇区,枫林路,
B0FFK0AW08,diner,老城区炭火蛙锅(美通科创空间店),餐饮服务;中餐厅;火锅店,石龙路951号美通科创空间F1层,13361915158;13501612580,121.426425,31.15030722,310000,上海市,21,上海市,310104,徐汇区,康健,
B0FFH3RVYX,diner,赛百味(五洲店),餐饮服务;快餐厅;快餐厅,肇嘉浜路807号五洲国际大厦一楼,021-32566055,121.443134,31.19999301,310000,上海市,21,上海市,310104,徐汇区,枫林路,
B00156EQI3,diner,上海小南国(均瑶国际广场店),餐饮服务;中餐厅;上海菜,肇嘉浜路789号均瑶国际广场5层501室,021-54065180,121.4439058,31.20022241,310000,上海市,21,上海市,310104,徐汇区,枫林路,
B00155ITH5,diner,维吾尔餐厅(欧立特大厦店),餐饮服务;中餐厅;清真菜馆,宜山路280号(宜山路地铁站3号口步行450米),021-64689198;17317290197,121.4251425,31.19081784,310000,上海市,21,上海市,310104,徐汇区,徐家汇,
B0FFKDRY79,diner,云锦荟铁板烧(徐汇滨江),餐饮服务;外国餐厅;日本料理,龙兰路399弄东航云锦东方会所四楼,021-54216777;18717944609,121.4494855,31.16698672,310000,上海市,21,上海市,310104,徐汇区,龙华,
B0J2HSF8O7,diner,山石榴(龙华会店),餐饮服务;中餐厅;云贵菜,龙华路2778号龙华会L2层(龙华地铁站5号口旁),13020237602,121.4492563,31.17499012,310000,上海市,21,上海市,310104,徐汇区,龙华,
B0J2HS7JDB,diner,眉州东坡(龙华会店),餐饮服务;中餐厅;四川菜(川菜),龙华路2778号龙华会LG2层(龙华地铁站5号口步行80米),18171712279,121.4493244,31.1757099,310000,上海市,21,上海市,310104,徐汇区,龙华,
B0J2HS88XY,diner,一绪寿喜烧(龙华会店),餐饮服务;外国餐厅;日本料理,龙华路2618号1幢地下1层01B1N12号,021-64318885,121.4494667,31.17606902,310000,上海市,21,上海市,310104,徐汇区,龙华,
B0FFF2LH6O,diner,ginger餐厅(兴国路89弄小区店),餐饮服务;外国餐厅;其它亚洲菜,兴国路91号(近湖南路),021-34060599;18019163362,121.4314621,31.21075765,310000,上海市,21,上海市,310104,徐汇区,湖南路,
B0FFIYXZNM,diner,俊杰拉面馆,餐饮服务;中餐厅;中餐厅,宋园路191-14号(吴中路地铁站4号口步行350米),15000833383;15000871390,121.4086026,31.18990914,310000,上海市,21,上海市,310104,徐汇区,虹桥,
B0H2OB7WQP,diner,御鲤湘(淮海中路店),餐饮服务;中餐厅;湖南菜(湘菜),淮海中路1333号1楼(常熟路地铁站7号口步行160米),021-63288808;13661763285,121.4447016,31.21347357,310000,上海市,21,上海市,310104,徐汇区,湖南路,
B00155LAT8,diner,圆苑(上海西藏大厦万怡酒店店),餐饮服务;中餐厅;上海菜,虹桥路100号上海西藏大厦万怡酒店裙房2层,021-64483977;18701979560,121.4297415,31.19436815,310000,上海市,21,上海市,310104,徐汇区,徐家汇,
B00156O0O1,diner,帆顺家宴,餐饮服务;中餐厅;上海菜,罗香路90号2层,021-52273337,121.4358146,31.13772475,310000,上海市,21,上海市,310104,徐汇区,华泾,
B0FFI09Y0E,diner,拜格里格新疆餐厅,餐饮服务;中餐厅;清真菜馆,百色路1221号,13167152028,121.4284616,31.14491676,310000,上海市,21,上海市,310104,徐汇区,,
B0FFIF2MPA,diner,南京汤包·曼曼粥店(高安路新里店),餐饮服务;中餐厅;中餐厅,建国西路641号二车间(衡山路地铁站1号口步行390米),18116120132,121.4418088,31.20273411,310000,上海市,21,上海市,310104,徐汇区,岳阳,
B0FFKZFFVL,diner,八方海鲜·港式火锅·蒸汽海鲜(悟锦世纪大楼店),餐饮服务;中餐厅;海鲜酒楼,富民路291号悟锦世纪大楼F2层,021-62126786,121.4482699,31.21954407,310000,上海市,21,上海市,310104,徐汇区,淮海路,
B0FFG0ZFRV,diner,五星海南鸡饭(新乐店),餐饮服务;中餐厅;中餐厅,新乐路90号,021-64482919,121.4505087,31.21954493,310000,上海市,21,上海市,310104,徐汇区,淮海路,
B0IBF52X2I,diner,肯德基(西岸滨江店),餐饮服务;快餐厅;肯德基,大龙腾大道3036号,021-64329621,121.4575627,31.17873731,310000,上海市,21,上海市,310104,徐汇区,,
B0FFI4YCDU,diner,醉辉皇(朵云轩店),餐饮服务;中餐厅;中餐厅,天钥桥路1188号,15247122294,121.4425127,31.17581788,310000,上海市,21,上海市,310104,徐汇区,龙华,
B0FFGT2HEA,diner,许爷剁椒鱼头(桂林店),餐饮服务;中餐厅;中餐厅,桂林路37号(近钦州南路),13167120723,121.4157858,31.15944232,310000,上海市,21,上海市,310104,徐汇区,康健,
B00155INII,diner,肯德基(钦州店),餐饮服务;快餐厅;肯德基,桂林路39号,021-54482305,121.4156897,31.15995598,310000,上海市,21,上海市,310104,徐汇区,康健,
B0FFF9093K,diner,麻辣小馆(中漕路店),餐饮服务;中餐厅;中餐厅,"中漕路5号(近裕德路,一号线万体育馆8号出口)",15901811004;18901632014,121.4310044,31.18602713,310000,上海市,21,上海市,310104,徐汇区,徐家汇,
B0FFKQ04CI,diner,小小花园(西岸滨江店),餐饮服务;外国餐厅;外国餐厅,龙腾大道3268号,,121.4594118,31.18349545,310000,上海市,21,上海市,310104,徐汇区,,
B001544ABB,diner,越乡小吃(俞一小区店),餐饮服务;快餐厅;快餐厅,龙华西路31弄6号甲(龙华地铁站2号口步行360米),13918288538,121.4480915,31.17256686,310000,上海市,21,上海市,310104,徐汇区,龙华,
