id,行业类型,名称,类型,地址,联系电话,lng,lat,省份代码,省份名称,城市代码,城市名称,区域代码,区域名称,所在商圈,rating
B0FFGPQAOB,,公共厕所,公共设施;公共厕所;公共厕所,龙跃村路与金张公路交叉口南80米,,121.236219,30.824811,,上海市,,上海市,,金山区,,"{'cost': , 'rating': }"
B0K6YH2IFW,,公共厕所,公共设施;公共厕所;公共厕所,塌石桥路与干溪街交叉口南20米,,121.237885,30.826501,,上海市,,上海市,,金山区,,"{'cost': , 'rating': }"
B0FFHLT74Q,,公共厕所,公共设施;公共厕所;公共厕所,兰亭街88号,,121.23495,30.827855,,上海市,,上海市,,金山区,,"{'cost': , 'rating': }"
B0FFF2QLAX,,公共厕所,公共设施;公共厕所;公共厕所,红光路98附近,,121.237044,30.828379,,上海市,,上海市,,金山区,,"{'cost': , 'rating': }"
B0FFHLS7SI,,公共厕所,公共设施;公共厕所;公共厕所,龙士路汇丰馨苑,,121.240735,30.82835,,上海市,,上海市,,金山区,,"{'cost': , 'rating': }"
B0JGFHOH9D,,公共厕所,公共设施;公共厕所;公共厕所,小普陀路141号,,121.235038,30.830091,,上海市,,上海市,,金山区,,"{'cost': , 'rating': }"
B0FFL34WV0,,公共厕所,公共设施;公共厕所;公共厕所,X204(金石北路),,121.216828,30.836274,,上海市,,上海市,,金山区,,"{'cost': , 'rating': }"
B00156D1LP,,公共厕所,公共设施;公共厕所;公共厕所,金石南路2255号,,121.248577,30.78561,,上海市,,上海市,,金山区,,"{'cost': , 'rating': }"
B0FFG8NESB,,公共厕所,公共设施;公共厕所;公共厕所,金张支线中国石化金堰加油站,,121.270222,30.79391,,上海市,,上海市,,金山区,,"{'cost': , 'rating': }"
B00156GAJ4,,公共厕所,公共设施;公共厕所;公共厕所,建圩路与钱商大街交叉口西20米,,121.247718,30.776714,,上海市,,上海市,,金山区,,"{'cost': , 'rating': }"
B0FFF2ARXZ,,公共厕所,公共设施;公共厕所;公共厕所,依佳依超市(廊下店),,121.195818,30.788749,,上海市,,上海市,,金山区,,"{'cost': , 'rating': }"
B00156GAOK,,公共厕所,公共设施;公共厕所;公共厕所,秦弯路与金石南路交叉口西80米,,121.249842,30.774241,,上海市,,上海市,,金山区,,"{'cost': , 'rating': }"
B00156GP6U,,张堰公园-公共厕所,公共设施;公共厕所;公共厕所,花贤路68号张堰公园(西南角),,121.28311,30.80347,,上海市,,上海市,,金山区,,"{'cost': , 'rating': }"
B0FFF08KDY,,公共厕所,公共设施;公共厕所;公共厕所,廊下大街与益民路交叉口东北100米,,121.193111,30.786132,,上海市,,上海市,,金山区,,"{'cost': , 'rating': }"
B00156GB7B,,公共厕所,公共设施;公共厕所;公共厕所,景乐路与金廊公路交叉口东80米,,121.189744,30.789761,,上海市,,上海市,,金山区,,"{'cost': , 'rating': }"
B0FFGLM5N2,,公共厕所,公共设施;公共厕所;公共厕所,花贤路与张堰大街交叉口西40米,,121.284736,30.802265,,上海市,,上海市,,金山区,,"{'cost': , 'rating': }"
B0KB6R9DUB,,公共厕所,公共设施;公共厕所;公共厕所,益民路与廊下大街交叉口西北60米,,121.19193,30.786228,,上海市,,上海市,,金山区,,"{'cost': , 'rating': }"
B0FFGLSDYI,,公共厕所,公共设施;公共厕所;公共厕所,新华路40弄5号,,121.287139,30.804597,,上海市,,上海市,,金山区,,"{'cost': , 'rating': }"
B0HRSXTI2L,,公共厕所,公共设施;公共厕所;公共厕所,新华路与复退路交叉口东北40米,,121.287489,30.804449,,上海市,,上海市,,金山区,,"{'cost': , 'rating': }"
B0J2DRYNJC,,民防工程(黄浦无线电元件厂),公共设施;公共设施;公共设施,老白渡155号,,121.238441,30.859323,,上海市,,上海市,,金山区,,"{'cost': , 'rating': }"
B0FFGLSDUK,,公共厕所,公共设施;公共厕所;公共厕所,张堰东大街与东贤路交叉口东北180米,,121.290219,30.805734,,上海市,,上海市,,金山区,,"{'cost': , 'rating': }"
B0FFFA2PNM,,公共厕所(内部专用),公共设施;公共厕所;公共厕所,松金公路与金张公路交叉口西150米,,121.290023,30.808337,,上海市,,上海市,,金山区,,"{'cost': , 'rating': }"
B0FFHLSL4H,,公共厕所,公共设施;公共厕所;公共厕所,南文支路与璜溪东街交叉口东南20米,,121.177764,30.826411,,上海市,,上海市,,金山区,,"{'cost': , 'rating': }"
B0FFHLSPKO,,公共厕所,公共设施;公共厕所;公共厕所,金张公路4980号,,121.177703,30.831374,,上海市,,上海市,,金山区,,"{'cost': , 'rating': }"
B0FFKECR97,,公共厕所,公共设施;公共厕所;公共厕所,联合中心路与横召路交叉口东南40米,,121.25262,30.764035,,上海市,,上海市,,金山区,,"{'cost': , 'rating': }"
B00155KPVF,,公共厕所,公共设施;公共厕所;公共厕所,溪南路52号,,121.175221,30.826419,,上海市,,上海市,,金山区,,"{'cost': , 'rating': }"
B00156GB4U,,公共厕所,公共设施;公共厕所;公共厕所,溪北路59号附近,,121.174983,30.82782,,上海市,,上海市,,金山区,,"{'cost': , 'rating': }"
B0I677RAE9,,应急避难场所,公共设施;公共设施;公共设施,溪北路与新东街交叉口东北20米,,121.175013,30.827417,,上海市,,上海市,,金山区,,"{'cost': , 'rating': }"
B0J37XUXMY,,杉青港村公共厕所,公共设施;公共厕所;公共厕所,亚鑫街与北新路交叉口西240米,,121.212858,30.760435,,浙江省,,嘉兴市,,平湖市,,"{'cost': , 'rating': }"
B0H065DX9C,,公共厕所,公共设施;公共厕所;公共厕所,新仓镇七彩公益坊,,121.206047,30.759735,,浙江省,,嘉兴市,,平湖市,,"{'cost': , 'rating': }"
B0I647601V,,新仓镇避灾安置中心,公共设施;公共设施;公共设施,富前路与新兴街交叉口东北40米,,121.207005,30.759472,,浙江省,,嘉兴市,,平湖市,,"{'cost': , 'rating': }"
B023D0S1PC,,公共厕所,公共设施;公共厕所;公共厕所,富前路与亚鑫街交叉口西北40米,,121.207032,30.758501,,浙江省,,嘉兴市,,平湖市,,"{'cost': , 'rating': }"
B00156GWC0,,公共厕所,公共设施;公共厕所;公共厕所,金山卫镇刘建路八字村老年活动室东,,121.277588,30.765193,,上海市,,上海市,,金山区,,"{'cost': , 'rating': }"
B0J66UZQBZ,,公共厕所,公共设施;公共厕所;公共厕所,新衙公路与仓东路,,121.205809,30.754822,,浙江省,,嘉兴市,,平湖市,,"{'cost': , 'rating': }"
B00156GPU8,,公共厕所,公共设施;公共厕所;公共厕所,建农路与建八路交叉口西北60米,,121.294893,30.77549,,上海市,,上海市,,金山区,,"{'cost': , 'rating': }"
B0FFF2EDCP,,女洗手间,公共设施;公共厕所;女洗手间,松金公路与松旧公路交叉口东南100米,,121.29931,30.780989,,上海市,,上海市,,金山区,,"{'cost': , 'rating': }"
B0FFGLM4K9,,公共厕所,公共设施;公共厕所;公共厕所,张旧路与桑园村路交叉口东南60米,,121.309188,30.794097,,上海市,,上海市,,金山区,,"{'cost': , 'rating': }"
B0FFF2UI3W,,公共厕所,公共设施;公共厕所;公共厕所,漕廊公路附近,,121.15764,30.786817,,上海市,,上海市,,金山区,,"{'cost': , 'rating': }"
B0FFL926CQ,,公共厕所,公共设施;公共厕所;公共厕所,X249(漕廊公路),,121.159004,30.7856,,上海市,,上海市,,金山区,,"{'cost': , 'rating': }"
B0HGUPE13G,,公共厕所,公共设施;公共厕所;公共厕所,廊华路与建江路交叉口南460米,,121.165064,30.772346,,浙江省,,嘉兴市,,平湖市,,"{'cost': , 'rating': }"
B0FFM9ORUZ,,公共厕所,公共设施;公共厕所;公共厕所,夏宁路华纺和成未来派,,121.31743,30.830702,,上海市,,上海市,,金山区,,"{'cost': , 'rating': }"
B0HB6HKVLP,,公共厕所,公共设施;公共厕所;公共厕所,X249辅路,,121.154197,30.786915,,上海市,,上海市,,金山区,,"{'cost': , 'rating': }"
B0FFK5WTEQ,,公共厕所,公共设施;公共厕所;公共厕所,茸卫公路2000号附近,,121.292144,30.759868,,上海市,,上海市,,金山区,,"{'cost': , 'rating': }"
B0FFL375Z2,,公共厕所,公共设施;公共厕所;公共厕所,新仓镇芦湾村仓庆路东首,,121.245599,30.738642,,浙江省,,嘉兴市,,平湖市,,"{'cost': , 'rating': }"
B0FFKZSP90,,公共厕所,公共设施;公共厕所;公共厕所,G15(沈海高速),,121.295854,30.759217,,上海市,,上海市,,金山区,,"{'cost': , 'rating': }"
B0FFF0718L,,公共厕所,公共设施;公共厕所;公共厕所,郭汇路与松溪路交叉口南160米,,121.241412,30.890887,,上海市,,上海市,,金山区,,"{'cost': , 'rating': }"
B00156NPY2,,公共厕所,公共设施;公共厕所;公共厕所,松育路与松隐大街交叉口东北80米,,121.235771,30.891616,,上海市,,上海市,,金山区,,"{'cost': , 'rating': }"
B00156GOO4,,公共厕所,公共设施;公共厕所;公共厕所,松隐中学东南(松隐中心路西),,121.237938,30.891799,,上海市,,上海市,,金山区,,"{'cost': , 'rating': }"
B0IKVAD0UA,,无障碍公共厕所,公共设施;公共厕所;公共厕所,松隐中心路与松隐大街交叉口北80米,,121.23788,30.891756,,上海市,,上海市,,金山区,,"{'cost': , 'rating': }"
B0FFHLSSCV,,公共厕所,公共设施;公共厕所;公共厕所,沈海高速,,121.303713,30.762024,,上海市,,上海市,,金山区,,"{'cost': , 'rating': }"
B0FFF2FMC4,,公共厕所,公共设施;公共厕所;公共厕所,郭汇路与松溪路交叉口东北60米,,121.24182,30.892824,,上海市,,上海市,,金山区,,"{'cost': , 'rating': }"
B0FFF2PMY3,,公共厕所,公共设施;公共厕所;公共厕所,松溪路与松隐中心路交叉口东北40米,,121.239031,30.893841,,上海市,,上海市,,金山区,,"{'cost': , 'rating': }"
B00156GCBH,,公共厕所,公共设施;公共厕所;公共厕所,张旧公路与张旧南路交叉口南40米,,121.321423,30.782873,,上海市,,上海市,,金山区,,"{'cost': , 'rating': }"
B0FFHLSPSG,,公共厕所,公共设施;公共厕所;公共厕所,景邱路与向友路交叉口西160米,,121.14038,30.801461,,上海市,,上海市,,金山区,,"{'cost': , 'rating': }"
B0FFKFHDJI,,公共厕所,公共设施;公共厕所;公共厕所,梦阳生态农业发展专业合作联社德昕西瓜基地东南侧200米,,121.139389,30.814313,,上海市,,上海市,,金山区,,"{'cost': , 'rating': }"
B0FFGNUZ43,,公共厕所,公共设施;公共厕所;公共厕所,池泾路与贸易路交叉口西40米,,121.209437,30.892897,,上海市,,上海市,,金山区,,"{'cost': , 'rating': }"
B0FFK5Y0Y4,,公共厕所,公共设施;公共厕所;公共厕所,新农文化街与新农新中路交叉口东40米,,121.207256,30.894017,,上海市,,上海市,,金山区,,"{'cost': , 'rating': }"
B0FFGZW9SR,,公共厕所,公共设施;公共厕所;公共厕所,卫通村5011号,,121.314236,30.765919,,上海市,,上海市,,金山区,,"{'cost': , 'rating': }"
B0FFHLSPNG,,公共厕所,公共设施;公共厕所;公共厕所,亭枫公路2957号,,121.198829,30.892678,,上海市,,上海市,,金山区,,"{'cost': , 'rating': }"
B0FFHLSBQS,,公共厕所,公共设施;公共厕所;公共厕所,松金公路416号,,121.311434,30.756151,,上海市,,上海市,,金山区,,"{'cost': , 'rating': }"
B0FFHEENUQ,,公共厕所,公共设施;公共厕所;公共厕所,沈浦泾南路66号,,121.174889,30.88722,,上海市,,上海市,,金山区,,"{'cost': , 'rating': }"
B0FFHD30NI,,公共厕所,公共设施;公共厕所;公共厕所,芦川新街与朝阳路交叉口西60米,,121.190437,30.73039,,浙江省,,嘉兴市,,平湖市,,"{'cost': , 'rating': }"
B0FFF2RBUB,,公共厕所,公共设施;公共厕所;公共厕所,塘坊街与金家路交叉口东60米,,121.184759,30.732949,,浙江省,,嘉兴市,,平湖市,,"{'cost': , 'rating': }"
B0FFHLSZMD,,公共厕所,公共设施;公共厕所;公共厕所,芦川新街与金家路交叉口东100米,,121.184995,30.732421,,浙江省,,嘉兴市,,平湖市,,"{'cost': , 'rating': }"
B00156GOXK,,沪浙服务区公共厕所,公共设施;公共厕所;公共厕所,G15沈海高速与沪浙服务区交叉口南200米,,121.272863,30.728692,,上海市,,上海市,,金山区,,"{'cost': , 'rating': }"
B0FFHLSPO4,,公共厕所,公共设施;公共厕所;公共厕所,众益街与塘园路交叉口东100米,,121.163051,30.883029,,上海市,,上海市,,金山区,,"{'cost': , 'rating': }"
B0FFGPR28G,,公共厕所,公共设施;公共厕所;公共厕所,金龙新街6131-6138号附近,,121.168671,30.887333,,上海市,,上海市,,金山区,,"{'cost': , 'rating': }"
B0JBGUN13U,,公共厕所,公共设施;公共厕所;公共厕所,金南街与健康南路交叉口东南40米,,121.158884,30.879704,,上海市,,上海市,,金山区,,"{'cost': , 'rating': }"
B0JBNU0B94,,无障碍公共厕所,公共设施;公共厕所;残障洗手间/无障碍洗手间,罗星南路与金龙新街交叉口西北160米,,121.168599,30.887358,,上海市,,上海市,,金山区,,"{'cost': , 'rating': }"
B0KB7HEJ91,,公共厕所,公共设施;公共厕所;公共厕所,芦川新街与建新路交叉口西南120米,,121.185095,30.731298,,浙江省,,嘉兴市,,平湖市,,"{'cost': , 'rating': }"
B0FFF2GMJ4,,公共厕所,公共设施;公共厕所;公共厕所,兴乐街19号,,121.336057,30.846156,,上海市,,上海市,,金山区,,"{'cost': , 'rating': }"
B0FFF2MJ08,,公共厕所,公共设施;公共厕所;公共厕所,高林路西郊新村,,121.335387,30.847042,,上海市,,上海市,,金山区,,"{'cost': , 'rating': }"
B0FFKZO2JX,,公共厕所,公共设施;公共厕所;公共厕所,芦川新街与金家路交叉口西220米,,121.181844,30.732931,,浙江省,,嘉兴市,,平湖市,,"{'cost': , 'rating': }"
B0FFHFLORL,,应急掩蔽场所(罗星南路),公共设施;紧急避难场所;紧急避难场所,罗星南路与金龙新街交叉口西北140米,,121.168626,30.887103,,上海市,,上海市,,金山区,,"{'cost': , 'rating': }"
B0HKOXO1K1,,公共厕所,公共设施;公共厕所;公共厕所,新仓中心小学(新仓校区)西南侧130米,,121.187234,30.728249,,浙江省,,嘉兴市,,平湖市,,"{'cost': , 'rating': }"
B0J1JMK9JT,,公共厕所,公共设施;公共厕所;公共厕所,维也纳酒店(朱泾店)附近,,121.164261,30.886643,,上海市,,上海市,,金山区,,"{'cost': , 'rating': }"
B0H065H5ES,,公共厕所,公共设施;公共厕所;公共厕所,龙珠庄园东南侧50米,,121.135653,30.771537,,浙江省,,嘉兴市,,平湖市,,"{'cost': , 'rating': }"
B00156D2CX,,公共厕所,公共设施;公共厕所;公共厕所,松金公路与亭九路交叉口西北80米,,121.310102,30.881367,,上海市,,上海市,,金山区,,"{'cost': , 'rating': }"
B00156DGWO,,公共厕所,公共设施;公共厕所;公共厕所,亭朱公路185号,,121.337533,30.8483,,上海市,,上海市,,金山区,,"{'cost': , 'rating': }"
B0FFFDMQZD,,肯德基(亭枫店)-洗手间,公共设施;公共厕所;公共厕所,朱泾镇沈浦泾路50号华润万家1层,,121.174691,30.893494,,上海市,,上海市,,金山区,,"{'cost': , 'rating': }"
B023D0PPKC,,公共厕所,公共设施;公共厕所;公共厕所,龙萌村公交站(龙萌公路东),,121.135669,30.770317,,浙江省,,嘉兴市,,平湖市,,"{'cost': , 'rating': }"
B0FFG84F4P,,公共厕所,公共设施;公共厕所;公共厕所,和平南路与寺平南路交叉口西120米,,121.312897,30.880045,,上海市,,上海市,,金山区,,"{'cost': , 'rating': }"
B00157HTB2,,公共厕所,公共设施;公共厕所;公共厕所,西静路1451号,,121.3113,30.743818,,上海市,,上海市,,金山区,,"{'cost': , 'rating': }"
B0FFG8O90K,,公共厕所,公共设施;公共厕所;公共厕所,东林东街与秀江路交叉口东南40米,,121.175192,30.894128,,上海市,,上海市,,金山区,,"{'cost': , 'rating': }"
B023D0PP11,,公共厕所,公共设施;公共厕所;公共厕所,朝阳路新仓中学,,121.189213,30.72609,,浙江省,,嘉兴市,,平湖市,,"{'cost': , 'rating': }"
B001575VUY,,公共厕所,公共设施;公共厕所;公共厕所,寺平南路大寺新村,,121.31364,30.879895,,上海市,,上海市,,金山区,,"{'cost': , 'rating': }"
B0FFLKRKHL,,公共厕所,公共设施;公共厕所;公共厕所,亭林大通路与寺平南路交叉口西100米,,121.312838,30.880737,,上海市,,上海市,,金山区,,"{'cost': , 'rating': }"
B0FFG84ESQ,,公共厕所,公共设施;公共厕所;公共厕所,和平南路与寺平南路交叉口东100米,,121.314739,30.87983,,上海市,,上海市,,金山区,,"{'cost': , 'rating': }"
B0HK2UYJ8H,,无障碍公共厕所,公共设施;公共厕所;公共厕所,朝阳小区(枫叶路)东北侧70米,,121.189218,30.72611,,浙江省,,嘉兴市,,平湖市,,"{'cost': , 'rating': }"
B0FFI17C8X,,公共厕所,公共设施;公共厕所;公共厕所,金展路上海体育学院附属金山亭林中学,,121.317552,30.879198,,上海市,,上海市,,金山区,,"{'cost': , 'rating': }"
B0FFKDU1WI,,公共厕所,公共设施;公共厕所;公共厕所,仓前路新仓镇中心幼儿园,,121.179321,30.730613,,浙江省,,嘉兴市,,平湖市,,"{'cost': , 'rating': }"
B0JDHP306X,,公共厕所,公共设施;公共厕所;公共厕所,龙皓路与学府路交叉口西100米,,121.314459,30.746777,,上海市,,上海市,,金山区,,"{'cost': , 'rating': }"
B0FFHLSPNZ,,公共厕所,公共设施;公共厕所;公共厕所,临仓街朱泾汽车站,,121.169164,30.892781,,上海市,,上海市,,金山区,,"{'cost': , 'rating': }"
B001575VN7,,公共厕所,公共设施;公共厕所;公共厕所,亭林大通路与寺平南路交叉口东20米,,121.314069,30.881094,,上海市,,上海市,,金山区,,"{'cost': , 'rating': }"
B0FFHLT8H4,,公共厕所,公共设施;公共厕所;公共厕所,健康南路与金龙新街交叉口西北40米,,121.158251,30.886218,,上海市,,上海市,,金山区,,"{'cost': , 'rating': }"
B0FFGNUYA7,,公共厕所,公共设施;公共厕所;公共厕所,东林东街与罗中路交叉口东80米,,121.170789,30.893709,,上海市,,上海市,,金山区,,"{'cost': , 'rating': }"
B0IBPMOONJ,,公共厕所,公共设施;公共厕所;公共厕所,中山街与亭林大通路交叉口东南20米,,121.314777,30.880885,,上海市,,上海市,,金山区,,"{'cost': , 'rating': }"
B0FFKEC8W9,,公共厕所,公共设施;公共厕所;公共厕所,枫叶路芦川花苑金星苑,,121.190029,30.724429,,浙江省,,嘉兴市,,平湖市,,"{'cost': , 'rating': }"
B0FFJUW1GE,,公共厕所,公共设施;公共厕所;公共厕所,寺平南路与新建西街交叉口南60米,,121.314115,30.882353,,上海市,,上海市,,金山区,,"{'cost': , 'rating': }"
B0IG4A1YEM,,无障碍公共厕所,公共设施;公共厕所;公共厕所,寺平南路与新建西街交叉口南80米,,121.314112,30.882089,,上海市,,上海市,,金山区,,"{'cost': , 'rating': }"
B0FFF2PVWT,,公共厕所,公共设施;公共厕所;公共厕所,中山街与亭林大通路交叉口北60米,,121.31468,30.881559,,上海市,,上海市,,金山区,,"{'cost': , 'rating': }"
B0FFM5ZA0G,,新仓镇避灾安置中心,公共设施;公共设施;公共设施,金仓花苑东北侧130米,,121.186976,30.725776,,浙江省,,嘉兴市,,平湖市,,"{'cost': , 'rating': }"
B0FFHCBEOS,,公共厕所,公共设施;公共厕所;公共厕所,众安街769号,,121.162544,30.889352,,上海市,,上海市,,金山区,,"{'cost': , 'rating': }"
B0FFGPNWFI,,公共厕所,公共设施;公共厕所;公共厕所,东风路与临仓街交叉口西60米,,121.165409,30.89216,,上海市,,上海市,,金山区,,"{'cost': , 'rating': }"
B0FFF30KKZ,,公共厕所,公共设施;公共厕所;公共厕所,亭林复兴东路与和平东路交叉口东南100米,,121.315728,30.88214,,上海市,,上海市,,金山区,,"{'cost': , 'rating': }"
B0FFHLSS7S,,公共厕所,公共设施;公共厕所;公共厕所,寺平北路111弄68支弄寺平苑(东北门)附近,,121.313013,30.885704,,上海市,,上海市,,金山区,,"{'cost': , 'rating': }"
B0FFF29M9B,,公共厕所,公共设施;公共厕所;公共厕所,红叶路与开乐大街交叉口西南120米,,121.34137,30.848489,,上海市,,上海市,,金山区,,"{'cost': , 'rating': }"
B0I6A1GQV9,,无障碍公共厕所,公共设施;公共厕所;公共厕所,金龙新街与健康南路交叉口西北80米,,121.15775,30.886301,,上海市,,上海市,,金山区,,"{'cost': , 'rating': }"
B0FFF2FULK,,公共厕所,公共设施;公共厕所;公共厕所,罗中路罗星新村-南区,,121.170039,30.89521,,上海市,,上海市,,金山区,,"{'cost': , 'rating': }"
B0FFF32O3S,,公共厕所,公共设施;公共厕所;公共厕所,东林街与朱泾人民路交叉口东100米,,121.167975,30.893605,,上海市,,上海市,,金山区,,"{'cost': , 'rating': }"
B00156YKGY,,公共厕所,公共设施;公共厕所;公共厕所,珠港街146号,,121.342716,30.847241,,上海市,,上海市,,金山区,,"{'cost': , 'rating': }"
B0FFF2C5F9,,公共厕所,公共设施;公共厕所;公共厕所,寺平北路与大慈路交叉口西北120米,,121.313201,30.886783,,上海市,,上海市,,金山区,,"{'cost': , 'rating': }"
B023D0PNAH,,芦川公园-公共厕所,公共设施;公共厕所;公共厕所,朝阳路芦川公园,,121.188455,30.722115,,浙江省,,嘉兴市,,平湖市,,"{'cost': , 'rating': }"
B00155N99T,,公共厕所,公共设施;公共厕所;公共厕所,奔驰路与凯越路交叉口西北40米,,121.297911,30.731916,,上海市,,上海市,,金山区,,"{'cost': , 'rating': }"
B001575X90,,公共厕所,公共设施;公共厕所;公共厕所,亭林复兴东路桃园新村(桃贤路),,121.318615,30.881206,,上海市,,上海市,,金山区,,"{'cost': , 'rating': }"
B0I6P7IYDD,,姚浜村避灾安置点,公共设施;公共设施;公共设施,顺心捷达西侧50米,,121.119522,30.816911,,浙江省,,嘉兴市,,平湖市,,"{'cost': , 'rating': }"
B00156DG25,,公共厕所,公共设施;公共厕所;公共厕所,沈浦泾路与临源街交叉口东南40米,,121.174494,30.899449,,上海市,,上海市,,金山区,,"{'cost': , 'rating': }"
B0K6ODKCVI,,公共厕所,公共设施;公共厕所;公共厕所,仓南路与建新路交叉口东140米,,121.18479,30.723211,,浙江省,,嘉兴市,,平湖市,,"{'cost': , 'rating': }"
B00157HTAR,,公共厕所,公共设施;公共厕所;公共厕所,龙轩路1799号,,121.316905,30.742745,,上海市,,上海市,,金山区,,"{'cost': , 'rating': }"
B0FFGPNWBG,,公共厕所,公共设施;公共厕所;公共厕所,朱泾公园路金山公园内(西侧),,121.161693,30.892049,,上海市,,上海市,,金山区,,"{'cost': , 'rating': }"
B00157HTAR,,公共厕所,公共设施;公共厕所;公共厕所,龙轩路1799号,,121.316905,30.742745,,上海市,,上海市,,金山区,,"{'cost': , 'rating': }"
B0FFGPNWBG,,公共厕所,公共设施;公共厕所;公共厕所,朱泾公园路金山公园内(西侧),,121.161693,30.892049,,上海市,,上海市,,金山区,,"{'cost': , 'rating': }"
B0FFL3USPO,,公共厕所,公共设施;公共厕所;公共厕所,健康南路金山区朱泾镇金玉豪庭,,121.158732,30.889732,,上海市,,上海市,,金山区,,"{'cost': , 'rating': }"
B0JK7UJNNE,,公共厕所,公共设施;公共厕所;公共厕所,红叶路与珠港街交叉口东北40米,,121.342033,30.8476,,上海市,,上海市,,金山区,,"{'cost': , 'rating': }"
B00156GT3D,,公共厕所,公共设施;公共厕所;公共厕所,珠港街148朱行镇文化广播影视服务中心附近,,121.342963,30.849352,,上海市,,上海市,,金山区,,"{'cost': , 'rating': }"
B0FFF080QB,,公共厕所,公共设施;公共厕所;公共厕所,潮阳港公路与洋泾公路交叉口南140米,,121.282126,30.904424,,上海市,,上海市,,松江区,,"{'cost': , 'rating': }"
B0KBRUQNBI,,公共厕所,公共设施;公共厕所;公共厕所,恒顺路151号,,121.340125,30.853472,,上海市,,上海市,,金山区,,"{'cost': , 'rating': }"
B0JGVM4KJE,,无障碍公共厕所,公共设施;公共厕所;公共厕所,沈浦泾路与临源街交叉口东南60米,,121.174508,30.899419,,上海市,,上海市,,金山区,,"{'cost': , 'rating': }"
B0FFF06E75,,公共厕所,公共设施;公共厕所;公共厕所,恒顺路280弄10号,,121.340822,30.85598,,上海市,,上海市,,金山区,,"{'cost': , 'rating': }"
B00156GABE,,公共厕所,公共设施;公共厕所;公共厕所,朱泾人民路汉姆连锁酒店(上海金山朱泾万安街店),,121.166358,30.896293,,上海市,,上海市,,金山区,,"{'cost': , 'rating': }"
B0FFG75TI8,,公共厕所,公共设施;公共厕所;公共厕所,亭卫公路中国石化,,121.352796,30.80674,,上海市,,上海市,,金山区,,"{'cost': , 'rating': }"
B00156GSX7,,公共厕所,公共设施;公共厕所;公共厕所,亭朱公路桃园新村东(好又多生活广场西),,121.321465,30.881416,,上海市,,上海市,,金山区,,"{'cost': , 'rating': }"
B0FFHLSPN9,,公共厕所,公共设施;公共厕所;公共厕所,仓桥街与朱泾城中路交叉口南20米,,121.163186,30.893496,,上海市,,上海市,,金山区,,"{'cost': , 'rating': }"
B0JDCYS593,,公共厕所,公共设施;公共厕所;公共厕所,龙航路与卫零北路交叉口东140米,,121.329268,30.755031,,上海市,,上海市,,金山区,,"{'cost': , 'rating': }"
B0FFHUZP1B,,公共厕所,公共设施;公共厕所;公共厕所,朱泾镇东林街150号东林寺景区内,,121.165228,30.894896,,上海市,,上海市,,金山区,,"{'cost': , 'rating': }"
B0FFIW856H,,公共厕所,公共设施;公共厕所;公共厕所,立新街1号,,121.344318,30.851741,,上海市,,上海市,,金山区,,"{'cost': , 'rating': }"
B00155N8AY,,公共厕所,公共设施;公共厕所;公共厕所,寺北路与寺北陆家路交叉口东南100米,,121.312262,30.890168,,上海市,,上海市,,金山区,,"{'cost': , 'rating': }"
B0I6AA1FYT,,平家潭公共厕所,公共设施;公共厕所;公共厕所,荷花池西北侧240米,,121.217253,30.712619,,浙江省,,嘉兴市,,平湖市,,"{'cost': , 'rating': }"
B0FFF9EDDK,,公共厕所,公共设施;公共厕所;公共厕所,亭枫公路金山亭林汽车站,,121.313595,30.889225,,上海市,,上海市,,金山区,,"{'cost': , 'rating': }"
B00156GBUC,,公共厕所,公共设施;公共厕所;公共厕所,塘西路99旅馆附近,,121.162739,30.895954,,上海市,,上海市,,金山区,,"{'cost': , 'rating': }"
B00156GBUC,,公共厕所,公共设施;公共厕所;公共厕所,塘西路99旅馆附近,,121.162739,30.895954,,上海市,,上海市,,金山区,,"{'cost': , 'rating': }"
B0FFFDUMFJ,,肯德基(朱泾餐厅)-洗手间,公共设施;公共厕所;公共厕所,塘西路99旅馆附近,,121.163025,30.895851,,上海市,,上海市,,金山区,,"{'cost': , 'rating': }"
B0GDRK8ZEB,,公共厕所,公共设施;公共厕所;公共厕所,西静路与南阳湾路交叉口东北20米,,121.31215,30.734996,,上海市,,上海市,,金山区,,"{'cost': , 'rating': }"
B0HKVU7HJM,,无障碍公共厕所,公共设施;公共厕所;公共厕所,朱泾人民路与临源街交叉口西南20米,,121.166746,30.899666,,上海市,,上海市,,金山区,,"{'cost': , 'rating': }"
B0J6NCMN8X,,无障碍公共厕所,公共设施;公共厕所;公共厕所,朱泾城中路与新安街交叉口西100米,,121.162722,30.895942,,上海市,,上海市,,金山区,,"{'cost': , 'rating': }"
B0HA6S8HQU,,公共厕所,公共设施;公共厕所;公共厕所,陆稼书家族祠堂东北侧,,121.1207,30.844579,,浙江省,,嘉兴市,,平湖市,,"{'cost': , 'rating': }"
B0FFF2V5KE,,公共厕所,公共设施;公共厕所;公共厕所,学府路1283弄10号,,121.31807,30.73993,,上海市,,上海市,,金山区,,"{'cost': , 'rating': }"
B0H2OB9655,,公共厕所,公共设施;公共厕所;公共厕所,朱泾公园路288号万安市场2层南座附近,,121.162683,30.895823,,上海市,,上海市,,金山区,,"{'cost': , 'rating': }"
B0FFHLSPKP,,公共厕所,公共设施;公共厕所;公共厕所,建昌路与西门街道交叉口西北60米,,121.302324,30.727929,,上海市,,上海市,,金山区,,"{'cost': , 'rating': }"
B0FFGO9CXZ,,公共厕所,公共设施;公共厕所;公共厕所,卫六路西100米,,121.297737,30.726364,,上海市,,上海市,,金山区,,"{'cost': , 'rating': }"
B0JA4SVHV7,,公共厕所,公共设施;公共厕所;公共厕所,龙轩路1429号,,121.326901,30.746995,,上海市,,上海市,,金山区,,"{'cost': , 'rating': }"
B00157HQBN,,公共厕所,公共设施;公共厕所;公共厕所,广福街与健康路交叉口西120米,,121.157273,30.89397,,上海市,,上海市,,金山区,,"{'cost': , 'rating': }"
B0FFG3WCF3,,公共厕所,公共设施;公共厕所;公共厕所,西林街与健康路交叉口东60米,,121.159195,30.894428,,上海市,,上海市,,金山区,,"{'cost': , 'rating': }"
B0FFF2J1I9,,公共厕所,公共设施;公共厕所;公共厕所,健康路272-274号附近,,121.158744,30.895385,,上海市,,上海市,,金山区,,"{'cost': , 'rating': }"
B00155N871,,公共厕所,公共设施;公共厕所;公共厕所,大慈路与亭升路交叉口东100米,,121.319687,30.88787,,上海市,,上海市,,金山区,,"{'cost': , 'rating': }"
B00156GUAT,,公共厕所,公共设施;公共厕所;公共厕所,杭州湾大道中国石化加油站(龙堰路),,121.338451,30.759775,,上海市,,上海市,,金山区,,"{'cost': , 'rating': }"
B0FFM5ILZY,,公共厕所,公共设施;公共厕所;公共厕所,世外桃源西侧,,121.173341,30.723056,,浙江省,,嘉兴市,,平湖市,,"{'cost': , 'rating': }"
B0FFGO321B,,公共厕所,公共设施;公共厕所;公共厕所,临源街附近,,121.166644,30.899601,,上海市,,上海市,,金山区,,"{'cost': , 'rating': }"
B023D0POSH,,公共厕所,公共设施;公共厕所;公共厕所,振广东路与广中路交叉口东100米,,121.13571,30.750655,,浙江省,,嘉兴市,,平湖市,,"{'cost': , 'rating': }"
B0FFGPNUYV,,公共厕所,公共设施;公共厕所;公共厕所,朱泾万安街与朱泾公园路交叉口东北20米,,121.161629,30.897163,,上海市,,上海市,,金山区,,"{'cost': , 'rating': }"
B0FFJUGMGF,,公共厕所,公共设施;公共厕所;公共厕所,,,121.161607,30.89734,,上海市,,上海市,,金山区,,"{'cost': , 'rating': }"
B0HRDDX14W,,万达广场(上海金山店)-女洗手间,公共设施;公共厕所;公共厕所,龙皓路1088号万达广场F2,,121.334048,30.75427,,上海市,,上海市,,金山区,,"{'cost': , 'rating': }"
B0FFHLHNVW,,女洗手间(万达广场金山店),公共设施;公共厕所;女洗手间,龙皓路1088号万达广场(金山店)1F层,,121.334921,30.754254,,上海市,,上海市,,金山区,,"{'cost': , 'rating': }"
B0FFJN6XWF,,哺乳室(万达广场金山店),公共设施;公共厕所;婴儿换洗间/哺乳室/母婴室,龙皓路1088号万达广场(金山店)2F层,,121.334892,30.754275,,上海市,,上海市,,金山区,,"{'cost': , 'rating': }"
B0FFJN6XWM,,女洗手间(万达广场金山店),公共设施;公共厕所;女洗手间,龙皓路1088号万达广场(金山店)2F层,,121.334933,30.754263,,上海市,,上海市,,金山区,,"{'cost': , 'rating': }"
B0FFJN6XWU,,女洗手间(万达广场金山店),公共设施;公共厕所;女洗手间,龙皓路1088号万达广场(金山店)3F层,,121.335302,30.754816,,上海市,,上海市,,金山区,,"{'cost': , 'rating': }"
B0FFJN6XWE,,哺乳室(万达广场金山店),公共设施;公共厕所;婴儿换洗间/哺乳室/母婴室,龙皓路1088号万达广场(金山店)1F层,,121.334889,30.75428,,上海市,,上海市,,金山区,,"{'cost': , 'rating': }"
B00155N9IY,,公共厕所,公共设施;公共厕所;公共厕所,金山大道4205弄196号,,121.303742,30.725025,,上海市,,上海市,,金山区,,"{'cost': , 'rating': }"
B0FFHLSBPH,,公共厕所,公共设施;公共厕所;公共厕所,南亭公路6000号,,121.329301,30.884082,,上海市,,上海市,,金山区,,"{'cost': , 'rating': }"
B0HRUHFDWI,,万达广场(上海金山店)-男洗手间,公共设施;公共厕所;公共厕所,龙皓路1088号万达广场B1,,121.335962,30.754189,,上海市,,上海市,,金山区,,"{'cost': , 'rating': }"
B0FFJN6XW7,,男洗手间(万达广场),公共设施;公共厕所;男洗手间,龙皓路1088号万达广场(金山店)B1层,,121.335916,30.754176,,上海市,,上海市,,金山区,,"{'cost': , 'rating': }"
B0FFKE7425,,公共厕所,公共设施;公共厕所;公共厕所,秀州街与朱泾人民路交叉口西120米,,121.165718,30.902918,,上海市,,上海市,,金山区,,"{'cost': , 'rating': }"
B0FFGNN11I,,公共厕所,公共设施;公共厕所;公共厕所,卫零北路615号,,121.330641,30.747089,,上海市,,上海市,,金山区,,"{'cost': , 'rating': }"
B0FFM5B2RY,,公共厕所,公共设施;公共厕所;公共厕所,广前路与广中路交叉口西80米,,121.134077,30.747261,,浙江省,,嘉兴市,,平湖市,,"{'cost': , 'rating': }"
B0I6BAJGR8,,无障碍公共厕所,公共设施;公共厕所;公共厕所,凤翔新村58-59号东北侧50米,,121.165665,30.902804,,上海市,,上海市,,金山区,,"{'cost': , 'rating': }"
B0FFKTMM8F,,公共厕所,公共设施;公共厕所;公共厕所,新三路与战斗街交叉口西北20米,,121.205806,30.708118,,浙江省,,嘉兴市,,平湖市,,"{'cost': , 'rating': }"
B0G0P5CTVW,,公共厕所(ZJ-JX-0007),公共设施;公共厕所;公共厕所,战斗街与年丰街交叉口东160米,,121.208802,30.70805,,浙江省,,嘉兴市,,平湖市,,"{'cost': , 'rating': }"
B023D0POZN,,公共厕所,公共设施;公共厕所;公共厕所,振广路与广兴北路交叉口东60米,,121.129254,30.75104,,浙江省,,嘉兴市,,平湖市,,"{'cost': , 'rating': }"
B0FFIMCXZM,,公共厕所,公共设施;公共厕所;男洗手间,蒋庄小区-西区北侧170米,,121.362123,30.808935,,上海市,,上海市,,金山区,,"{'cost': , 'rating': }"
B00155Q6OJ,,公共厕所,公共设施;公共厕所;公共厕所,古城路540号,,121.317848,30.729508,,上海市,,上海市,,金山区,,"{'cost': , 'rating': }"
