id,行业类型,名称,类型,地址,联系电话,lng,lat,省份代码,省份名称,城市代码,城市名称,区域代码,区域名称,所在商圈,rating
B0I6XCD3ZJ,,半日书店(咖啡精酿),购物服务;专卖店;书店,叶城路1128号,18930017319,121.244381,31.362661,,上海市,,上海市,,嘉定区,,"{'cost': , 'rating': '4.2'}"
B0FFJBE265,,Mj·Magical journey(嘉定店),购物服务;专卖店;专营店|生活服务;美容美发店;美容美发店,叶城路1128号中青旅国际酒店一层,021-39530932,121.244632,31.362937,,上海市,,上海市,,嘉定区,,"{'cost': , 'rating': '4.2'}"
B0FFHCFZKB,,喜士多(嘉定淮海国际广场店),购物服务;便民商店/便利店;便民商店/便利店,叶城路1118号嘉定淮海国际广场F1层,021-61817166,121.245,31.362828,,上海市,,上海市,,嘉定区,,"{'cost': , 'rating': '4.3'}"
B0FFIP4NDD,,蓝宫装饰家居文化体验馆,购物服务;家居建材市场;家居建材市场,工业区招贤路666号2号楼3层,021-66901568;13681826735,121.245076,31.3606,,上海市,,上海市,,嘉定区,,"{'cost': , 'rating': '4.5'}"
B0I3MZNUII,,斯文虎眼镜定配设计工作室(嘉福汇商务广场1号楼店),购物服务;专卖店;眼镜店,福海路777弄嘉福汇商务广场1号楼1121,18521051943,121.241276,31.363481,,上海市,,上海市,,嘉定区,,"{'cost': , 'rating': '4.3'}"
B0JGPHKSLS,,古尔犇清真牛羊肉,购物服务;购物相关场所;购物相关场所,古尔犇牛羊肉2201号,021-39900827;18697273924,121.246868,31.360318,,上海市,,上海市,,嘉定区,,"{'cost': , 'rating': '4.5'}"
B0FFFPCUBT,,乡巴佬(永盛路店),购物服务;综合市场;果品市场,招贤路555号,021-39900827;021-69522733;18917360977,121.246981,31.360145,,上海市,,上海市,,嘉定区,,"{'cost': , 'rating': '4.7'}"
B0FFFSYA07,,全家便利店(福海路二店),购物服务;便民商店/便利店;便民商店/便利店,嘉定工业区福海路718号,18721762429,121.243124,31.365395,,上海市,,上海市,,嘉定区,,"{'cost': , 'rating': '4.5'}"
B0HGJAJ2UR,,牛牛宠艺(叶城路店),购物服务;专卖店;宠物用品店,叶城路1438号,16605688845;17621007956,121.238853,31.360342,,上海市,,上海市,,嘉定区,,"{'cost': , 'rating': '4.3'}"
B0FFM9GDU0,,大脚印文画(叶城路校区),购物服务;综合市场;综合市场,嘉定工业区叶城路1500弄红土天阶1号楼,13661660764,121.238085,31.360975,,上海市,,上海市,,嘉定区,,"{'cost': , 'rating': '3.8'}"
B0J21DGYF9,,东之茉莉,购物服务;购物相关场所;购物相关场所,叶城路1500号3号楼101室,18669487958,121.238118,31.360275,,上海市,,上海市,,嘉定区,,"{'cost': , 'rating': '4.4'}"
B0FFFVP3KH,,嘉华门窗装潢(叶城三街坊小区店),购物服务;家居建材市场;建材五金市场,叶城三街坊小区东南门旁,13641809806;18221087041,121.237414,31.363121,,上海市,,上海市,,嘉定区,,"{'cost': , 'rating': '4.1'}"
B0GDFHX1MM,,五粮液专卖店(红土天阶店),购物服务;专卖店;烟酒专卖店,胜辛路2500号,021-59922596;13916617172,121.237475,31.35996,,上海市,,上海市,,嘉定区,,"{'cost': , 'rating': '4.8'}"
B0FFFE77A1,,点爱果业(福海店),购物服务;综合市场;果品市场,福海路397号,13651994866;18321916810,121.247398,31.366747,,上海市,,上海市,,嘉定区,,"{'cost': , 'rating': '4.4'}"
B0JR6DJRJF,,牧场能量,购物服务;购物相关场所;购物相关场所,福海路377号,15900572044,121.24762,31.366827,,上海市,,上海市,,嘉定区,,"{'cost': , 'rating': '4.3'}"
B0FFFRPZ4X,,全家便利店(福海路店),购物服务;便民商店/便利店;便民商店/便利店,嘉定工业区福海路355号,021-39532237;18916975193,121.248083,31.366957,,上海市,,上海市,,嘉定区,,"{'cost': , 'rating': '4.5'}"
B0FFK92HLI,,顺顺鲜果园,购物服务;综合市场;果品市场,工业区福海路356号,18656808999,121.247892,31.367282,,上海市,,上海市,,嘉定区,,"{'cost': , 'rating': '4.3'}"
B0FFFE459Y,,苹果园批发行(福海路店),购物服务;综合市场;果品市场,福海路328号,18653586775,121.248551,31.367501,,上海市,,上海市,,嘉定区,,"{'cost': , 'rating': '4.2'}"
B0FFK3N4PD,,伟昌系统门窗(裕民路店),购物服务;购物相关场所;购物相关场所,裕民路994号,13918397289,121.238692,31.367797,,上海市,,上海市,,嘉定区,,"{'cost': , 'rating': '4.5'}"
B0FFH8JVSF,,晨光文具(福海路店),购物服务;文化用品店;文化用品店,福海路305号(近富蕴路),18001896080,121.249489,31.367569,,上海市,,上海市,,嘉定区,,"{'cost': , 'rating': '4.4'}"
B00155AF5J,,快客(福城店),购物服务;便民商店/便利店;便民商店/便利店,裕民路1172号(胜辛社区卫生服务站东南),021-69961173,121.236028,31.365683,,上海市,,上海市,,嘉定区,,"{'cost': , 'rating': '4.3'}"
B0FFLAIZ3F,,鼎尚果业(叶城五街坊店),购物服务;综合市场;果品市场,嘉定区工业区裕民路1168号,15317316551,121.236002,31.365668,,上海市,,上海市,,嘉定区,,"{'cost': , 'rating': '4.3'}"
B00155L735,,联华超市(福海店),购物服务;超级市场;超市|购物服务;便民商店/便利店;便民商店/便利店,南苑五村18-60号凤池社区南苑五村西区,021-59167864,121.249623,31.367964,,上海市,,上海市,,嘉定区,,"{'cost': , 'rating': '4.5'}"
B0FFJKWOOM,,肉肉宠物生活馆,购物服务;专卖店;宠物用品店,永盛路2755号,15921032325,121.241688,31.369542,,上海市,,上海市,,嘉定区,,"{'cost': , 'rating': '4.3'}"
B0FFICNY6K,,百果园(福海路店),购物服务;综合市场;果品市场,嘉定区工业区福海路280号,021-39947675,121.249853,31.368089,,上海市,,上海市,,嘉定区,,"{'cost': , 'rating': '4.7'}"
B00156YZJ8,,炒货王(凤池社区南苑五村西区店),购物服务;综合市场;果品市场,南苑五村18-60号凤池社区南苑五村西区,13818664441,121.250266,31.368236,,上海市,,上海市,,嘉定区,,"{'cost': , 'rating': '4.5'}"
B0G2M9ZLRU,,蔬菜农贸批发市场,购物服务;综合市场;综合市场,胜辛路2517号,18516550186,121.233919,31.364096,,上海市,,上海市,,嘉定区,,"{'cost': , 'rating': '4.3'}"
B0GULMSK1L,,锅圈食汇火锅烧烤食材超市(福海路店),购物服务;综合市场;农副产品市场,福海路254号,13862575058;15000745478,121.250681,31.368425,,上海市,,上海市,,嘉定区,,"{'cost': , 'rating': '4.2'}"
B00155DG8X,,乡巴佬(富蕴路店),购物服务;综合市场;果品市场,嘉定工业开发区富蕴路南苑二村74号1-2号,021-59530977;021-69522733,121.247241,31.370676,,上海市,,上海市,,嘉定区,,"{'cost': , 'rating': '4.3'}"
B00156E1WB,,胜辛农贸市场,购物服务;综合市场;农副产品市场,胜辛路2517号,17740863495,121.232912,31.364963,,上海市,,上海市,,嘉定区,,"{'cost': , 'rating': '4.5'}"
B00154D8ST,,快客(福海店),购物服务;便民商店/便利店;便民商店/便利店,南苑五村1号-17号凤池社区南苑五村东区,021-69521135,121.251291,31.368732,,上海市,,上海市,,嘉定区,,"{'cost': , 'rating': '4.1'}"
B0FFG69C4S,,老实人水果批发零售,购物服务;综合市场;果品市场,嘉定工业区胜辛路2517号西门菜场b区,13023147898;19982920980,121.233318,31.365088,,上海市,,上海市,,嘉定区,,"{'cost': , 'rating': '4.0'}"
B0JKGUBSJO,,盒马NB(嘉定永盛里店),购物服务;超级市场;超市,沪宜公路3715号,,121.241322,31.371561,,上海市,,上海市,,嘉定区,,"{'cost': , 'rating': '4.7'}"
B0H1USW3NC,,盒马邻里(上海嘉定香溢璟庭店),购物服务;超级市场;超市,洪德路906弄,13260688217,121.248316,31.353117,,上海市,,上海市,,嘉定区,,"{'cost': , 'rating': '4.2'}"
B0FFLFBX0M,,壹号街,购物服务;特色商业街;特色商业街,洪德路与依玛路交叉口西40米,,121.248848,31.352942,,上海市,,上海市,,嘉定区,,"{'cost': , 'rating': '4.6'}"
B0FFG4DN9X,,上海万商灯饰市场,购物服务;家居建材市场;灯具瓷器市场,嘉定工业区回城南路1128号,,121.256034,31.362864,,上海市,,上海市,,嘉定区,,"{'cost': '30000.00', 'rating': '4.7'}"
B0HK9H3AZM,,鸿客隆生鲜超市(壹号街店),购物服务;购物相关场所;购物相关场所,洪德路898号1层906弄,15317554458;17317879345,121.24834,31.352683,,上海市,,上海市,,嘉定区,,"{'cost': , 'rating': '4.4'}"
B0FFH185IM,,嘉定南门冷饮批发部(上海万商灯饰市场店),购物服务;购物相关场所;购物相关场所,回城南路1128号万商灯饰城C区611楼,13585824656;15216744860,121.255601,31.36284,,上海市,,上海市,,嘉定区,,"{'cost': , 'rating': '4.3'}"
B0FFGCBRSI,,嘉定上影广场,购物服务;商场;购物中心,洪德路815弄,021-59903888,121.250217,31.352716,,上海市,,上海市,,嘉定区,,"{'cost': '23035.00', 'rating': '4.7'}"
B0FFK4MKQ0,,地板批发,购物服务;家居建材市场;建材五金市场,回城南路1128号C区40号,18616877886,121.255873,31.361796,,上海市,,上海市,,嘉定区,,"{'cost': , 'rating': '4.1'}"
B0FFK1HGRH,,全家便利店(嘉定上影广场店),购物服务;便民商店/便利店;便民商店/便利店,洪德路815弄嘉定上影商业广场F1,18916975193,121.249655,31.352721,,上海市,,上海市,,嘉定区,,"{'cost': , 'rating': '4.4'}"
B0HKSZVISF,,方太官方授权社区5S店(嘉定西店),购物服务;家居建材市场;厨卫市场,嘉安公路13号一楼,18939767792,121.237688,31.371115,,上海市,,上海市,,嘉定区,,"{'cost': , 'rating': '4.4'}"
B00157HZ01,,嘉定裕民集贸市场,购物服务;综合市场;农副产品市场,嘉定工业区裕民路488号,,121.250116,31.371298,,上海市,,上海市,,嘉定区,,"{'cost': , 'rating': '4.4'}"
B0G2X1OOTQ,,中国石化加油卡销售服务中心,购物服务;专卖店;专营店,胜辛路与洪德路交叉口北140米,,121.242314,31.35146,,上海市,,上海市,,嘉定区,,"{'cost': , 'rating': '4.3'}"
B0GRC5E31S,,昊尚装饰欧派整装大家居(叶城五街坊店),购物服务;家居建材市场;家居建材市场,嘉安公路235-237号,18964972168,121.232877,31.367472,,上海市,,上海市,,嘉定区,,"{'cost': , 'rating': '4.7'}"
B0FFG4J63S,,荣昌门窗配件批发(上海万商灯饰市场店),购物服务;家居建材市场;建材五金市场,回城南路1128号上海万商灯饰市场A区107号,13472840907;13472892359,121.255841,31.363977,,上海市,,上海市,,嘉定区,,"{'cost': , 'rating': '4.3'}"
B0FFG4FT60,,上海筑辉物资有限公司,购物服务;家居建材市场;建材五金市场,工业区回城南路1128弄A区123号,13817289495,121.256338,31.364155,,上海市,,上海市,,嘉定区,,"{'cost': , 'rating': '4.5'}"
B0FFH2S667,,大世界果品批发行(旗舰店),购物服务;综合市场;果品市场,嘉定工业区裕民路420号,13641666451;17740898550,121.251632,31.370822,,上海市,,上海市,,嘉定区,,"{'cost': , 'rating': '4.5'}"
B0FFKQWQZN,,DEVOTION 39度宠物生活馆,购物服务;专卖店;宠物用品店,工业区云谷路1593号,19117302939,121.244647,31.350817,,上海市,,上海市,,嘉定区,,"{'cost': , 'rating': '4.3'}"
B0HDGLNQHV,,比宜德超市(裕民店),购物服务;超级市场;超市,裕民路436号,19121032644,121.252048,31.370656,,上海市,,上海市,,嘉定区,,"{'cost': , 'rating': '4.2'}"
B0015720MR,,捷安特(塔城路店),购物服务;专卖店;自行车专卖店,塔城路777号,18916903658,121.23984,31.373035,,上海市,,上海市,,嘉定区,,"{'cost': , 'rating': '4.6'}"
B0FFF3AVOM,,宏发水果大卖场(塔城路店),购物服务;综合市场;果品市场,嘉定镇塔城路店852号,15900628929;15900926613,121.238457,31.372342,,上海市,,上海市,,嘉定区,,"{'cost': , 'rating': '4.2'}"
B0FFGLB8N4,,小河五金机电,购物服务;家居建材市场;建材五金市场,回城南路1128号上海万商灯饰市场A区616-617,13671894599,121.256876,31.364091,,上海市,,上海市,,嘉定区,,"{'cost': , 'rating': '4.3'}"
B0IALU0NJL,,索菲亚(嘉定欧亚美店),购物服务;购物相关场所;购物相关场所,沪宜公路3518号欧亚美建材市场A区4层4007,19370561459,121.245584,31.373374,,上海市,,上海市,,嘉定区,,"{'cost': , 'rating': '4.5'}"
B00155L8X1,,欧亚美建材家具广场,购物服务;家居建材市场;家具建材综合市场|购物服务;家居建材市场;建材五金市场|购物服务;家居建材市场;家具城,沪宜公路3518号,021-69527777;13901982185;13918434837,121.245481,31.373732,,上海市,,上海市,,嘉定区,,"{'cost': , 'rating': '4.7'}"
B0H2TCNS94,,Morii魔力花屋(新城·香溢澜庭北区店),购物服务;花鸟鱼虫市场;花卉市场,洪德路1139号1106室,17612131150,121.243211,31.350304,,上海市,,上海市,,嘉定区,,"{'cost': , 'rating': '4.7'}"
B0FFG253V6,,马可波罗瓷砖(嘉定欧亚美店),购物服务;家居建材市场;建材五金市场,沪宜公路3518号欧亚美建材家具市场1层1019号展厅,021-59163369;15000505086,121.245932,31.37332,,上海市,,上海市,,嘉定区,,"{'cost': , 'rating': '4.2'}"
B0H3GD4NRM,,丝涟床垫(嘉定欧亚美店),购物服务;家居建材市场;家具城,沪宜公路3518-9号欧亚美建材家具广场A区3层3019,13917220234,121.245429,31.373445,,上海市,,上海市,,嘉定区,,"{'cost': , 'rating': '4.2'}"
B0G1SA89B2,,海尔全屋家居(嘉定欧亚美店),购物服务;购物相关场所;购物相关场所,欧亚美建材家具广场东南门旁,13671598059;15000389660,121.245859,31.373301,,上海市,,上海市,,嘉定区,,"{'cost': , 'rating': '4.1'}"
B0FFG1OXTZ,,TOTO卫浴(沪宜路欧亚美店),购物服务;家居建材市场;厨卫市场,沪宜公路3518上海欧亚美建材家具广场1层,15021158008,121.245584,31.37338,,上海市,,上海市,,嘉定区,,"{'cost': , 'rating': '4.5'}"
B0FFH2UNYL,,顾家家居(沪宜公路欧亚美综合店),购物服务;家居建材市场;家居建材市场,沪宜公路3518号欧亚美A区3楼3010-3011,021-59132872;13585606880;18217066185,121.24554,31.373431,,上海市,,上海市,,嘉定区,,"{'cost': , 'rating': '4.1'}"
B00154D8QI,,联华超市(塔城店),购物服务;超级市场;超市,塔城路802号,021-39910191,121.238749,31.372776,,上海市,,上海市,,嘉定区,,"{'cost': , 'rating': '4.5'}"
B0G2GKJA1E,,乡巴佬(金地·格林春岸塔城路718弄店),购物服务;综合市场;果品市场,塔城路742号,021-69915025;4000861717,121.238888,31.372896,,上海市,,上海市,,嘉定区,,"{'cost': , 'rating': '4.4'}"
B0FFL0XRUE,,圣象地板(嘉定欧亚美店),购物服务;家居建材市场;建材五金市场,沪宜公路3518号嘉定欧亚美2006号,17612171812,121.245555,31.373471,,上海市,,上海市,,嘉定区,,"{'cost': , 'rating': '4.4'}"
B0I0AA7K6P,,新豪轩门窗(上海嘉定店),购物服务;家居建材市场;建材五金市场,沪宜公路3518号欧亚美一楼新豪轩门窗,13929970879,121.245375,31.373722,,上海市,,上海市,,嘉定区,,"{'cost': , 'rating': '4.7'}"
B0FFFFL8EV,,我乐全屋定制(欧亚美A区店),购物服务;家居建材市场;厨卫市场,沪宜公路3518弄欧亚美A区2楼我乐全屋定制,19505686110,121.245326,31.373522,,上海市,,上海市,,嘉定区,,"{'cost': , 'rating': '3.9'}"
B0JKXLQMJE,,龙凤床垫,购物服务;家居建材市场;家具城,西城河南街与沪宜公路交叉口北60米,021-59907082,121.245403,31.373513,,上海市,,上海市,,嘉定区,,"{'cost': , 'rating': '3.9'}"
B0FFK753PO,,TATA木门(嘉定欧亚美店),购物服务;家居建材市场;建材五金市场,沪宜公路3518号欧亚美建材馆2楼,13067510006,121.245538,31.373703,,上海市,,上海市,,嘉定区,,"{'cost': , 'rating': '4.5'}"
B0FFFFJJ60,,安信地板(欧亚美建材家具广场店),购物服务;家居建材市场;建材五金市场,沪宜公路3518-9号上海欧亚美建材家具广场2层,021-69919217,121.245474,31.373522,,上海市,,上海市,,嘉定区,,"{'cost': , 'rating': '4.1'}"
B0FFK6LGWW,,全家便利店(塔城路三店),购物服务;便民商店/便利店;便民商店/便利店,金地·格林春岸东南2门旁,,121.239034,31.373011,,上海市,,上海市,,嘉定区,,"{'cost': , 'rating': '4.5'}"
B0G2BCB1AD,,欧派家居(嘉定区衣柜店),购物服务;家居建材市场;家居建材市场,沪宜公路3518号欧亚美四楼4012欧派衣柜,2032788313,121.245535,31.373662,,上海市,,上海市,,嘉定区,,"{'cost': , 'rating': '4.4'}"
B0FFHXLFO4,,嘉赵开锁换锁.锁具超市.换装指纹锁.配钥匙,购物服务;家居建材市场;建材五金市场|生活服务;生活服务场所;生活服务场所,塔城路761-2号,021-59166993;18918816689,121.240428,31.373516,,上海市,,上海市,,嘉定区,,"{'cost': , 'rating': '4.7'}"
B0IB1AGXTV,,兴隆脚手架出租·移动脚手架搭建批发零售(上海万商灯饰市场店),购物服务;家居建材市场;建材五金市场,回城南路1128号万商灯饰城D区718-719,15121127372,121.257525,31.362887,,上海市,,上海市,,嘉定区,,"{'cost': , 'rating': '4.7'}"
B0J0V5WOQY,,伊盾门窗(嘉定旗舰店),购物服务;家居建材市场;建材五金市场,沪宜公路3518号欧亚美A区二楼2072,15618181156,121.245449,31.373775,,上海市,,上海市,,嘉定区,,"{'cost': , 'rating': '4.6'}"
B0K697M7Z2,,COLNAGO梅花自行车上海旗舰店,购物服务;专卖店;自行车专卖店,洪德路228号1号楼1层商铺(福利彩票对面),17601479666,121.256023,31.356103,,上海市,,上海市,,嘉定区,,"{'cost': , 'rating': '4.6'}"
B0FFIGI9V0,,东鹏瓷砖(嘉定旗舰店),购物服务;家居建材市场;建材五金市场,沪宜公路3518号1楼1055号,021-59595677;13661472366;13916085677,121.245454,31.373649,,上海市,,上海市,,嘉定区,,"{'cost': , 'rating': '4.1'}"
B0FFHC8OVB,,喜临门寝具(欧亚美建材家具广场店),购物服务;家居建材市场;家具城,沪宜公路3518号欧亚美建材家具广场,18217059165,121.245293,31.373747,,上海市,,上海市,,嘉定区,,"{'cost': , 'rating': '4.1'}"
B0FFGXSYR4,,萌汪族宠物生活馆,购物服务;专卖店;宠物用品店,嘉定镇街道沪宜公路3883-3号,13641788555,121.23644,31.371972,,上海市,,上海市,,嘉定区,,"{'cost': , 'rating': '4.1'}"
B0KGPS1BCP,,XDS喜德盛自行车(嘉定西云楼店),购物服务;专卖店;自行车专卖店,洪德路388号1号楼2号店铺(巴黎贝甜后门),17601479666,121.255923,31.355899,,上海市,,上海市,,嘉定区,,"{'cost': , 'rating': '4.6'}"
B0JDDAT3EY,,派雅门窗(上海嘉定店),购物服务;家居建材市场;建材五金市场,市辖区沪宜公路3518号欧亚美建材家具广场A区1033,18924230428,121.245538,31.373703,,上海市,,上海市,,嘉定区,,"{'cost': , 'rating': '4.3'}"
B0J6A4WF20,,全友全屋定制(嘉定旗舰店),购物服务;家居建材市场;家居建材市场,沪宜公路3518号欧亚美商场A区二楼2055号,021-60822098;13681976706,121.245466,31.373732,,上海市,,上海市,,嘉定区,,"{'cost': , 'rating': '4.4'}"
B0G0ZAYJ6W,,上海坚美定制门窗工厂直营店(欧亚美建材家具广场店),购物服务;家居建材市场;建材五金市场,沪宜公路3518-9号欧亚美建材家具广场2楼2066,13817490759,121.245248,31.373746,,上海市,,上海市,,嘉定区,,"{'cost': , 'rating': '3.9'}"
B0FFG27FTV,,德国高仪(嘉定欧亚美店),购物服务;家居建材市场;建材五金市场,沪宜公路3518号1017展厅,021-69910902,121.245468,31.373723,,上海市,,上海市,,嘉定区,,"{'cost': , 'rating': '4.0'}"
B0FFFEX2YN,,摩恩(沪宜公路欧亚美店),购物服务;家居建材市场;厨卫市场,沪宜公路3518号欧亚美建材市场1018,13918347652,121.245318,31.373746,,上海市,,上海市,,嘉定区,,"{'cost': , 'rating': '4.2'}"
B0FFFOGNSD,,诺贝尔瓷砖(欧亚美店),购物服务;家居建材市场;建材五金市场,沪宜公路3518-9号上海欧亚美建材家具广场1层,021-69919179;13524703190;18930354861,121.24535,31.373817,,上海市,,上海市,,嘉定区,,"{'cost': , 'rating': '4.4'}"
B0FFJZERS5,,芳菲予余(嘉定新城西云楼店),购物服务;花鸟鱼虫市场;花卉市场,洪德路288弄西云楼1号楼113,18101613850,121.25612,31.356236,,上海市,,上海市,,嘉定区,,"{'cost': , 'rating': '4.3'}"
B0G2TA2C3E,,开勒车业,购物服务;专卖店;自行车专卖店,裕民路168号,17321293859,121.257291,31.364997,,上海市,,上海市,,嘉定区,,"{'cost': , 'rating': '4.3'}"
B0JUMH5GJC,,轩尼斯门窗(上海嘉定旗舰店),购物服务;家居建材市场;建材五金市场,沪宜公路3518号欧亚美A区1楼1030,15021821785;15721259569,121.245346,31.373864,,上海市,,上海市,,嘉定区,,"{'cost': , 'rating': '4.3'}"
B0J355T9LE,,小牛电动(塔城路店),购物服务;购物相关场所;购物相关场所,塔城路753号,18017127585,121.240837,31.373868,,上海市,,上海市,,嘉定区,,"{'cost': , 'rating': '4.6'}"
B0FFK4GMXJ,,松下集成吊顶(欧亚美建材家具广场店),购物服务;家居建材市场;建材五金市场,沪宜公路3518-9号1层1016室,13621926443,121.245282,31.373966,,上海市,,上海市,,嘉定区,,"{'cost': , 'rating': '3.8'}"
B0FFIZAZ8S,,德爱威功能涂料旗舰店,购物服务;购物相关场所;购物相关场所,沪宜公路3518号欧亚美建材家具广场B区3楼320,18117564947,121.246247,31.37386,,上海市,,上海市,,嘉定区,,"{'cost': , 'rating': '4.0'}"
B0J3HCHS5U,,绿源电动车(塔城路店),购物服务;专卖店;自行车专卖店,"城区塔城路751-1,751-2号",17321028803;18016450678,121.240916,31.373936,,上海市,,上海市,,嘉定区,,"{'cost': , 'rating': '4.7'}"
B0J3412YE6,,YPQSNKR潮流买手店,购物服务;服装鞋帽皮具店;服装鞋帽皮具店,西云楼2号楼步行街,17521798179,121.256385,31.356201,,上海市,,上海市,,嘉定区,,"{'cost': , 'rating': '4.0'}"
B0H3MA92X9,,一拍即合宠物空间站(嘉定新城西云楼店),购物服务;专卖店;宠物用品店,洪德路382-384号,021-59995066,121.256451,31.356085,,上海市,,上海市,,嘉定区,,"{'cost': , 'rating': '4.5'}"
B0J2UBIKFQ,,Baby宠物(西云楼店),购物服务;专卖店;宠物用品店,西云楼362号,13061769520,121.256704,31.356474,,上海市,,上海市,,嘉定区,,"{'cost': , 'rating': '4.0'}"
B00157I58T,,旭清茶叶,购物服务;专卖店;专营店,塔城路600号11号,021-59521119,121.239691,31.373847,,上海市,,上海市,,嘉定区,,"{'cost': , 'rating': '4.1'}"
B0FFFFUYQC,,嘉大线缆五金店,购物服务;家居建材市场;建材五金市场,福海路94号,021-59165778;13917805677,121.25463,31.370266,,上海市,,上海市,,嘉定区,,"{'cost': , 'rating': '4.5'}"
B0FFIKJIBO,,专爱花店,购物服务;花鸟鱼虫市场;花卉市场,嘉定工业区福海路96号,18351080711,121.25456,31.370225,,上海市,,上海市,,嘉定区,,"{'cost': , 'rating': '4.5'}"
B0J0NS3WOW,,永盛里商业街区(装修中),购物服务;特色商业街;特色商业街,中国工商银行(永盛路支行)对面,,121.241884,31.370075,,上海市,,上海市,,嘉定区,,"{'cost': , 'rating': '4.7'}"
B0FFL2LFPZ,,胜辛集贸市场,购物服务;综合市场;综合市场,胜辛路2588、2596、2598号,13641700731,121.231749,31.369269,,上海市,,上海市,,嘉定区,,"{'cost': , 'rating': '4.6'}"
B0FFFFTHOP,,联华(洪德路店),购物服务;超级市场;超市,洪德路1269号,021-61492895,121.241346,31.349534,,上海市,,上海市,,嘉定区,,"{'cost': , 'rating': '4.2'}"
B0H0K1RPQR,,鲜丰水果(上海洪德路店),购物服务;综合市场;果品市场,洪德路1280弄23号,4008819090,121.240608,31.349664,,上海市,,上海市,,嘉定区,,"{'cost': , 'rating': '4.2'}"
B0I2BAVO7O,,中国移动,购物服务;家电电子卖场;手机销售,怡景花园西北门旁,13916910080,121.254883,31.370424,,上海市,,上海市,,嘉定区,,"{'cost': , 'rating': '4.5'}"
B0JDV5WM8C,,阳澄湖大闸蟹(嘉定直销店),购物服务;综合市场;水产海鲜市场,福海路80号,15801737973,121.25481,31.370371,,上海市,,上海市,,嘉定区,,"{'cost': , 'rating': '4.4'}"
B0FFJ8OGBF,,张太和(嘉定新城西云楼店),购物服务;购物相关场所;购物相关场所,洪德路340号,021-59177056,121.25739,31.356518,,上海市,,上海市,,嘉定区,,"{'cost': '21.00', 'rating': '4.6'}"
B0I65H7OK4,,锅圈食汇火锅烧烤超市(洪德路店),购物服务;购物相关场所;购物相关场所,洪德路346号1层,17316596363,121.25724,31.356417,,上海市,,上海市,,嘉定区,,"{'cost': , 'rating': '4.1'}"
B0FFIPDWLW,,香溢风情街,购物服务;特色商业街;特色商业街,云谷路与高台路交叉口西40米,,121.245686,31.348925,,上海市,,上海市,,嘉定区,,"{'cost': , 'rating': '4.2'}"
B0FFK5VWHK,,西云楼深夜食街(嘉定新城西云楼店),购物服务;特色商业街;特色商业街,马陆镇洪德路228号,021-39556933,121.257759,31.356662,,上海市,,上海市,,嘉定区,,"{'cost': , 'rating': '4.4'}"
B0J1KG3T1A,,绿色生活优选店,购物服务;购物相关场所;购物相关场所,福海路64号,18918795079,121.255092,31.370535,,上海市,,上海市,,嘉定区,,"{'cost': , 'rating': '4.4'}"
B0FFGH49T6,,嘉定新城西云楼,购物服务;特色商业街;特色商业街,洪德路194号附近,,121.258829,31.357603,,上海市,,上海市,,嘉定区,,"{'cost': , 'rating': '4.7'}"
B001570UJJ,,中国联通,购物服务;家电电子卖场;手机销售,福海路38-42号,021-60835344,121.255434,31.370734,,上海市,,上海市,,嘉定区,,"{'cost': , 'rating': '4.4'}"
B0IA6CDD0I,,名创优品(嘉定新城西云楼店),购物服务;便民商店/便利店;便民商店/便利店,洪德路220号新城西云楼002号临街店铺,13645335343,121.258633,31.357354,,上海市,,上海市,,嘉定区,,"{'cost': , 'rating': '4.6'}"
B0HB4U9YBI,,居观家全屋定制(洪德路店),购物服务;家居建材市场;家居建材市场,洪德路288弄5号楼101-103室,021-39531516,121.258324,31.356902,,上海市,,上海市,,嘉定区,,"{'cost': , 'rating': '4.3'}"
B0FFL822RA,,全家便利店(嘉定新城西云楼店),购物服务;便民商店/便利店;便民商店/便利店,洪德路308号,13681817822,121.258538,31.356988,,上海市,,上海市,,嘉定区,,"{'cost': , 'rating': '4.7'}"
B0FFKZPMG2,,花都荟,购物服务;商场;普通商场,城中路2号,021-59903610,121.252853,31.373897,,上海市,,上海市,,嘉定区,,"{'cost': , 'rating': '4.5'}"
B0FFFSUPCU,,百有五金,购物服务;家居建材市场;建材五金市场,福海路28号,021-59169876,121.255692,31.370884,,上海市,,上海市,,嘉定区,,"{'cost': , 'rating': '4.1'}"
B0FFHI7GZE,,乡巴佬(福海路店),购物服务;综合市场;果品市场|购物服务;综合市场;农副产品市场,福海路16-18号,021-69915107,121.255767,31.370929,,上海市,,上海市,,嘉定区,,"{'cost': , 'rating': '4.3'}"
B0HR3UDN81,,绿源电动车(嘉定福海路零售门店),购物服务;专卖店;自行车专卖店,工业区福海路20号,18001648899,121.255739,31.370932,,上海市,,上海市,,嘉定区,,"{'cost': , 'rating': '4.5'}"
B0FFJ3PRSU,,京东便利店(高台路店),购物服务;便民商店/便利店;便民商店/便利店,嘉定工业区高台路1317号(白银路地铁站1号口步行470米),021-59107078;15021263610;18221752289,121.245592,31.348358,,上海市,,上海市,,嘉定区,,"{'cost': , 'rating': '4.5'}"
B0FFGJT0CP,,嘉定旧货店,购物服务;综合市场;旧货市场,嘉丰路80号,13024159292;13916005658,121.234726,31.373271,,上海市,,上海市,,嘉定区,,"{'cost': , 'rating': '4.4'}"
B0FFGJT0CP,,嘉定旧货店,购物服务;综合市场;旧货市场,嘉丰路80号,13024159292;13916005658,121.234726,31.373271,,上海市,,上海市,,嘉定区,,"{'cost': , 'rating': '4.4'}"
B0FFG6WH4N,,爱婴室(白银路地铁站上海布栖尔遇酒店店),购物服务;专卖店;儿童用品店,高台路1315号,021-59108552;18721652006,121.245721,31.348368,,上海市,,上海市,,嘉定区,,"{'cost': , 'rating': '4.4'}"
B00156F2RD,,全家便利店(绿地嘉创国际商务广场店),购物服务;便民商店/便利店;便民商店/便利店,沪宜公路3109号,021-39541931;18221084239,121.257857,31.368876,,上海市,,上海市,,嘉定区,,"{'cost': , 'rating': '4.6'}"
B0FFFFS45Q,,米素软装·窗帘墙布背景墙·定制柜,购物服务;家居建材市场;建材五金市场|购物服务;家居建材市场;布艺市场,沪宜公路3121号,021-59903089;17898815598,121.257543,31.369411,,上海市,,上海市,,嘉定区,,"{'cost': , 'rating': '4.3'}"
B00155B5IB,,少仁电动车维修部,购物服务;专卖店;自行车专卖店|生活服务;维修站点;维修站点,沪宜公路3129号少仁车行电动车维修,13761835338,121.257212,31.369755,,上海市,,上海市,,嘉定区,,"{'cost': , 'rating': '4.1'}"
B0FFKDWWN6,,东方雨虹雨虹防水4S维修服务(沪宜公路店),购物服务;家居建材市场;建材五金市场,沪宜公路3123号,15202158878,121.257396,31.369538,,上海市,,上海市,,嘉定区,,"{'cost': , 'rating': '4.3'}"
B0FFI4L9XV,,华为授权体验店(花都荟购物广场店),购物服务;家电电子卖场;手机销售,城中路2号花都荟1楼,,121.252952,31.373516,,上海市,,上海市,,嘉定区,,"{'cost': , 'rating': '4.3'}"
B00155EW56,,时代灯饰(民乐路),购物服务;家居建材市场;灯具瓷器市场,沪宜公路3121号,021-69523400,121.257509,31.369425,,上海市,,上海市,,嘉定区,,"{'cost': , 'rating': '4.3'}"
B0FFKT5ZV0,,诺柯视眼镜-蔡司官方专营(西云楼店),购物服务;专卖店;眼镜店,洪德路254号(裕民南路),021-66180108;13162368057,121.259599,31.35754,,上海市,,上海市,,嘉定区,,"{'cost': , 'rating': '4.9'}"
B0G0KKOUZJ,,诺柯视眼镜-蔡司官方专营(城中路花都荟店),购物服务;专卖店;眼镜店,城中路2号1幢(近沪宜公路)1层嘉定南门盒马鲜生一楼中庭,021-66180108;13262833702,121.253133,31.373797,,上海市,,上海市,,嘉定区,,"{'cost': , 'rating': '4.7'}"
B00156CLRE,,苏宁易购,购物服务;家电电子卖场;数码电子,沪宜公路3188号,19145449035,121.257667,31.369978,,上海市,,上海市,,嘉定区,,"{'cost': , 'rating': '4.4'}"
B00155DIL2,,永乐生活电器(嘉定店),购物服务;家电电子卖场;综合家电商场|购物服务;家电电子卖场;数码电子,沪宜公路3158号(近福海路),021-59168888,121.258591,31.368903,,上海市,,上海市,,嘉定区,,"{'cost': , 'rating': '4.7'}"
B0I2RUUT7T,,京东家电(嘉定城区专卖店),购物服务;家电电子卖场;数码电子,沪宜公路3168号,13764035360,121.257851,31.369775,,上海市,,上海市,,嘉定区,,"{'cost': , 'rating': '4.5'}"
B0FFH7FR1V,,nice宠物(德富路店),购物服务;专卖店;宠物用品店,德富路1382号,15800561382,121.255798,31.351857,,上海市,,上海市,,嘉定区,,"{'cost': , 'rating': '4.7'}"
B0HBBZ0U1J,,捷安特(白银路店),购物服务;专卖店;自行车专卖店,白银路800号,15921498246,121.247613,31.347659,,上海市,,上海市,,嘉定区,,"{'cost': , 'rating': '4.7'}"
B0FFKP9WX8,,雅迪电动车(嘉定南门店),购物服务;专卖店;自行车专卖店,沪宜公路3188号,021-59162097;13916041688,121.257,31.370762,,上海市,,上海市,,嘉定区,,"{'cost': , 'rating': '4.5'}"
B0FFLBT7XN,,盒马鲜生(城中店),购物服务;超级市场;超市,城中路2号花都荟2层,4008288477;9510217,121.253856,31.373953,,上海市,,上海市,,嘉定区,,"{'cost': , 'rating': '4.9'}"
B0FFG74GDW,,联华超市(星海屿店),购物服务;便民商店/便利店;便民商店/便利店,白银路560弄1号,021-59102282;16601895080,121.255523,31.351517,,上海市,,上海市,,嘉定区,,"{'cost': , 'rating': '4.6'}"
B0FFHWNAPH,,戴森(永乐嘉定店),购物服务;家电电子卖场;家电电子卖场,沪宜公路3158号永乐电器一楼dyson,15821344853,121.258576,31.368957,,上海市,,上海市,,嘉定区,,"{'cost': , 'rating': '4.0'}"
B0G355V0M4,,罗森便利店(云谷路店),购物服务;便民商店/便利店;便民商店/便利店,马陆镇云谷路龙湖蔚澜香醍云谷路1388弄1号103,4008206390,121.246961,31.347579,,上海市,,上海市,,嘉定区,,"{'cost': , 'rating': '4.4'}"
B0I6BXZ83Y,,周大福(嘉定新城西云楼店),购物服务;专卖店;珠宝首饰工艺品,洪德路244-1号西云楼,021-59988398;18621670250;4001669999,121.260028,31.357694,,上海市,,上海市,,嘉定区,,"{'cost': , 'rating': '4.2'}"
B0JUZZ2ZN8,,猫幸心·猫咪售卖·猫咪洗护,购物服务;购物相关场所;购物相关场所,白银路928弄5号103(白银路地铁站1号口步行340米),18017505819,121.246279,31.347443,,上海市,,上海市,,嘉定区,,"{'cost': , 'rating': '4.4'}"
B0FFLB78XE,,美的智慧家(嘉定镇街道翔珏美的旗舰店),购物服务;家电电子卖场;家电电子卖场,嘉定镇街道白银路548号,15301668917,121.255029,31.350802,,上海市,,上海市,,嘉定区,,"{'cost': , 'rating': '4.4'}"
B0H2DSD7WD,,宏扬电脑维修(白银路店),购物服务;家电电子卖场;数码电子,白银路928弄1号106-2宏扬电脑,15021159525,121.245992,31.347295,,上海市,,上海市,,嘉定区,,"{'cost': , 'rating': '4.5'}"
B0JKFAU5FW,,萌咔PET'S(白银路店),购物服务;专卖店;宠物用品店,白银路928弄5号102室,17765108813,121.246314,31.34733,,上海市,,上海市,,嘉定区,,"{'cost': , 'rating': '4.4'}"
B0FFJPTWXT,,华为合作店(洪德路),购物服务;家电电子卖场;手机销售,洪德路234号,13162999517,121.26041,31.35784,,上海市,,上海市,,嘉定区,,"{'cost': , 'rating': '4.5'}"
B0HGSA3L79,,西云楼商业街(嘉定新城西云楼店),购物服务;特色商业街;特色商业街,洪德路228号,021-59511168,121.260986,31.358116,,上海市,,上海市,,嘉定区,,"{'cost': , 'rating': '4.5'}"
B0FFG49XPD,,恒洁卫浴(嘉定专卖店),购物服务;家居建材市场;厨卫市场,嘉定工业区沪宜公路3158-3188号(沪宜公路叶城路)上海装修市场,021-59946673,121.258468,31.369656,,上海市,,上海市,,嘉定区,,"{'cost': , 'rating': '4.4'}"
B0J2RMFB3V,,美利达MERIDA自行车(嘉定新城店),购物服务;专卖店;自行车专卖店,白银路942号(白银路地铁站1号口步行330米),13032118068,121.245916,31.346955,,上海市,,上海市,,嘉定区,,"{'cost': , 'rating': '4.8'}"
B0I69U5X48,,罗森(嘉定新城西云楼店),购物服务;便民商店/便利店;便民商店/便利店,洪德路228号西云楼商业街(嘉定新城西云楼店),13122957075,121.260312,31.357828,,上海市,,上海市,,嘉定区,,"{'cost': , 'rating': '4.1'}"
B00154D5GY,,上海装修市场,购物服务;家居建材市场;建材五金市场|购物服务;综合市场;综合市场|生活服务;生活服务场所;生活服务场所,嘉定工业区沪宜公路3158-3188号(沪宜公路叶城路),021-59162486,121.258869,31.370132,,上海市,,上海市,,嘉定区,,"{'cost': , 'rating': '4.7'}"
B0HRXSSBIJ,,盒马邻里(上海嘉定白银路店),购物服务;超级市场;超市,白银路928弄1号401(白银路地铁站1号口步行300米),9510217,121.246017,31.347259,,上海市,,上海市,,嘉定区,,"{'cost': , 'rating': '4.3'}"
B0FFG49Z6G,,安华卫浴(民乐路店),购物服务;家居建材市场;厨卫市场,嘉定工业区沪宜公路3158-3号188号(1号门与2号门之间),13917144669,121.258395,31.36979,,上海市,,上海市,,嘉定区,,"{'cost': , 'rating': '4.1'}"
B0015729LA,,绿地嘉尚国际广场,购物服务;商场;购物中心,沪宜公路3128号,18001701778,121.260335,31.367886,,上海市,,上海市,,嘉定区,,"{'cost': , 'rating': '4.7'}"
B0FFIFITJD,,全家(德富路店),购物服务;便民商店/便利店;便民商店/便利店,嘉定工业区阳光城新界德富路,021-39947076;13564096008,121.256148,31.351349,,上海市,,上海市,,嘉定区,,"{'cost': , 'rating': '4.6'}"
B0FFI1T93N,,吾悦·金郡坊,购物服务;商场;商场,云屏路与高台路交叉口东南120米,,121.243148,31.346504,,上海市,,上海市,,嘉定区,,"{'cost': , 'rating': }"
B0I6YAP5YY,,一冠装潢&维意定制,购物服务;家居建材市场;建材五金市场,沪宜公路3084-3086号,13817950818,121.260961,31.365935,,上海市,,上海市,,嘉定区,,"{'cost': , 'rating': '4.9'}"
B0FFF2SYO9,,上海如海(绿地嘉尚国际广场店),购物服务;超级市场;超市,嘉定工业区沪宜公路3148号,021-59160252;15216886604,121.260176,31.36742,,上海市,,上海市,,嘉定区,,"{'cost': , 'rating': '4.4'}"
B0FFFFYAC6,,联华超市(裕民店),购物服务;超级市场;超市,马陆镇裕民南路1699号,,121.260729,31.357521,,上海市,,上海市,,嘉定区,,"{'cost': , 'rating': '4.3'}"
B0HDRPQ4NW,,清美鲜家(白银路店),购物服务;专卖店;专营店,龙湖·蔚澜香醍南区西北门旁(白银路地铁站1号口步行440米),18301911139;18916165245,121.248142,31.347216,,上海市,,上海市,,嘉定区,,"{'cost': , 'rating': '4.5'}"
B0HDRPQ4NW,,清美鲜家(白银路店),购物服务;专卖店;专营店,龙湖·蔚澜香醍南区西北门旁(白银路地铁站1号口步行440米),18301911139;18916165245,121.248142,31.347216,,上海市,,上海市,,嘉定区,,"{'cost': , 'rating': '4.5'}"
B0FFH9U9QC,,乡巴佬(龙湖·蔚澜香醍南区店),购物服务;综合市场;果品市场,白银路847号(白银路地铁站1号口步行350米),021-59107017,121.247444,31.34685,,上海市,,上海市,,嘉定区,,"{'cost': , 'rating': '4.3'}"
B0JDA162S1,,迎瑞眼镜(白银店),购物服务;专卖店;眼镜店,云屏路1542号1层,13774299853,121.242627,31.346596,,上海市,,上海市,,嘉定区,,"{'cost': , 'rating': '4.3'}"
B0H05LH20Z,,baby宠物(吾悦·金郡坊店),购物服务;专卖店;宠物用品店,云屏路1532号(白银路地铁站2号口步行370米),15371236234,121.242706,31.346452,,上海市,,上海市,,嘉定区,,"{'cost': , 'rating': '4.5'}"
B0J0DCPD01,,盒马NB嘉定西云楼店,购物服务;超级市场;超市,裕民南路1708号(西云楼22号楼),,121.261371,31.357377,,上海市,,上海市,,嘉定区,,"{'cost': , 'rating': '4.6'}"
B00155FAPJ,,云之飞装潢(嘉定旗舰店),购物服务;家居建材市场;建材五金市场,塔城路461号(上海大学西侧),021-59529452,121.245213,31.377685,,上海市,,上海市,,嘉定区,,"{'cost': , 'rating': '4.6'}"
B0HAOZHC0N,,罗森(塔城路463号店),购物服务;便民商店/便利店;便民商店/便利店,上海市上海市嘉定区,021-69106989;15301997837;4008206390,121.24517,31.377647,,上海市,,上海市,,嘉定区,,"{'cost': , 'rating': '4.5'}"
B0G0V5LRT4,,华硕电脑·打印机·销售维修(嘉定城中店),购物服务;家电电子卖场;数码电子,城中路25-2号,021-59522924;13482589149,121.252752,31.376062,,上海市,,上海市,,嘉定区,,"{'cost': , 'rating': '4.9'}"
B0FFHLN113,,多乐士(沪宜公路店),购物服务;家居建材市场;建材五金市场,沪宜公路3158号装饰市场22幢18-19号,18616794888,121.25914,31.370624,,上海市,,上海市,,嘉定区,,"{'cost': , 'rating': '4.2'}"
B0FFJDS1N7,,荟品仓(嘉定仓),购物服务;购物相关场所;购物相关场所,马陆镇白银路288号莘潮国际家居B1层,13248248586,121.260093,31.353099,,上海市,,上海市,,嘉定区,,"{'cost': , 'rating': '4.6'}"
B0FFHSRGH0,,戴尔(城中路店),购物服务;家电电子卖场;数码电子,城中路25号-7室,17317553766,121.252916,31.375866,,上海市,,上海市,,嘉定区,,"{'cost': , 'rating': '4.6'}"
B0G0DA8LJ7,,莘潮国际家居(嘉定店),购物服务;家居建材市场;家居建材市场,白银路288弄,021-59102787;021-59103766,121.260095,31.353101,,上海市,,上海市,,嘉定区,,"{'cost': , 'rating': '4.5'}"
B0FFFFS85B,,上海永久电动车(清河路453弄小区店),购物服务;专卖店;自行车专卖店,菊园新区管委会清河路436号,021-69917493,121.234497,31.375823,,上海市,,上海市,,嘉定区,,"{'cost': , 'rating': '3.9'}"
B0HKRANRXS,,爱玛电动车,购物服务;专卖店;专营店,沪宜公路4527号,15801965886,121.226436,31.368433,,上海市,,上海市,,嘉定区,,"{'cost': , 'rating': '4.7'}"
B0FFGY6RGO,,丫丫窗帘布艺生活馆,购物服务;家居建材市场;布艺市场,菊园新区管委会沪宜公路4532号胜辛路西翔嘉广场二号馆二楼208-210,13917782586,121.226646,31.369187,,上海市,,上海市,,嘉定区,,"{'cost': , 'rating': '4.1'}"
B0FFHHO3RK,,上海王平电动工具五金店,购物服务;家居建材市场;建材五金市场,沪宜公路4532号一号楼113-115,13817531987,121.226358,31.368827,,上海市,,上海市,,嘉定区,,"{'cost': , 'rating': '4.4'}"
B0FFGVUL8K,,惠民新城金郡集贸市场,购物服务;综合市场;综合市场,新成路街道崇信路1531号,13764178397;15026902188,121.240052,31.345712,,上海市,,上海市,,嘉定区,,"{'cost': , 'rating': '4.6'}"
B0FFG94XBF,,乡巴佬(阿克苏路店),购物服务;综合市场;果品市场,阿克苏路1363号,021-59107007,121.258604,31.350768,,上海市,,上海市,,嘉定区,,"{'cost': , 'rating': '4.6'}"
B0G1TCWFWX,,极家精装(嘉定店),购物服务;家居建材市场;家居建材市场,裕民南路1518弄新地国际广场2楼,4006772677,121.262286,31.355188,,上海市,,上海市,,嘉定区,,"{'cost': , 'rating': '4.7'}"
B0FFHK3XRP,,全家便利店(白银路店),购物服务;便民商店/便利店;便民商店/便利店,白银路1111号(白银路地铁站2号口步行370米),021-59562127;15800850586,121.242583,31.344789,,上海市,,上海市,,嘉定区,,"{'cost': , 'rating': '4.5'}"
B0FFKSDT7Y,,罗森(云屏路店),购物服务;便民商店/便利店;便民商店/便利店,云屏路1433号(白银路地铁站2号口步行350米),4008206390,121.242987,31.344842,,上海市,,上海市,,嘉定区,,"{'cost': , 'rating': '4.3'}"
B00156GM82,,上海翔嘉建材家具市场,购物服务;家居建材市场;家具建材综合市场,沪宜公路4532号,,121.224451,31.368892,,上海市,,上海市,,嘉定区,,"{'cost': , 'rating': '4.7'}"
B0FFLC03TR,,晨里凤天街,购物服务;特色商业街;特色商业街,阿克苏路与塔秀路交叉口东北180米,,121.2604,31.351308,,上海市,,上海市,,嘉定区,,"{'cost': , 'rating': '4.5'}"
B0I01CS2DZ,,台铃电动车,购物服务;专卖店;自行车专卖店,沪宜公路4586号,15800915578,121.224675,31.368175,,上海市,,上海市,,嘉定区,,"{'cost': , 'rating': '3.8'}"
B0H2640PIS,,罗森(3306秋竹路93号店),购物服务;便民商店/便利店;便民商店/便利店,秋竹路93号,18311775350;4008206390,121.226249,31.371117,,上海市,,上海市,,嘉定区,,"{'cost': , 'rating': '4.4'}"
B0FFKT0FA5,,切果NOW!(嘉定店),购物服务;购物相关场所;购物相关场所,嘉定镇城中路45-5号,17697027603,121.251046,31.378327,,上海市,,上海市,,嘉定区,,"{'cost': , 'rating': '4.3'}"
B0ID7CEWD9,,上海圣都整装(嘉定店),购物服务;家居建材市场;家居建材市场,白银路327号4楼,021-38845666,121.261551,31.352398,,上海市,,上海市,,嘉定区,,"{'cost': , 'rating': '4.8'}"
B0K6SS43PN,,全家便利店(白银路四店),购物服务;便民商店/便利店;便民商店/便利店,白银路333弄58号101室,,121.26043,31.351633,,上海市,,上海市,,嘉定区,,"{'cost': , 'rating': '4.3'}"
B0FFK6F5FH,,我嘉书房·红色主题馆(宜居家园店),购物服务;专卖店;书店,嘉定区马陆镇洪德路50(区党建服务中心内),021-59151399,121.264202,31.359526,,上海市,,上海市,,嘉定区,,"{'cost': , 'rating': '4.3'}"
B0FFL997KH,,千年舟健康板材,购物服务;家居建材市场;建材五金市场,沪宜公路4532号7号馆713室近霍城路民悦街路口,18217780691,121.224735,31.369294,,上海市,,上海市,,嘉定区,,"{'cost': , 'rating': '4.6'}"
B0J3H1NX0U,,水果厨房(东塔小区城中路41弄店),购物服务;综合市场;果品市场,东塔小区城中路41弄,15335513094;18662661030,121.25086,31.378557,,上海市,,上海市,,嘉定区,,"{'cost': , 'rating': '4.0'}"
B0IKBHEGW9,,贵州茅台嘉定新城专卖店,购物服务;专卖店;烟酒专卖店,塔秀路188号,,121.259797,31.350383,,上海市,,上海市,,嘉定区,,"{'cost': , 'rating': '4.6'}"
B0HR9Y5POM,,派多格宠物(白银路店),购物服务;专卖店;宠物用品店,白银路291号,13817762780;18930819704,121.261708,31.352844,,上海市,,上海市,,嘉定区,,"{'cost': , 'rating': '4.5'}"
B0FFF2U4HT,,联华(白银路店),购物服务;超级市场;超市,白银路1451号,021-59101559;13788929258,121.241036,31.344158,,上海市,,上海市,,嘉定区,,"{'cost': , 'rating': '4.5'}"
B0FFHI2XIZ,,艺美窗帘布艺墙纸墙布软装生活馆(小囡桥小区店),购物服务;家居建材市场;布艺市场,塔城路440弄3-49号小囡桥小区,13761692995;15821908731,121.244524,31.379895,,上海市,,上海市,,嘉定区,,"{'cost': , 'rating': '4.3'}"
B0FFKLDYUZ,,新城五金店,购物服务;家居建材市场;建材五金市场,白银路与崇信路交叉口1461号,13621623657;15800914690,121.240624,31.343951,,上海市,,上海市,,嘉定区,,"{'cost': , 'rating': '4.4'}"
B00155HA2K,,东方商厦,商务住宅;楼宇;商务写字楼|购物服务;商场;购物中心|购物服务;商场;普通商场,城中路66号,021-60941688;021-60941690,121.248245,31.380491,,上海市,,上海市,,嘉定区,,"{'cost': '20087.00', 'rating': '4.5'}"
B0FFL0EWL0,,泰山轻钢龙骨石膏板板材,购物服务;家居建材市场;建材五金市场,嘉朱公路18号东北60米9号908号10号1005,13764108682,121.223853,31.369093,,上海市,,上海市,,嘉定区,,"{'cost': , 'rating': '4.5'}"
B0JK4ZS41M,,华为授权体验店(TSF购物中心),购物服务;家电电子卖场;手机销售,白银路233号1层,18016332883,121.26279,31.353036,,上海市,,上海市,,嘉定区,,"{'cost': , 'rating': '4.4'}"
B0FFLG4NPL,,星波购物广场,购物服务;商场;购物中心|购物服务;商场;普通商场,塔秀路88号,,121.262201,31.351568,,上海市,,上海市,,嘉定区,,"{'cost': , 'rating': '4.5'}"
