id,行业类型,名称,类型,地址,联系电话,lng,lat,省份代码,省份名称,城市代码,城市名称,区域代码,区域名称,所在商圈,rating
B0I6Z5L1SG,,应急避难场所,公共设施;公共设施;公共设施,叶城小学西侧,,121.241011,31.362207,,上海市,,上海市,,嘉定区,,"{'cost': , 'rating': }"
B0FFK6SYM5,,公共厕所,公共设施;公共厕所;公共厕所,福海路嘉福汇商务广场B1层,,121.242203,31.364203,,上海市,,上海市,,嘉定区,,"{'cost': , 'rating': }"
B0FFGJRINX,,应急掩蔽场所(福海路),公共设施;紧急避难场所;紧急避难场所,永盛路与福海路交叉口西150米,,121.242622,31.365737,,上海市,,上海市,,嘉定区,,"{'cost': , 'rating': }"
B0KB9R9OHT,,公共厕所,公共设施;公共厕所;公共厕所,红土天阶附近麦当劳西北面,,121.237056,31.360687,,上海市,,上海市,,嘉定区,,"{'cost': , 'rating': }"
B0I67ANQPZ,,无障碍公共厕所,公共设施;公共厕所;公共厕所,裕民路与普惠路交叉口东北60米,,121.238163,31.366932,,上海市,,上海市,,嘉定区,,"{'cost': , 'rating': }"
B0FFHLT1LV,,公共厕所,公共设施;公共厕所;公共厕所,裕民路1000弄附近,,121.238185,31.366942,,上海市,,上海市,,嘉定区,,"{'cost': , 'rating': }"
B0FFF5USPN,,应急掩蔽场所(嘉禾大厦西北),公共设施;紧急避难场所;紧急避难场所,叶城路与阳川路交叉口西150米,,121.25169,31.366137,,上海市,,上海市,,嘉定区,,"{'cost': , 'rating': }"
B0FFGSTZJT,,应急避难场所(清水颐园东南),公共设施;紧急避难场所;紧急避难场所,裕民路1000弄99号,,121.240044,31.369584,,上海市,,上海市,,嘉定区,,"{'cost': , 'rating': }"
B0IGASLF4T,,应急避难场所,公共设施;公共设施;公共设施,德富路与城固路交叉口东南40米,,121.251946,31.356337,,上海市,,上海市,,嘉定区,,"{'cost': , 'rating': }"
B0FFKDVM91,,公共厕所,公共设施;公共厕所;公共厕所,嘉定工业区洪德路1000号西北70米,,121.247417,31.352881,,上海市,,上海市,,嘉定区,,"{'cost': , 'rating': }"
B0FFGL0ADL,,应急避难场所(普惠路),公共设施;紧急避难场所;紧急避难场所,普惠路与嘉安公路交叉口东100米,,121.235324,31.36879,,上海市,,上海市,,嘉定区,,"{'cost': , 'rating': }"
B0FFHC8Q8I,,南苑公园南园-公共厕所,公共设施;公共厕所;公共厕所,福海路220号附近,,121.252658,31.36926,,上海市,,上海市,,嘉定区,,"{'cost': , 'rating': }"
B0FFGNH90K,,公共厕所,公共设施;公共厕所;公共厕所,胜辛路1616号,,121.242223,31.351659,,上海市,,上海市,,嘉定区,,"{'cost': , 'rating': }"
B0FFGL0XEC,,公共厕所,公共设施;公共厕所;公共厕所,裕民路与阳川路交叉口东80米,,121.250354,31.370953,,上海市,,上海市,,嘉定区,,"{'cost': , 'rating': }"
B0FFHC8Q91,,应急避难场所(福海路),公共设施;紧急避难场所;紧急避难场所,福海路与裕民路交叉口西100米,,121.252512,31.369066,,上海市,,上海市,,嘉定区,,"{'cost': , 'rating': }"
B00156CKKD,,公共厕所,公共设施;公共厕所;公共厕所,胜辛路1336号,,121.242166,31.351314,,上海市,,上海市,,嘉定区,,"{'cost': , 'rating': }"
B0FFHC8POR,,应急避难场所(裕民路),公共设施;紧急避难场所;紧急避难场所,裕民路与群裕路交叉口西20米,,121.251157,31.370679,,上海市,,上海市,,嘉定区,,"{'cost': , 'rating': }"
B0FFFONHQ4,,应急避难场所,公共设施;紧急避难场所;紧急避难场所,裕民路与福海路交叉口西北60米,,121.252865,31.36978,,上海市,,上海市,,嘉定区,,"{'cost': , 'rating': }"
B0FFHC8Q2B,,应急避难场所(群裕路),公共设施;紧急避难场所;紧急避难场所,群裕路55号,,121.251499,31.371894,,上海市,,上海市,,嘉定区,,"{'cost': , 'rating': }"
B0FFHLT7FZ,,公共厕所,公共设施;公共厕所;公共厕所,沪宜公路3518号,,121.246433,31.374006,,上海市,,上海市,,嘉定区,,"{'cost': , 'rating': }"
B0FFKZGT77,,公共厕所,公共设施;公共厕所;公共厕所,洪德路228号西云楼4号楼2楼,,121.25741,31.356801,,上海市,,上海市,,嘉定区,,"{'cost': , 'rating': }"
B0FFHLSCAM,,公共厕所,公共设施;公共厕所;公共厕所,沪宜公路上海中亚医院(嘉丰路),,121.235477,31.372949,,上海市,,上海市,,嘉定区,,"{'cost': , 'rating': }"
B0FFIW9NPF,,应急避难场所,公共设施;紧急避难场所;紧急避难场所,沪宜公路与群裕路交叉口西180米,,121.250043,31.373865,,上海市,,上海市,,嘉定区,,"{'cost': , 'rating': }"
B0FFF5USQC,,应急掩蔽场所(民乐路),公共设施;紧急避难场所;紧急避难场所,民乐路与沪宜公路交叉口西南140米,,121.256955,31.368347,,上海市,,上海市,,嘉定区,,"{'cost': , 'rating': }"
B0FFF5URVA,,应急避难场所(嘉定水务稽查东),公共设施;紧急避难场所;紧急避难场所,沪宜公路与群裕路交叉口西100米,,121.250873,31.373814,,上海市,,上海市,,嘉定区,,"{'cost': , 'rating': }"
B00157I58O,,小河口银杏园-公共厕所,公共设施;公共厕所;公共厕所,塔城路与西城河南街交叉口西北100米,,121.242582,31.376274,,上海市,,上海市,,嘉定区,,"{'cost': , 'rating': }"
B0FFGH0JHR,,应急掩蔽场所(上海绿地万怡酒店北),公共设施;紧急避难场所;紧急避难场所,沪宜公路3103-3107号附近,,121.258069,31.368694,,上海市,,上海市,,嘉定区,,"{'cost': , 'rating': }"
B0FFGL0S9X,,公共厕所,公共设施;公共厕所;公共厕所,洪德路与裕民南路交叉口西南100米,,121.26004,31.357326,,上海市,,上海市,,嘉定区,,"{'cost': , 'rating': }"
B0FFH1ZRNI,,紧急避难所(云谷路),公共设施;紧急避难场所;紧急避难场所,云谷路与白银路交叉口北80米,,121.246796,31.347821,,上海市,,上海市,,嘉定区,,"{'cost': , 'rating': '2.9'}"
B0FFHIXYDR,,应急掩蔽场所(嘉定水务稽查西北),公共设施;紧急避难场所;紧急避难场所,沪宜公路与阳川路交叉口北300米,,121.248504,31.375986,,上海市,,上海市,,嘉定区,,"{'cost': , 'rating': }"
B0FFIXQKEQ,,公共厕所,公共设施;公共厕所;公共厕所,沪宜公路上海装修市场,,121.258802,31.370436,,上海市,,上海市,,嘉定区,,"{'cost': , 'rating': }"
B0FFHLN1DO,,绿地嘉尚国际广场-无障碍洗手间,公共设施;公共厕所;公共厕所,沪宜公路3128号绿地嘉尚国际广场F3,,121.260344,31.367705,,上海市,,上海市,,嘉定区,,"{'cost': , 'rating': }"
B0FFHCD5QH,,应急避难场所(城中路),公共设施;紧急避难场所;紧急避难场所,城中路与沪宜公路交叉口西北220米,,121.253386,31.37525,,上海市,,上海市,,嘉定区,,"{'cost': , 'rating': }"
B0FFGJRIW6,,公共厕所,公共设施;公共厕所;公共厕所,清河路443-6号附近,,121.235212,31.37628,,上海市,,上海市,,嘉定区,,"{'cost': , 'rating': }"
B0FFLMC8WV,,男洗手间,公共设施;公共厕所;公共厕所,地铁站11号线白银路站白银路站F1,,121.245652,31.345628,,上海市,,上海市,,嘉定区,,"{'cost': , 'rating': }"
B0FFLGXIDY,,女洗手间,公共设施;公共厕所;公共厕所,地铁站11号线白银路站白银路站F1,,121.245702,31.345644,,上海市,,上海市,,嘉定区,,"{'cost': , 'rating': }"
B0FFHE4609,,公共厕所,公共设施;公共厕所;公共厕所,清河路与项泾西街交叉口南150米,,121.238233,31.377957,,上海市,,上海市,,嘉定区,,"{'cost': , 'rating': }"
B0FFMFFN4W,,公共厕所,公共设施;公共厕所;公共厕所,崇信路新城金郡,,121.239814,31.345425,,上海市,,上海市,,嘉定区,,"{'cost': , 'rating': }"
B00157I548,,公共厕所,公共设施;公共厕所;公共厕所,塔城路470弄三皇桥小区,,121.244322,31.378884,,上海市,,上海市,,嘉定区,,"{'cost': , 'rating': }"
B0FFK7XKCF,,公共厕所,公共设施;公共厕所;公共厕所,塔秀路与永盛路交叉口东80米,,121.255433,31.347965,,上海市,,上海市,,嘉定区,,"{'cost': , 'rating': }"
B0FFGL0GG7,,紫气东来公园-公共厕所,公共设施;公共厕所;公共厕所,塔秀路与依玛路交叉口西南80米,,121.252108,31.346525,,上海市,,上海市,,嘉定区,,"{'cost': , 'rating': }"
B00157HYY5,,公共厕所,公共设施;公共厕所;公共厕所,塔城路与城中路交叉口南200米,,121.248868,31.378446,,上海市,,上海市,,嘉定区,,"{'cost': , 'rating': }"
B0FFHDQZ4M,,公共厕所,公共设施;公共厕所;公共厕所,嘉定人民街人民街绿地(西南角),,121.242151,31.379292,,上海市,,上海市,,嘉定区,,"{'cost': , 'rating': }"
B0IGMA2F12,,应急避难场所,公共设施;公共设施;公共设施,清河路与项泾西街交叉口西南100米,,121.237595,31.378204,,上海市,,上海市,,嘉定区,,"{'cost': , 'rating': }"
B0FFGL0VW7,,紫气东来公园-公共厕所,公共设施;公共厕所;公共厕所,塔秀路与云谷路交叉口东80米,,121.249052,31.345194,,上海市,,上海市,,嘉定区,,"{'cost': , 'rating': }"
B0FFHCQ5OM,,应急避难场所(嘉定南大街),公共设施;紧急避难场所;紧急避难场所,城中路与沪宜公路交叉口北300米,,121.254852,31.376111,,上海市,,上海市,,嘉定区,,"{'cost': , 'rating': }"
B00155JSL8,,公共厕所,公共设施;公共厕所;公共厕所,南大街52号,,121.254252,31.377617,,上海市,,上海市,,嘉定区,,"{'cost': , 'rating': }"
B0FFMDTNPP,,公共厕所,公共设施;公共厕所;公共厕所,温泉路与高台路交叉口西北140米,,121.234869,31.34532,,上海市,,上海市,,嘉定区,,"{'cost': , 'rating': }"
B0I6C5MQA6,,无障碍公共厕所,公共设施;公共厕所;公共厕所,嘉定南大街与沙霞路交叉口东南200米,,121.254268,31.377641,,上海市,,上海市,,嘉定区,,"{'cost': , 'rating': }"
B0FFHDLFNH,,紧急避难场所(仁丰金源大厦东),公共设施;紧急避难场所;紧急避难场所,永盛路与塔秀路交叉口东南140米,,121.25609,31.347217,,上海市,,上海市,,嘉定区,,"{'cost': , 'rating': }"
B0FFHCWM8O,,紧急避难场所(德富路),公共设施;紧急避难场所;紧急避难场所,德富路与塔秀路交叉口南140米,,121.25715,31.347691,,上海市,,上海市,,嘉定区,,"{'cost': , 'rating': }"
B0FFGL0VTJ,,公共厕所,公共设施;公共厕所;公共厕所,沙霞路93-5号附近,,121.252971,31.379035,,上海市,,上海市,,嘉定区,,"{'cost': , 'rating': }"
B0KB7CL4ES,,公共厕所,公共设施;公共厕所;公共厕所,温泉路与高台路交叉口西南20米,,121.2359,31.344495,,上海市,,上海市,,嘉定区,,"{'cost': , 'rating': }"
B0FFHDGSVC,,公共厕所,公共设施;公共厕所;公共厕所,嘉浏立交桥与G1503上海绕城高速交叉口北120米,,121.22699,31.3499,,上海市,,上海市,,嘉定区,,"{'cost': , 'rating': }"
B0HAKNGICD,,公共厕所,公共设施;公共厕所;公共厕所,天祝路紫气东来公园(西侧),,121.248156,31.343368,,上海市,,上海市,,嘉定区,,"{'cost': , 'rating': }"
B0FFHCWM7O,,紧急避难场所(仁丰金源大厦东南),公共设施;紧急避难场所;紧急避难场所,天祝路与永盛路交叉口东北120米,,121.256304,31.346701,,上海市,,上海市,,嘉定区,,"{'cost': , 'rating': }"
B0IKOU1HCU,,无障碍公共厕所,公共设施;公共厕所;公共厕所,沙霞路与嘉定南大街交叉口西南60米,,121.253129,31.378982,,上海市,,上海市,,嘉定区,,"{'cost': , 'rating': }"
B0FFGJRHAD,,公共厕所,公共设施;公共厕所;公共厕所,嘉定西站3号口,,121.227956,31.376628,,上海市,,上海市,,嘉定区,,"{'cost': , 'rating': }"
B0FFGL0VBI,,紫气东来公园-公共厕所,公共设施;公共厕所;公共厕所,天祝路与云谷路交叉口北40米,,121.249676,31.342671,,上海市,,上海市,,嘉定区,,"{'cost': , 'rating': }"
B0FFGSTX2D,,紧急避难场所(天祝路),公共设施;紧急避难场所;紧急避难场所,天祝路与德富路交叉口东北100米,,121.259044,31.347642,,上海市,,上海市,,嘉定区,,"{'cost': , 'rating': }"
B0FFMH2EV0,,男洗手间,公共设施;公共厕所;公共厕所,地铁站11号线嘉定西站嘉定西站F1,,121.227942,31.376584,,上海市,,上海市,,嘉定区,,"{'cost': , 'rating': }"
B0FFHLSIW5,,公共厕所,公共设施;公共厕所;公共厕所,嘉定人民街58号附近,,121.24665,31.38216,,上海市,,上海市,,嘉定区,,"{'cost': , 'rating': }"
B0FFG75T2C,,公共厕所,公共设施;公共厕所;公共厕所,博乐南路128号,,121.261734,31.375663,,上海市,,上海市,,嘉定区,,"{'cost': , 'rating': }"
B0FFHC78BY,,紧急避难场所(嘉罗公路),公共设施;紧急避难场所;紧急避难场所,菊园新区博乐南路158号紧急避难场,,121.260786,31.375776,,上海市,,上海市,,嘉定区,,"{'cost': , 'rating': }"
B0FFHWN0XJ,,公共厕所,公共设施;公共厕所;公共厕所,白银路远香湖公园,,121.266501,31.354925,,上海市,,上海市,,嘉定区,,"{'cost': , 'rating': }"
B0FFHLT4EI,,公共厕所,公共设施;公共厕所;公共厕所,远香湖路与塔秀路交叉口南100米,,121.264756,31.35122,,上海市,,上海市,,嘉定区,,"{'cost': , 'rating': }"
B0HB6XO83P,,公共厕所,公共设施;公共厕所;公共厕所,博乐路嘉定紫藤园(西南角),,121.257855,31.379107,,上海市,,上海市,,嘉定区,,"{'cost': , 'rating': }"
B0JK7RS5O3,,公共厕所,公共设施;公共厕所;公共厕所,白银路与沪宜公路交叉口西20米,,121.267373,31.355795,,上海市,,上海市,,嘉定区,,"{'cost': , 'rating': }"
B00157I57P,,公共厕所,公共设施;公共厕所;公共厕所,城中路与清河路交叉口南80米,,121.24658,31.383069,,上海市,,上海市,,嘉定区,,"{'cost': , 'rating': }"
B0FFGSU0NC,,应急掩蔽场所(远香湖路),公共设施;紧急避难场所;紧急避难场所,远香湖路与塔秀路交叉口南100米,,121.264512,31.351187,,上海市,,上海市,,嘉定区,,"{'cost': , 'rating': }"
B0HG5Z9JIU,,公共厕所,公共设施;公共厕所;公共厕所,梅园路226号儿童公园(东侧),,121.2422,31.383326,,上海市,,上海市,,嘉定区,,"{'cost': , 'rating': }"
B0FFHIXYHC,,应急避难场所(上海市嘉定区财政局南),公共设施;紧急避难场所;紧急避难场所,博乐路45号,,121.257613,31.379131,,上海市,,上海市,,嘉定区,,"{'cost': , 'rating': }"
B0FFJ8GWDX,,公共厕所,公共设施;公共设施;公共设施,,,121.2606,31.345899,,上海市,,上海市,,嘉定区,,"{'cost': , 'rating': }"
B0JUJXUHVT,,公共厕所,公共设施;公共厕所;公共厕所,天祝路与崇信路交叉口东北80米,,121.244668,31.340308,,上海市,,上海市,,嘉定区,,"{'cost': , 'rating': }"
B0HBKRTNBM,,公共厕所,公共设施;公共厕所;公共厕所,塔城路299号汇龙潭公园内(东北角),,121.25444,31.381543,,上海市,,上海市,,嘉定区,,"{'cost': , 'rating': }"
B00155Q6I6,,儿童公园-公共厕所(暂停营业),公共设施;公共厕所;公共厕所,嘉定梅园路222号附近,,121.242199,31.383325,,上海市,,上海市,,嘉定区,,"{'cost': , 'rating': }"
B0I1O9D1OK,,嘉定宝龙广场-女洗手间,公共设施;公共厕所;公共厕所,阿克苏路1099号嘉定宝龙广场F3,,121.259768,31.345826,,上海市,,上海市,,嘉定区,,"{'cost': , 'rating': }"
B0FFF2TD83,,公共厕所,公共设施;公共厕所;公共厕所,沈海高速,,121.218931,31.360859,,上海市,,上海市,,嘉定区,,"{'cost': , 'rating': }"
B0FFF5UO6K,,应急避难场所(嘉定梅园路),公共设施;紧急避难场所;紧急避难场所,嘉定梅园路226号,,121.242236,31.383475,,上海市,,上海市,,嘉定区,,"{'cost': , 'rating': }"
B0FFHCQ9AN,,应急避难场所(博乐南路),公共设施;紧急避难场所;紧急避难场所,博乐南路东50米,,121.264562,31.374355,,上海市,,上海市,,嘉定区,,"{'cost': , 'rating': }"
B0FFHLSNM1,,公共厕所,公共设施;公共厕所;公共厕所,中下塘街41号,,121.250206,31.383408,,上海市,,上海市,,嘉定区,,"{'cost': , 'rating': }"
B0FFHLSD18,,公共厕所,公共设施;公共厕所;公共厕所,嘉定南大街六一小区,,121.25115,31.382917,,上海市,,上海市,,嘉定区,,"{'cost': , 'rating': }"
B0FFJVCMU1,,公共厕所,公共设施;公共厕所;公共厕所,清河路48号F2层,,121.247993,31.384066,,上海市,,上海市,,嘉定区,,"{'cost': , 'rating': }"
B0FFHLSNJS,,公共厕所,公共设施;公共厕所;公共厕所,城中街与察院弄交叉口西南40米,,121.249095,31.383643,,上海市,,上海市,,嘉定区,,"{'cost': , 'rating': }"
B0FFKX6M2L,,嘉定宝龙广场-女洗手间,公共设施;公共厕所;公共厕所,阿克苏路1099号嘉定宝龙广场F2,,121.261004,31.345183,,上海市,,上海市,,嘉定区,,"{'cost': , 'rating': }"
B0FFHEFH6V,,女洗手间(罗宾森购物广场城中路),公共设施;公共厕所;女洗手间,城中路138号罗宾森购物广场(城中路)F3层,,121.244884,31.384281,,上海市,,上海市,,嘉定区,,"{'cost': , 'rating': }"
B0FFHC4CQB,,应急避难场所(叶城路),公共设施;紧急避难场所;紧急避难场所,叶城路与博乐南路交叉口东北100米,,121.266846,31.372171,,上海市,,上海市,,嘉定区,,"{'cost': , 'rating': }"
B0FFL7LPHT,,男洗手间,公共设施;公共厕所;公共厕所,阿克苏路1099号嘉定宝龙广场B1,,121.260994,31.345159,,上海市,,上海市,,嘉定区,,"{'cost': , 'rating': }"
B0G2X1PZI7,,嘉定宝龙广场-男洗手间,公共设施;公共厕所;公共厕所,阿克苏路1099号嘉定宝龙广场F3,,121.260969,31.345198,,上海市,,上海市,,嘉定区,,"{'cost': , 'rating': }"
B0FFHUI4IL,,男洗手间(罗宾森购物广场城中路),公共设施;公共厕所;男洗手间,城中路138号罗宾森购物广场(城中路)F3层,,121.244874,31.38426,,上海市,,上海市,,嘉定区,,"{'cost': , 'rating': }"
B0FFKZ8BM3,,嘉定宝龙广场-女洗手间,公共设施;公共厕所;公共厕所,阿克苏路1099号嘉定宝龙广场F4,,121.261044,31.345185,,上海市,,上海市,,嘉定区,,"{'cost': , 'rating': }"
B0FFHLSL7E,,公共厕所,公共设施;公共厕所;公共厕所,城中路214号附近,,121.249279,31.384476,,上海市,,上海市,,嘉定区,,"{'cost': , 'rating': }"
B0FFF5U5N6,,应急掩蔽场所(金沙路),公共设施;紧急避难场所;紧急避难场所,金沙路75-77号附近,,121.256331,31.381453,,上海市,,上海市,,嘉定区,,"{'cost': , 'rating': }"
B00156CLX0,,博乐广场-公共厕所,公共设施;公共厕所;公共厕所,博乐路101号-8号,,121.25249,31.383758,,上海市,,上海市,,嘉定区,,"{'cost': , 'rating': }"
B0FFHUI4IS,,男洗手间(罗宾森购物广场城中路),公共设施;公共厕所;男洗手间,城中路138号罗宾森购物广场(城中路)F4层,,121.24488,31.384263,,上海市,,上海市,,嘉定区,,"{'cost': , 'rating': }"
B0FFH0ZMXC,,女洗手间(罗宾森购物广场城中路),公共设施;公共厕所;女洗手间,城中路138号罗宾森购物广场(城中路)F4层,,121.244886,31.384286,,上海市,,上海市,,嘉定区,,"{'cost': , 'rating': }"
B0FFGL0TNT,,应急避难场所(嘉戬公路),公共设施;紧急避难场所;紧急避难场所,嘉戬公路与迎园路交叉口西140米,,121.266077,31.374407,,上海市,,上海市,,嘉定区,,"{'cost': , 'rating': }"
B0IK5RYQFM,,洗手间,公共设施;公共厕所;公共厕所,清河路与察院弄交叉口西100米,,121.247986,31.384753,,上海市,,上海市,,嘉定区,,"{'cost': , 'rating': }"
B0FFFDIN55,,肯德基(清河餐厅)-洗手间,公共设施;公共厕所;公共厕所,城中路138号ONLY(罗宾森广场上海罗宾森店)1层,,121.245486,31.384887,,上海市,,上海市,,嘉定区,,"{'cost': , 'rating': }"
B0FFFDLOAX,,肯德基(博乐餐厅)-洗手间,公共设施;公共厕所;公共厕所,博乐路与塔城路交叉口北60米,,121.25409,31.383398,,上海市,,上海市,,嘉定区,,"{'cost': , 'rating': }"
B0G3ZSQUDP,,公共厕所,公共设施;公共厕所;公共厕所,温泉路与天祝路交叉口西20米,,121.240847,31.338631,,上海市,,上海市,,嘉定区,,"{'cost': , 'rating': }"
B0HGVBMEQ1,,公用电话,公共设施;公用电话;公用电话,沙霞路68号州桥老街内(西南角),,121.250149,31.384125,,上海市,,上海市,,嘉定区,,"{'cost': , 'rating': }"
B0FFH10UOV,,男洗手间(罗宾森购物广场城中路),公共设施;公共厕所;男洗手间,城中路138号罗宾森购物广场(城中路)F3层,,121.2452,31.385103,,上海市,,上海市,,嘉定区,,"{'cost': , 'rating': }"
B0FFHEFH6U,,女洗手间(罗宾森购物广场城中路),公共设施;公共厕所;女洗手间,城中路138号罗宾森购物广场(城中路)F4层,,121.245153,31.385058,,上海市,,上海市,,嘉定区,,"{'cost': , 'rating': }"
B0HBKKP4LY,,罗宾森广场(城中路店)-男洗手间,公共设施;公共厕所;公共厕所,城中路138号罗宾森广场F2,,121.245242,31.385063,,上海市,,上海市,,嘉定区,,"{'cost': , 'rating': }"
B0FFHYDY8M,,公共厕所,公共设施;公共厕所;公共厕所,嘉定东大街与步行街交叉口南50米,,121.251454,31.384683,,上海市,,上海市,,嘉定区,,"{'cost': , 'rating': }"
B0FFHDJMJH,,应急避难场所(博乐路),公共设施;紧急避难场所;紧急避难场所,博乐路州桥老街(东侧),,121.252423,31.38399,,上海市,,上海市,,嘉定区,,"{'cost': , 'rating': }"
B0FFGKVS70,,公共厕所,公共设施;公共厕所;公共厕所,天祝路与德立路交叉口西20米,,121.267453,31.349456,,上海市,,上海市,,嘉定区,,"{'cost': , 'rating': }"
B0FFGLVSQL,,应急掩蔽场所(城中路),公共设施;紧急避难场所;紧急避难场所,嘉定镇,,121.245135,31.385041,,上海市,,上海市,,嘉定区,,"{'cost': , 'rating': }"
B0FFHUI4IM,,女洗手间(罗宾森购物广场城中路),公共设施;公共厕所;女洗手间,城中路138号罗宾森购物广场(城中路)F2层,,121.245147,31.385066,,上海市,,上海市,,嘉定区,,"{'cost': , 'rating': }"
B0FFHEFH6T,,女洗手间(罗宾森购物广场城中路),公共设施;公共厕所;女洗手间,城中路138号罗宾森购物广场(城中路)F3层,,121.245143,31.385071,,上海市,,上海市,,嘉定区,,"{'cost': , 'rating': }"
B0FFHUI4IJ,,男洗手间(罗宾森购物广场城中路),公共设施;公共厕所;男洗手间,城中路138号罗宾森购物广场(城中路)F2层,,121.245202,31.385097,,上海市,,上海市,,嘉定区,,"{'cost': , 'rating': }"
B0FFHUI4IK,,男洗手间(罗宾森购物广场城中路),公共设施;公共厕所;男洗手间,城中路138号罗宾森购物广场(城中路)F4层,,121.245202,31.385086,,上海市,,上海市,,嘉定区,,"{'cost': , 'rating': }"
B0FFHCD718,,公共厕所,公共设施;公共厕所;公共厕所,金沙路118号,,121.258414,31.38219,,上海市,,上海市,,嘉定区,,"{'cost': , 'rating': }"
B00155MFA2,,服务区公共厕所,公共设施;公共厕所;公共厕所,沪嘉立交桥与服务区交叉口西北80米,,121.271513,31.362024,,上海市,,上海市,,嘉定区,,"{'cost': , 'rating': }"
B0FFFDM3ZG,,肯德基(嘉定餐厅)-洗手间,公共设施;公共厕所;公共厕所,清河路8号,,121.250373,31.38572,,上海市,,上海市,,嘉定区,,"{'cost': , 'rating': }"
B0FFG94O1E,,公共厕所(疁厦商城北楼),公共设施;公共厕所;公共厕所,博乐路180号疁厦商城f1层,,121.251327,31.385366,,上海市,,上海市,,嘉定区,,"{'cost': , 'rating': }"
B0I6GUMGNR,,公共厕所,公共设施;公共厕所;公共厕所,伊宁路新城公司西200米,,121.255814,31.338753,,上海市,,上海市,,嘉定区,,"{'cost': , 'rating': }"
B0FFGL1BOF,,应急掩蔽场所(北下街),公共设施;紧急避难场所;紧急避难场所,北下街与康宁弄交叉口东南80米,,121.250726,31.38641,,上海市,,上海市,,嘉定区,,"{'cost': , 'rating': }"
B00155JSL0,,公共厕所,公共设施;公共厕所;公共厕所,城中路285-287号,,121.243538,31.387981,,上海市,,上海市,,嘉定区,,"{'cost': , 'rating': }"
B00155JSL0,,公共厕所,公共设施;公共厕所;公共厕所,城中路285-287号,,121.243538,31.387981,,上海市,,上海市,,嘉定区,,"{'cost': , 'rating': }"
B0JR31E9AO,,公共厕所,公共设施;公共厕所;公共厕所,众芳路与天祝路交叉口西北140米,,121.272482,31.353473,,上海市,,上海市,,嘉定区,,"{'cost': , 'rating': }"
B0H0D5AU6J,,公共厕所,公共设施;公共厕所;公共厕所,伊宁路石冈门塘休闲公园,,121.266238,31.343992,,上海市,,上海市,,嘉定区,,"{'cost': , 'rating': }"
B0FFGKWHND,,儿童拓展公园-公共厕所,公共设施;公共厕所;公共厕所,伊宁路石冈门塘休闲公园,,121.266189,31.343903,,上海市,,上海市,,嘉定区,,"{'cost': , 'rating': }"
B0FFMD0WBY,,公共厕所,公共设施;公共厕所;公共厕所,内环东路与环东五路交叉口西140米,,121.228461,31.339151,,上海市,,上海市,,嘉定区,,"{'cost': , 'rating': }"
B0FFHLSSJV,,公共厕所(暂停营业),公共设施;公共厕所;公共厕所,内环东路与环东四路交叉口东北100米,,121.231935,31.337466,,上海市,,上海市,,嘉定区,,"{'cost': , 'rating': }"
B0FFKE2JAD,,公共厕所,公共设施;公共厕所;公共厕所,嘉安公路与六里中心路交叉口西北60米,,121.214174,31.352873,,上海市,,上海市,,嘉定区,,"{'cost': , 'rating': }"
B0FFHLSD93,,公共厕所,公共设施;公共厕所;公共厕所,方泰镇,,121.224606,31.340782,,上海市,,上海市,,嘉定区,,"{'cost': , 'rating': }"
B0FFHC5IHY,,公共厕所,公共设施;公共厕所;公共厕所,迎园一坊(迎园路东),,121.265711,31.380896,,上海市,,上海市,,嘉定区,,"{'cost': , 'rating': }"
B0FFGL0SE2,,公共厕所,公共设施;公共厕所;公共厕所,仓场路2871天福记餐饮店附近,,121.26016,31.38596,,上海市,,上海市,,嘉定区,,"{'cost': , 'rating': }"
B00157HXIE,,公共厕所,公共设施;公共厕所;公共厕所,新成路170号,,121.269589,31.379408,,上海市,,上海市,,嘉定区,,"{'cost': , 'rating': }"
B0FFGL0TQZ,,公共厕所,公共设施;公共厕所;公共厕所,S5沪嘉高速与沪嘉立交桥交叉口东南160米,,121.275589,31.357395,,上海市,,上海市,,嘉定区,,"{'cost': , 'rating': }"
B0JDZYCWL6,,公共厕所,公共设施;公共厕所;公共厕所,嘉定东大街与金沙路交叉口东60米,,121.255938,31.387923,,上海市,,上海市,,嘉定区,,"{'cost': , 'rating': }"
B0FFGPQB4O,,公共厕所,公共设施;公共厕所;公共厕所,彭门支路菊园新区民办六里小学,,121.2131,31.353276,,上海市,,上海市,,嘉定区,,"{'cost': , 'rating': }"
B0FFJYOP1R,,公共厕所,公共设施;公共厕所;公共厕所,城北路111号,,121.239395,31.389622,,上海市,,上海市,,嘉定区,,"{'cost': , 'rating': }"
B0FFHLSGQM,,公共厕所,公共设施;公共厕所;公共厕所,嘉定东大街与金沙路交叉口东北60米,,121.255882,31.388013,,上海市,,上海市,,嘉定区,,"{'cost': , 'rating': }"
B0K6O5TATS,,公共厕所,公共设施;公共厕所;公共厕所,嘉定东大街192-2号,,121.255876,31.388155,,上海市,,上海市,,嘉定区,,"{'cost': , 'rating': }"
B0G39SOIF5,,公共厕所(SH-JD-0086),公共设施;公共厕所;公共厕所,中国石化(白银路加油站)西侧190米,,121.222757,31.340217,,上海市,,上海市,,嘉定区,,"{'cost': , 'rating': }"
B0FFGL0V6Z,,公共厕所,公共设施;公共厕所;公共厕所,迎园中路638号,,121.264294,31.384931,,上海市,,上海市,,嘉定区,,"{'cost': , 'rating': }"
B0G33PUCMT,,移动话吧,公共设施;公用电话;公用电话,上海希望城商务楼西侧250米,,121.276912,31.357926,,上海市,,上海市,,嘉定区,,"{'cost': , 'rating': }"
B0G33PUCMT,,移动话吧,公共设施;公用电话;公用电话,上海希望城商务楼西侧250米,,121.276912,31.357926,,上海市,,上海市,,嘉定区,,"{'cost': , 'rating': }"
B0J2SUDMSY,,洗手间,公共设施;公共厕所;公共厕所,平城路与城北路交叉口东80米,,121.237465,31.39061,,上海市,,上海市,,嘉定区,,"{'cost': , 'rating': }"
B0FFHC5J10,,公共厕所,公共设施;公共厕所;公共厕所,和政路525号,,121.268504,31.38229,,上海市,,上海市,,嘉定区,,"{'cost': , 'rating': }"
B0FFFAK5PP,,公共厕所,公共设施;公共厕所;公共厕所,环东二路与内环东路交叉口东60米,,121.234428,31.334264,,上海市,,上海市,,嘉定区,,"{'cost': , 'rating': }"
B0FFMC2H33,,公共厕所,公共设施;公共厕所;公共厕所,内环东路与环东三路交叉口西100米,,121.231459,31.33526,,上海市,,上海市,,嘉定区,,"{'cost': , 'rating': }"
B0FFIWAL7L,,应急避难场所,公共设施;紧急避难场所;紧急避难场所,金沙路与温宿路交叉口东南100米,,121.253744,31.389501,,上海市,,上海市,,嘉定区,,"{'cost': , 'rating': }"
B0FFHE43KA,,应急掩蔽场所(平城路),公共设施;紧急避难场所;紧急避难场所,平城路1455号新微大厦B座附近,,121.23549,31.38981,,上海市,,上海市,,嘉定区,,"{'cost': , 'rating': }"
B0FFINLLAN,,无障碍洗手间,公共设施;公共厕所;公共厕所,希望路与合作路交叉口东180米,,121.258382,31.335535,,上海市,,上海市,,嘉定区,,"{'cost': , 'rating': }"
B0JK7CHCT6,,公共厕所,公共设施;公共厕所;公共厕所,迎园路与迎园北路交叉口西60米,,121.265587,31.384697,,上海市,,上海市,,嘉定区,,"{'cost': , 'rating': }"
B0HRDCYZ5G,,上海交通大学医学院附属瑞金医院北院-无障碍洗手间,公共设施;公共厕所;公共厕所,希望路999号上海交通大学医学院附属瑞金医院北院门诊F2,,121.258382,31.335535,,上海市,,上海市,,嘉定区,,"{'cost': , 'rating': }"
B0HRSAR234,,公共厕所,公共设施;公共厕所;公共厕所,内环东路与环东三路交叉口西280米,,121.22968,31.335049,,上海市,,上海市,,嘉定区,,"{'cost': , 'rating': }"
B0FFHLSCHP,,公共厕所,公共设施;公共厕所;公共厕所,环北二路与内环西路交叉口西60米,,121.21697,31.342345,,上海市,,上海市,,嘉定区,,"{'cost': , 'rating': }"
B00156F58G,,公共厕所,公共设施;公共厕所;公共厕所,平城路与城北路交叉口东北180米,,121.237814,31.39189,,上海市,,上海市,,嘉定区,,"{'cost': , 'rating': }"
B0FFIYV5P9,,公共厕所,公共设施;公共厕所;公共厕所,横仓公路与众芳路交叉口东160米,,121.275989,31.350509,,上海市,,上海市,,嘉定区,,"{'cost': , 'rating': }"
B0FFLG96I0,,上海交通大学医学院附属瑞金医院北院-女洗手间,公共设施;公共厕所;公共厕所,合作路与双丁路交叉口北120米,,121.257837,31.334576,,上海市,,上海市,,嘉定区,,"{'cost': , 'rating': }"
B0FFINLL25,,上海交通大学医学院附属瑞金医院北院-女洗手间,公共设施;公共厕所;公共厕所,希望路999号上海交通大学医学院附属瑞金医院北院门诊F1,,121.258121,31.334814,,上海市,,上海市,,嘉定区,,"{'cost': , 'rating': }"
B0FFIW9DYJ,,应急避难场所(李园二村西南),公共设施;紧急避难场所;紧急避难场所,温宿路与博乐路交叉口西北220米,,121.2498,31.391488,,上海市,,上海市,,嘉定区,,"{'cost': , 'rating': }"
B0HRALM9DV,,上海交通大学医学院附属瑞金医院北院-无障碍洗手间,公共设施;公共厕所;公共厕所,希望路999号上海交通大学医学院附属瑞金医院北院门诊F1,,121.258121,31.33479,,上海市,,上海市,,嘉定区,,"{'cost': , 'rating': }"
B0FFHLTBIY,,公共厕所,公共设施;公共厕所;公共厕所,希望路1333号,,121.246231,31.331092,,上海市,,上海市,,嘉定区,,"{'cost': , 'rating': }"
B0FFIY78VW,,公共厕所,公共设施;公共厕所;公共厕所,沈家角与申裕路交叉口,,121.279954,31.363414,,上海市,,上海市,,嘉定区,,"{'cost': , 'rating': }"
B0FFIY78VW,,公共厕所,公共设施;公共厕所;公共厕所,沈家角与申裕路交叉口,,121.279954,31.363414,,上海市,,上海市,,嘉定区,,"{'cost': , 'rating': }"
B0FFL06W5R,,公共厕所(SH-JD-0081),公共设施;公共厕所;公共厕所,内环南路,,121.22665,31.335161,,上海市,,上海市,,嘉定区,,"{'cost': , 'rating': }"
B00156CKII,,公共厕所,公共设施;公共厕所;公共厕所,嘉定镇,,121.221909,31.387099,,上海市,,上海市,,嘉定区,,"{'cost': , 'rating': }"
B0FFME2HHO,,公共厕所,公共设施;公共厕所;公共厕所,内环南路与内环东路交叉口西120米,,121.233436,31.332376,,上海市,,上海市,,嘉定区,,"{'cost': , 'rating': }"
B0FFHLSDUK,,春晖苑-公共厕所,公共设施;公共厕所;公共厕所,嘉罗公路与嘉定东大街交叉口北20米,,121.258934,31.391142,,上海市,,上海市,,嘉定区,,"{'cost': , 'rating': }"
B0FFHD0AZW,,环城河市民休闲公园-公共厕所,公共设施;公共厕所;公共厕所,嘉定环城路环城河市民休闲公园,,121.252471,31.393397,,上海市,,上海市,,嘉定区,,"{'cost': , 'rating': }"
B00155JSKC,,公共厕所,公共设施;公共厕所;公共厕所,环西一路与内环西路交叉口西南20米,,121.215605,31.340347,,上海市,,上海市,,嘉定区,,"{'cost': , 'rating': }"
B0FFHCTQZB,,应急避难场所(嘉罗公路),公共设施;紧急避难场所;紧急避难场所,嘉罗公路与嘉定环城路交叉口南20米,,121.257942,31.391886,,上海市,,上海市,,嘉定区,,"{'cost': , 'rating': }"
B0FFHLT959,,公共厕所,公共设施;公共厕所;公共厕所,仓场路与茹水路交叉口西南120米,,121.273864,31.382779,,上海市,,上海市,,嘉定区,,"{'cost': , 'rating': }"
B0FFLDPNWC,,公共厕所,公共设施;公共厕所;公共厕所,申裕路与沈家角交叉口东南260米,,121.281603,31.361175,,上海市,,上海市,,嘉定区,,"{'cost': , 'rating': }"
B0FFHD05HV,,应急避难场所(嘉定环城路),公共设施;紧急避难场所;紧急避难场所,嘉定环城路与嘉行公路交叉口西80米,,121.252742,31.393618,,上海市,,上海市,,嘉定区,,"{'cost': , 'rating': }"
B0FFGSU20I,,紧急避难场所(双丁路),公共设施;紧急避难场所;紧急避难场所,双丁路509号,,121.267636,31.336658,,上海市,,上海市,,嘉定区,,"{'cost': , 'rating': }"
B0FFF2SY34,,公共厕所,公共设施;公共厕所;公共厕所,青冈中心路东150米,,121.207871,31.373914,,上海市,,上海市,,嘉定区,,"{'cost': , 'rating': }"
B0FFHQ6FLH,,公共厕所,公共设施;公共厕所;公共厕所,仓场路与和政路交叉口东140米,,121.273343,31.383022,,上海市,,上海市,,嘉定区,,"{'cost': , 'rating': }"
B001559JHB,,公共厕所,公共设施;公共厕所;公共厕所,和政路525号,,121.269997,31.387129,,上海市,,上海市,,嘉定区,,"{'cost': , 'rating': }"
B00155E93H,,公共厕所,公共设施;公共厕所;公共厕所,环西三路与外环西路交叉口北40米,,121.217338,31.337205,,上海市,,上海市,,嘉定区,,"{'cost': , 'rating': }"
B0FFFEA01B,,公共厕所,公共设施;公共厕所;公共厕所,仓场村申裕路399弄马陆镇仓场小学,,121.282246,31.356649,,上海市,,上海市,,嘉定区,,"{'cost': , 'rating': }"
B00156F4P7,,应急掩蔽场所(嘉行公路),公共设施;紧急避难场所;紧急避难场所,嘉行公路与嘉定环城路交叉口东北80米,,121.254446,31.393974,,上海市,,上海市,,嘉定区,,"{'cost': , 'rating': }"
B0G0O9VSEI,,公共厕所,公共设施;公共厕所;公共厕所,环南二路水景广场,,121.226363,31.331973,,上海市,,上海市,,嘉定区,,"{'cost': , 'rating': }"
B0HRSBPCEH,,公共厕所,公共设施;公共厕所;公共厕所,内环南路与环南四路交叉口西300米,,121.228655,31.33099,,上海市,,上海市,,嘉定区,,"{'cost': , 'rating': }"
