id,行业类型,名称,类型,地址,联系电话,lng,lat,省份代码,省份名称,城市代码,城市名称,区域代码,区域名称,所在商圈,rating
B0FFHFDXSB,,威尔仕健身(老西门新苑),体育休闲服务;运动场馆;健身中心,西藏南路688弄15号(老西门地铁站3号口步行320米),021-31659446;021-63461803,121.4787824,31.21815186,,上海市,,上海市,,黄浦区,,"{'cost': , 'rating': '4.6'}"
B0J3PR9G1U,,乐刻健身(老西门南六MIX精品馆),体育休闲服务;运动场馆;健身中心,西藏南路686号南六B1层,13761848103,121.4791757,31.21897361,,上海市,,上海市,,黄浦区,,"{'cost': , 'rating': '4.7'}"
B0FFHQ32TA,,执琢健身(老西门店),体育休闲服务;运动场馆;健身中心,西藏南路769-3号(文惠小区底商),15618919677,121.4802916,31.21792433,,上海市,,上海市,,黄浦区,,"{'cost': '6687.00', 'rating': '4.2'}"
B0FFG92FJR,,蚂蚁健身康复私教工作室(永惠大厦A栋店),体育休闲服务;运动场馆;健身中心,西藏南路765号永惠大厦A座1301室,15222277211;18217117371,121.4804893,31.21787493,,上海市,,上海市,,黄浦区,,"{'cost': '2885.00', 'rating': '4.0'}"
B0FFHS9K7Y,,嘉草网咖(卢湾国际广场店),体育休闲服务;娱乐场所;网吧,西藏南路518-528号地下一层,021-53865808,121.4785374,31.21961046,,上海市,,上海市,,黄浦区,,"{'cost': , 'rating': '4.6'}"
B0K6VR1IOY,,谎宴·云胡岛剧本杀推理社,体育休闲服务;体育休闲服务场所;体育休闲服务场所,西藏南路765号永惠大厦2201室,18341310206,121.4805806,31.21795816,,上海市,,上海市,,黄浦区,,"{'cost': , 'rating': '4.6'}"
B0GKVB2MWM,,凯平棋牌会所(永惠大厦店),体育休闲服务;娱乐场所;棋牌室,西藏南路765号永惠大厦21楼2103室,021-63330332,121.4806318,31.21767244,,上海市,,上海市,,黄浦区,,"{'cost': '61.00', 'rating': '4.2'}"
B0K6ZMSBJL,,撩8·24小时自助台球,体育休闲服务;运动场馆;台球厅,建国新路1号(实华公寓进),18516108892,121.4802927,31.21671191,,上海市,,上海市,,黄浦区,,"{'cost': , 'rating': '4.5'}"
B00150CEAC,,斜桥游泳池,体育休闲服务;运动场馆;游泳馆,大吉路218号(陆家浜路地铁站4号口步行330米),021-63450508,121.4787094,31.21544894,,上海市,,上海市,,黄浦区,,"{'cost': '19.00', 'rating': '4.7'}"
B0HD3UQ8ZZ,,骨语荟·推拿艾灸(陆家浜路店),体育休闲服务;休闲场所;休闲场所,陆家浜路1378号万事利大厦1701室,13402025437,121.4786112,31.21303481,,上海市,,上海市,,黄浦区,,"{'cost': , 'rating': '4.3'}"
B0FFK90QTC,,Real Gym私教工作室(新邻生活站商场店),体育休闲服务;运动场馆;健身中心,陆家浜路1100号新邻生活站商场F3层,18512115368,121.4823081,31.21345135,,上海市,,上海市,,黄浦区,,"{'cost': '260.00', 'rating': '4.0'}"
B0IRUC44IA,,六号棋牌吧(紫宇大楼店),体育休闲服务;娱乐场所;棋牌室,制造局路27紫宇大楼5层(陆家浜路地铁站7号口步行430米),16628566323,121.4780343,31.21248541,,上海市,,上海市,,黄浦区,,"{'cost': , 'rating': '4.6'}"
B0J6UUJE2K,,尽情喜剧脱口秀(上海新天地店),体育休闲服务;影剧院;剧场,湖滨路150号地下一层E03A单元,,121.4745837,31.22281768,,上海市,,上海市,,黄浦区,,"{'cost': , 'opentime2': '13:00-21:00', 'seat_ordering': '0', 'rating': '4.7', 'open_time': '13:00-21:00'}"
B0FFIL7D65,,LOKAL(湖滨道店),体育休闲服务;娱乐场所;酒吧|餐饮服务;中餐厅;中餐厅,湖滨路150号湖滨道购物中心F1,021-63290227;19121792915,121.4745275,31.2226466,,上海市,,上海市,,黄浦区,,"{'cost': '81.00', 'opentime2': '07:00-22:00', 'rating': '4.6', 'open_time': '07:00-22:00', 'meal_ordering': '0'}"
B0I2YZQBO5,,喵杏雀庄(立直麻将馆),体育休闲服务;娱乐场所;棋牌室,陆家浜路1100号裙楼2F摩客空间208室,13386156979,121.4831229,31.21348872,,上海市,,上海市,,黄浦区,,"{'cost': , 'rating': '4.5'}"
B0FFFAL85E,,Y+瑜伽会所(新天地店),体育休闲服务;运动场馆;健身中心,湖滨路202号企业天地5号楼3层,021-63336363;021-63406161;4000090999,121.4744913,31.22298034,,上海市,,上海市,,黄浦区,,"{'cost': '7689.00', 'rating': '4.8'}"
B0FFG4PQFR,,敬业游泳馆,体育休闲服务;运动场馆;游泳馆,尚文路183号,,121.4863129,31.2175102,,上海市,,上海市,,黄浦区,,"{'cost': '23.00', 'rating': '4.4'}"
B0FFMHHOLV,,网鱼网咖(黄浦中华路店),体育休闲服务;娱乐场所;网吧,中华路1003号底层,13301623576,121.4861423,31.21674606,,上海市,,上海市,,黄浦区,,"{'cost': , 'rating': '2.9'}"
B0FFKQ0895,,Jumplify室内蹦极运动(新天地店),体育休闲服务;运动场馆;健身中心,湖滨路168号无限极荟购物中心B1层,15801878363,121.4736144,31.22256308,,上海市,,上海市,,黄浦区,,"{'cost': '4746.00', 'rating': '4.4'}"
B0J2UL2KSV,,喜联空间,体育休闲服务;影剧院;剧场,湖滨路168号无限极荟购物中心2楼W19b,17887950037,121.4729342,31.22235127,,上海市,,上海市,,黄浦区,,"{'cost': , 'opentime2': '12:00-22:00', 'seat_ordering': '0', 'rating': '4.8', 'open_time': '12:00-22:00'}"
B0JK2UWDX2,,慧享福·益福荟颐养院,体育休闲服务;度假疗养场所;疗养院,顺昌路612弄1号,13165216886,121.4746678,31.21277069,,上海市,,上海市,,黄浦区,,"{'cost': , 'rating': }"
B0J275GQTX,,Blac+Blac(中海环宇荟店),体育休闲服务;娱乐场所;酒吧,黄陂南路838弄环宇荟地面一层L120-121,17621089487,121.4724904,31.21394703,,上海市,,上海市,,黄浦区,,"{'cost': , 'rating': '4.8'}"
B0FFL004R6,,大公鸡小酒馆(中海环宇荟),体育休闲服务;娱乐场所;酒吧,黄陂南路838弄中海环宇荟L1层L122,,121.4725145,31.21398008,,上海市,,上海市,,黄浦区,,"{'cost': '489.00', 'rating': '4.6'}"
B0FFK3LV2E,,威尔仕健身(企业天地),体育休闲服务;运动场馆;健身中心,湖滨路企业天地3号楼,021-31659473,121.4730004,31.22252338,,上海市,,上海市,,黄浦区,,"{'cost': '11417.00', 'rating': '4.5'}"
B0H17D6CI3,,FITLAB(无限极荟购物中心店),体育休闲服务;娱乐场所;娱乐场所,湖滨路168号无限极荟购物中心B1层,021-53860788;17521182317,121.4729151,31.22250415,,上海市,,上海市,,黄浦区,,"{'cost': , 'rating': '4.3'}"
B0FFJB4CGX,,Super monkey(新天地时尚Ⅱ),体育休闲服务;运动场馆;健身中心,马当路245号新天地时尚ⅡB1层B137,4009009166,121.470667,31.21893661,,上海市,,上海市,,黄浦区,,"{'cost': '73.00', 'rating': '4.6'}"
B0J055XVWE,,阿三的店(剧本工作室),体育休闲服务;娱乐场所;娱乐场所,会稽路8号金天地国际大厦1705室,13671730714,121.4783323,31.22504731,,上海市,,上海市,,黄浦区,,"{'cost': , 'rating': '4.6'}"
B00152CA98,cinema,UME国际影城(上海新天地店),体育休闲服务;影剧院;电影院,兴业路123弄1-7号上海新天地南里5层L501/502,021-63878808;021-63841122;021-63733333,121.4708815,31.22080431,,上海市,,上海市,,黄浦区,,"{'cost': , 'opentime2': '12:00-24:00', 'seat_ordering': '1', 'rating': '4.7', 'open_time': '12:00-24:00'}"
B0FFFGVFOF,,中田健身工作室(黄浦店),体育休闲服务;运动场馆;健身中心,陆家浜路976号富南大厦F11层,021-63337823;15178917070,121.4857502,31.21396323,,上海市,,上海市,,黄浦区,,"{'cost': '168.00', 'rating': '4.3'}"
B0FFKZS768,,OWNER CIRCLE(中海环宇荟店),体育休闲服务;娱乐场所;酒吧,黄陂南路838号L211(马当路地铁站5号口步行90米),021-63132206,121.472054,31.2137739,,上海市,,上海市,,黄浦区,,"{'cost': '618.00', 'rating': '3.9'}"
B0I2PACGZC,,JADE CLUB,体育休闲服务;娱乐场所;酒吧,建国东路355号中海环宇荟2层L211,18616973086,121.4718684,31.21367843,,上海市,,上海市,,黄浦区,,"{'cost': , 'rating': '4.6'}"
B0H14HSMLJ,,百斯特健身工作室(中海环宇荟店),体育休闲服务;运动场馆;健身中心,黄陂南路838弄中海环宇荟L2层,15216844432,121.4721152,31.21335827,,上海市,,上海市,,黄浦区,,"{'cost': '4572.00', 'rating': '4.0'}"
B0FFM9KVNC,,威尔仕健身(玖号会所),体育休闲服务;运动场馆;健身中心,济南路9号三楼威尔仕健身,021-31659474,121.4727474,31.2235252,,上海市,,上海市,,黄浦区,,"{'cost': , 'rating': '4.7'}"
B0FFHS9G4U,,Hercules健身订制工作室(新天地店),体育休闲服务;运动场馆;健身中心,普安路189号曙光大厦F11层,,121.4743618,31.22449926,,上海市,,上海市,,黄浦区,,"{'cost': '226.00', 'rating': '3.9'}"
B0FFL7DJ0S,,Justin&Julie(新天地旗舰店),体育休闲服务;运动场馆;健身中心,马当路388号Soho复兴广场B1层,13641931074,121.4699989,31.21697271,,上海市,,上海市,,黄浦区,,"{'cost': '72.00', 'rating': '4.4'}"
B0JU5R81NN,,SpicyComedy(新天地时尚一期店),体育休闲服务;影剧院;剧场,兴业路123弄6-7号楼3层南里食集北区14号,18917462922,121.4704671,31.22132693,,上海市,,上海市,,黄浦区,,"{'cost': , 'opentime2': , 'seat_ordering': '0', 'rating': '4.9', 'open_time': }"
B0FFJKP0KN,cinema,橙天嘉禾影城(上海LuOne凯德晶萃店),体育休闲服务;影剧院;电影院,徐家汇路268号05-29六层06-16室,021-63133332;15900972850,121.4720551,31.21241755,,上海市,,上海市,,黄浦区,,"{'cost': , 'opentime2': '10:00-22:00', 'seat_ordering': '1', 'rating': '4.8', 'open_time': '10:00-22:00'}"
B00157A2E2,,威尔仕健身(新天地),体育休闲服务;运动场馆;健身中心,马当路222弄1-6号华府天地地下一层,021-53863923,121.469792,31.22042251,,上海市,,上海市,,黄浦区,,"{'cost': '4547.00', 'rating': '4.7'}"
B0G0LZH1ZU,diner,bluefrog蓝蛙(LuOne凯德晶萃广场店),餐饮服务;外国餐厅;西餐厅(综合风味)|体育休闲服务;娱乐场所;酒吧,徐家汇路268号凯德晶萃广场01层23B/24A/24B号,021-53521757,121.4727896,31.2117669,,上海市,,上海市,,黄浦区,,"{'cost': '169.00', 'opentime2': '周一至周日 10:00-23:00', 'rating': '4.8', 'open_time': '10:00-23:00', 'meal_ordering': '0'}"
B00155D3BS,,好乐迪(新天地店),体育休闲服务;娱乐场所;KTV|体育休闲服务;娱乐场所;迪厅,顺昌路2号1-2层,021-63115858;021-63288388,121.4719197,31.22365784,,上海市,,上海市,,黄浦区,,"{'cost': '165.00', 'rating': '4.8'}"
B0FFKRTWCD,,SUPERMONKEY(马当路单车店),体育休闲服务;运动场馆;健身中心,徐家汇路268号LuOne凯德晶萃广场F4层,4009009166,121.4723611,31.21224448,,上海市,,上海市,,黄浦区,,"{'cost': '93.00', 'rating': '4.5'}"
B0FFK6FFIY,,The Odd Couple酒吧,体育休闲服务;娱乐场所;酒吧,太仓路一八一弄新天地北里25号楼二层,021-63332363,121.470471,31.2220526,,上海市,,上海市,,黄浦区,,"{'cost': '195.00', 'rating': '4.7'}"
B0FFL008M2,,多多淘(LuOne凯德晶萃广场徐家汇路),体育休闲服务;休闲场所;游乐场,徐家汇路268号LuOne凯德晶萃广场F3层,021-60829521,121.4719267,31.21242619,,上海市,,上海市,,黄浦区,,"{'cost': '134.00', 'rating': '4.4'}"
B0H1B5YF0H,,YUZUお箸や&BAR(恒基·旭辉天地店),体育休闲服务;娱乐场所;酒吧,马当路458弄恒基旭辉天地LG1-12,021-61259188;18918476337,121.4704727,31.21415035,,上海市,,上海市,,黄浦区,,"{'cost': , 'rating': '4.4'}"
B0HDSD69BR,,SHAKER LOGIC(恒基·旭辉天地店),体育休闲服务;娱乐场所;酒吧,马当路458弄1恒基·旭辉天地B1层,13072151756;13918970651,121.4704296,31.21415723,,上海市,,上海市,,黄浦区,,"{'cost': , 'rating': '4.6'}"
B0JGA9FJ1O,,恐怖病院,体育休闲服务;休闲场所;游乐场,香港名都三层x先生旁,18217512138,121.4852515,31.22443579,,上海市,,上海市,,黄浦区,,"{'cost': , 'rating': '4.8'}"
B0HR4UYUI1,,全程玖玖馨逸养护院,体育休闲服务;度假疗养场所;疗养院,徽宁路666号(陆家浜路地铁站2号口步行350米),13764320037,121.4823655,31.210348,,上海市,,上海市,,黄浦区,,"{'cost': , 'rating': }"
B0J1PM0LQ7,,CLUB100,体育休闲服务;娱乐场所;酒吧,建国东路411号(马当路地铁站5号口步行180米),,121.4705139,31.21362772,,上海市,,上海市,,黄浦区,,"{'cost': , 'rating': '4.7'}"
B0FFK7VAKB,,BOLD Wellness Club,体育休闲服务;运动场馆;健身中心,马当路616号(马当路地铁站出入口步行70米),021-53866669,121.4715234,31.21222317,,上海市,,上海市,,黄浦区,,"{'cost': , 'rating': '4.7'}"
B0JK6B1T78,,慧享福·福荟颐养院,体育休闲服务;度假疗养场所;疗养院,淡水路325号(一大会址·新天地地铁站出入口步行270米),,121.469372,31.21569061,,上海市,,上海市,,黄浦区,,"{'cost': , 'rating': }"
B0J3VH4ZA1,,永银国际(黄浦店),体育休闲服务;娱乐场所;娱乐场所,西藏南路228号L1层C-D单元L2层,4009665870,121.4761627,31.22620256,,上海市,,上海市,,黄浦区,,"{'cost': , 'rating': '4.3'}"
B0HDSO8LIQ,,二酉书店(恒基·旭辉天地店),体育休闲服务;娱乐场所;游戏厅,马当路458弄1恒基·旭辉天地LG1层,13501697528;13524515731,121.4699199,31.21391895,,上海市,,上海市,,黄浦区,,"{'cost': , 'rating': '4.5'}"
B0FFIWT29Y,,嘉草网咖(斜土东路店),体育休闲服务;娱乐场所;网吧,斜土东路255号三楼,021-33766089,121.4825452,31.20980379,,上海市,,上海市,,黄浦区,,"{'cost': , 'rating': '4.8'}"
B0FFGXZEVQ,,The Beer Shelf,体育休闲服务;娱乐场所;酒吧,淡水路232号(一大会址·新天地地铁站5号口步行270米),13918926885,121.4686464,31.21901106,,上海市,,上海市,,黄浦区,,"{'cost': '81.00', 'rating': '4.6'}"
B0G2MX308J,,健身者联盟(黄浦店),体育休闲服务;运动场馆;健身中心,河南南路489号M2香港名都F4层,15000559245,121.4853488,31.2248129,,上海市,,上海市,,黄浦区,,"{'cost': '673.00', 'rating': '4.4'}"
B0IGG7YUTH,,X先生密室(MRX沉浸娱乐外滩店),体育休闲服务;娱乐场所;娱乐场所,河南南路489号M2香港名都商场3楼,15000201155,121.485413,31.22484408,,上海市,,上海市,,黄浦区,,"{'cost': , 'rating': '4.8'}"
B0FFKSYM42,,拳击猫精酿啤酒(新天地店),体育休闲服务;体育休闲服务场所;体育休闲服务场所,太仓路181弄2号上海新天地南北里F1层,021-53510116,121.4699643,31.22286483,,上海市,,上海市,,黄浦区,,"{'cost': , 'rating': '4.8'}"
B0FFKS96TN,,BLEU BAR,体育休闲服务;娱乐场所;酒吧,嵩山路88号安达仕酒店内,021-23101721;021-64027726,121.4711481,31.22431939,,上海市,,上海市,,黄浦区,,"{'cost': '307.00', 'rating': '4.2'}"
B0JAAHJ99X,,POSH PartyCentre,体育休闲服务;娱乐场所;娱乐场所,大世界地铁站6号口步行230米,4009698907,121.475655,31.22672488,,上海市,,上海市,,黄浦区,,"{'cost': , 'rating': '4.1'}"
B0015501ZV,cinema,万裕国际影城,体育休闲服务;影剧院;电影院,淮海中路99号大上海时代广场6层,021-63910363;021-63910755;021-63910701,121.474181,31.22645584,,上海市,,上海市,,黄浦区,,"{'cost': '40.00', 'opentime2': '10:00-24:00', 'seat_ordering': '1', 'rating': '4.1', 'open_time': '10:00-24:00'}"
B0FFGY8B1O,diner,H1美食不夜城,餐饮服务;中餐厅;综合酒楼|体育休闲服务;体育休闲服务场所;体育休闲服务场所,淮海中路街道淮海中路1号柳林大厦,,121.4758044,31.22695519,,上海市,,上海市,,黄浦区,,"{'cost': '117.00', 'opentime2': , 'rating': '4.5', 'open_time': , 'meal_ordering': '0'}"
B0FFH0HHG8,,雀王棋牌俱乐部(斜士路店),体育休闲服务;娱乐场所;棋牌室,斜土路75号,021-63337981;13162625905,121.4789919,31.20866501,,上海市,,上海市,,黄浦区,,"{'cost': '61.00', 'rating': '4.7'}"
B0H3JD43RY,,庐宫娱乐中心(东方天地店),体育休闲服务;娱乐场所;娱乐场所,徐家汇路322号4层(马当路地铁站4号口步行60米),021-63844823,121.4712636,31.2112999,,上海市,,上海市,,黄浦区,,"{'cost': , 'rating': '4.3'}"
B0FFGOHRH2,,快乐之家老年公寓,体育休闲服务;度假疗养场所;疗养院,黄家路195号,021-63732808,121.4898053,31.2181373,,上海市,,上海市,,黄浦区,,"{'cost': , 'rating': }"
B0FFKTAJMX,,FlowCycle(大上海时代广场店),体育休闲服务;运动场馆;健身中心,淮海中路99号大上海时代广场5楼L515,4006675288,121.474184,31.22651582,,上海市,,上海市,,黄浦区,,"{'cost': , 'rating': '4.3'}"
B0H067F5Q5,,加伍磅Glute Club,体育休闲服务;运动场馆;健身中心,淮海中路大上海时代广场b1,13331865507,121.4747258,31.22691816,,上海市,,上海市,,黄浦区,,"{'cost': , 'rating': '4.6'}"
B0HAHCIV4D,,上海V-SHOW(淮海东路店),体育休闲服务;娱乐场所;KTV,淮海东路99号新尚数码广场4层,4008038241,121.4763432,31.22739552,,上海市,,上海市,,黄浦区,,"{'cost': , 'rating': '4.7'}"
B0I6BXU43H,,INBUNGEE室内蹦极有氧运动馆旗舰店,体育休闲服务;娱乐场所;娱乐场所,大上海时代广场B1楼111(大世界地铁站3号口步行260米),13296665520;17621800970,121.4738298,31.22654781,,上海市,,上海市,,黄浦区,,"{'cost': , 'rating': '4.4'}"
B0FFJA0MBN,,M2酒吧(柳林大厦店),体育休闲服务;娱乐场所;酒吧,淮海中路1号(大世界地铁站6号口步行160米),,121.4754522,31.22713411,,上海市,,上海市,,黄浦区,,"{'cost': '608.00', 'rating': '4.3'}"
B0HDZR0EU1,,Feel Fit健身工作室(U湾·生活中心店),体育休闲服务;运动场馆;健身中心,蒙自东路103号U湾·生活中心F1层,13764425286,121.4733186,31.20954245,,上海市,,上海市,,黄浦区,,"{'cost': '227.00', 'rating': '4.6'}"
B0FFMBQ923,,云朵舞蹈剧场·Amid the clouds,体育休闲服务;运动场馆;综合体育馆,斜土东路176号昂云空间3楼,13122023626,121.4841288,31.20959854,,上海市,,上海市,,黄浦区,,"{'cost': '1237.00', 'rating': '4.2'}"
B0JAKHHCO8,,BOOM SHAKE(上海旗舰店),体育休闲服务;娱乐场所;酒吧,淮海中路138号上海广场北2门旁,18201757519,121.4738338,31.22706658,,上海市,,上海市,,黄浦区,,"{'cost': , 'rating': '4.6'}"
B0FFJF7MFX,,火力拳开拳击运动中心(新尚数码广场店),体育休闲服务;运动场馆;运动场所,大世界地铁站6号口步行120米,021-63331860;13122262345,121.4762268,31.22764207,,上海市,,上海市,,黄浦区,,"{'cost': '185.00', 'rating': '4.2'}"
B0FFIBT0JA,,Perrys(新淮海二店),体育休闲服务;娱乐场所;酒吧,淮海东路45-49号301-307室,18928936927,121.4778493,31.22827841,,上海市,,上海市,,黄浦区,,"{'cost': '113.00', 'rating': '4.8'}"
B0FFGW364H,,温莎KTV(淮海中路店),体育休闲服务;娱乐场所;KTV,市辖区淮海中路138号上海广场B1楼,021-63207777,121.4731154,31.22711954,,上海市,,上海市,,黄浦区,,"{'cost': '294.00', 'rating': '4.8'}"
B0I3LNY3JQ,,喜剧营地(上海广场店)(魔脱喜剧),体育休闲服务;影剧院;剧场,淮海中路138号上海广场二楼201C,13774271015,121.4730341,31.22707734,,上海市,,上海市,,黄浦区,,"{'cost': , 'opentime2': '周一至周五19:00-21:15；周六至周日14:00-21:15', 'seat_ordering': '0', 'rating': '4.7', 'open_time': '14:00-21:15'}"
B0FFFA088X,cinema,兰生典尚影院,体育休闲服务;影剧院;电影院,淮海中路8号兰生大厦5层(大世界地铁站6号口步行150米),021-63190618;021-63343300,121.4751903,31.22780206,,上海市,,上海市,,黄浦区,,"{'cost': , 'opentime2': '10:00-21:30', 'seat_ordering': '1', 'rating': '4.6', 'open_time': '10:00-21:30'}"
B0JUGS930N,,永宁台球,体育休闲服务;运动场馆;台球厅,云南南路261号4-5层,15570373333,121.4774871,31.22813344,,上海市,,上海市,,黄浦区,,"{'cost': , 'rating': '4.7'}"
B0J6VUD33W,,枫瀛阁,体育休闲服务;娱乐场所;棋牌室,云南南路261号3楼,19921188419,121.4775001,31.22811949,,上海市,,上海市,,黄浦区,,"{'cost': , 'rating': '4.8'}"
B0FFFPTVCD,,上海MAGO(金钟广场店),体育休闲服务;娱乐场所;KTV,淮海中路98号金钟广场3-4层,4009677712,121.4744799,31.22756716,,上海市,,上海市,,黄浦区,,"{'cost': , 'rating': '4.6'}"
B0J3KHSQBN,,颐盏Bar,体育休闲服务;娱乐场所;娱乐场所|餐饮服务;餐饮相关场所;餐饮相关,复兴中路514号,18616381039,121.4666872,31.21757449,,上海市,,上海市,,黄浦区,,"{'cost': , 'opentime2': '【正常】全年10:00-24:00', 'rating': '4.8', 'open_time': '10:00-24:00', 'meal_ordering': '0'}"
B0H3DCS9BL,,Shaughnessy Restaurant&Bar,体育休闲服务;娱乐场所;酒吧,淮海东路与广西南路交叉口西南40米,021-60296789,121.4778654,31.22817851,,上海市,,上海市,,黄浦区,,"{'cost': '1210.00', 'rating': '4.2'}"
B0G1N54GQT,,BALANCE(新天地店),体育休闲服务;娱乐场所;酒吧,合肥路636号(一大会址·新天地地铁站出入口步行430米),15221139970,121.4670184,31.21572425,,上海市,,上海市,,黄浦区,,"{'cost': , 'rating': '4.5'}"
B0J6PBUBHW,,M-BOX Daily Concert(淮海路店),体育休闲服务;娱乐场所;酒吧,淮海中路138号上海广场L1层(近金陵中路),021-63335389,121.4731605,31.22746951,,上海市,,上海市,,黄浦区,,"{'cost': '160.00', 'rating': '4.8'}"
B0HBMKIDX9,,DOORS独立密室,体育休闲服务;娱乐场所;娱乐场所,云南南路180号淮云大厦F4层,17702184417,121.4770114,31.22834298,,上海市,,上海市,,黄浦区,,"{'cost': '126.00', 'rating': '4.8'}"
B0FFM59VB5,,PURE Fitness(新天地会馆),体育休闲服务;运动场馆;健身中心,淮海中路381号中环广场L4-1,021-63133008,121.4684132,31.22397609,,上海市,,上海市,,黄浦区,,"{'cost': '14036.00', 'rating': '4.7'}"
B0JK6B0YBO,,魔都一号高尔夫GOLFZON(新天地店),体育休闲服务;高尔夫相关;高尔夫球场,淮海中路222号力宝广场商场B1层106室,15921939407,121.4710075,31.22611217,,上海市,,上海市,,黄浦区,,"{'cost': , 'rating': '4.3'}"
B0FFFDF2OZ,,自由港(汇通大厦店),体育休闲服务;娱乐场所;KTV,金陵东路569号汇通大厦4层(大世界地铁站6号口旁),13916394978,121.475726,31.22851824,,上海市,,上海市,,黄浦区,,"{'cost': '104.00', 'rating': '4.8'}"
B0FFK93C2P,,Z&BFITNESS(香港广场购物中心北区),体育休闲服务;运动场馆;健身中心,淮海中路283号香港广场购物中心北区F4层,021-63296673;13122499675,121.4701055,31.2256679,,上海市,,上海市,,黄浦区,,"{'cost': , 'rating': '4.6'}"
B0G0VKJCZ3,,PURE Yoga(新天地会馆),体育休闲服务;运动场馆;健身中心,淮海中路381号中环广场L3-1,021-63188830,121.4684132,31.22397609,,上海市,,上海市,,黄浦区,,"{'cost': , 'rating': '4.7'}"
B0FFH6T0HX,,DP健身工作室(香港广场店),体育休闲服务;运动场馆;健身中心,淮海中路282号香港广场北座B1层(新旺茶餐厅对面),021-53098172,121.4701728,31.22572606,,上海市,,上海市,,黄浦区,,"{'cost': '267.00', 'rating': '4.4'}"
B0H03UVIHH,,发条鸭无人健身房(斜土路店),体育休闲服务;运动场馆;健身中心,斜土路251弄1号307室,17317911630,121.4761061,31.20758926,,上海市,,上海市,,黄浦区,,"{'cost': , 'rating': '4.5'}"
B0FFFQ1OC5,,美格菲露香园会所(露香园店),体育休闲服务;运动场馆;健身中心,露香园东北1门西北70米(豫园地铁站3号口步行420米),021-63529590;021-63529598,121.480095,31.2286897,,上海市,,上海市,,黄浦区,,"{'cost': '4728.00', 'rating': '4.2'}"
B0H0SR7BST,,INS新乐园,体育休闲服务;娱乐场所;娱乐场所,雁荡路109号,19121804905,121.4656337,31.21974666,,上海市,,上海市,,黄浦区,,"{'cost': , 'rating': '4.8'}"
B0JU3UB81I,,HUSH·INSxPH,体育休闲服务;体育休闲服务场所;体育休闲服务场所,雁荡路109号二楼,18917560097,121.4657501,31.21959704,,上海市,,上海市,,黄浦区,,"{'cost': , 'rating': '4.8'}"
B00156F9IZ,,MAO(LIVEHOUSE店),体育休闲服务;体育休闲服务场所;体育休闲服务场所,重庆南路308号3层,021-64450086,121.4675484,31.2118895,,上海市,,上海市,,黄浦区,,"{'cost': , 'rating': '4.8'}"
B00155GOAN,,嘉草网咖(丽园路店),体育休闲服务;娱乐场所;网吧,丽园路818弄2号3层,021-53016809,121.4718758,31.20846396,,上海市,,上海市,,黄浦区,,"{'cost': , 'rating': '4.8'}"
B0K64ZOKEM,,GARAGE NEVER SLEEPS(GNS),体育休闲服务;体育休闲服务场所;体育休闲服务场所,淮海中路300号K11购物艺术中心6楼,,121.4691535,31.22536544,,上海市,,上海市,,黄浦区,,"{'cost': , 'rating': '4.4'}"
B0FFF00NFT,,香港新坐标量贩式KTV(黄浦店)(装修中),体育休闲服务;娱乐场所;KTV,制造局路361号,021-53869898,121.4806638,31.20836699,,上海市,,上海市,,黄浦区,,"{'cost': '86.00', 'rating': '4.2'}"
B0JRH5DM20,,RADI,体育休闲服务;体育休闲服务场所;体育休闲服务场所,雁荡路109号3层,18721821316;18930255951,121.4656327,31.21975066,,上海市,,上海市,,黄浦区,,"{'cost': , 'rating': '4.7'}"
B0JDLZKK7X,,公路商店(复兴公园店),体育休闲服务;娱乐场所;酒吧,雁荡路109号,15241454173,121.4658384,31.21935539,,上海市,,上海市,,黄浦区,,"{'cost': , 'rating': '4.5'}"
B0I2GHD1AR,,ibarrel bistro&brunch爱杯(蒙自路店),体育休闲服务;娱乐场所;酒吧,蒙自路207号12号楼1层007A,18217788606,121.4737542,31.20760561,,上海市,,上海市,,黄浦区,,"{'cost': , 'rating': '4.7'}"
B00154ZDUN,,白玉兰剧场,体育休闲服务;影剧院;剧场,重庆南路308号,,121.4675745,31.21175064,,上海市,,上海市,,黄浦区,,"{'cost': , 'opentime2': '10:00-16:00(具体开放时间以现成实际演出为准)', 'seat_ordering': '0', 'rating': '4.7', 'open_time': '10:00-16:00'}"
B0JUJHSMV5,,Sober Company,体育休闲服务;娱乐场所;酒吧,雁荡路109号1层F106F107室2层F201F202室,,121.4656297,31.21989159,,上海市,,上海市,,黄浦区,,"{'cost': , 'rating': '4.5'}"
B0J2Z59Y03,,KEZEE,体育休闲服务;娱乐场所;酒吧,雁荡路109号3楼F301-F313室,13901885252,121.465452,31.22046585,,上海市,,上海市,,黄浦区,,"{'cost': , 'rating': '4.7'}"
B0J33GME8T,,GREEN ROOM,体育休闲服务;娱乐场所;酒吧,重庆南路辅路与自忠路交叉口西80米,,121.4657109,31.21952198,,上海市,,上海市,,黄浦区,,"{'cost': , 'rating': '4.6'}"
B0J3OAJDT3,,Culture Club,体育休闲服务;体育休闲服务场所;体育休闲服务场所,雁荡路109号INS复兴·乐园4层,15317213159,121.4656838,31.21972481,,上海市,,上海市,,黄浦区,,"{'cost': , 'rating': '4.6'}"
B00155C2AI,,凯迪拉克·上海音乐厅,体育休闲服务;影剧院;音乐厅,延安东路523号(大世界地铁站3号口步行100米),021-63862836;021-53866666,121.4731804,31.22887491,,上海市,,上海市,,黄浦区,,"{'cost': , 'opentime2': '09:00-20:00', 'seat_ordering': '0', 'rating': '4.8', 'open_time': '09:00-20:00'}"
B0G2K5SOXP,,Green Motion普拉提运动中心,体育休闲服务;运动场馆;健身中心,蒙自路207号盟智园A座2层203室,17702120637,121.4734431,31.20754477,,上海市,,上海市,,黄浦区,,"{'cost': '766.00', 'rating': '4.3'}"
B0JGH7LN4P,,魔兽健身活力凯腾店,体育休闲服务;运动场馆;健身中心,云南南路118号凯腾大厦F2层(大世界地铁站5号口旁),17821190510,121.4761454,31.22950897,,上海市,,上海市,,黄浦区,,"{'cost': , 'rating': '4.6'}"
B0G0AUUM73,,Habit Fitness五里桥店,体育休闲服务;运动场馆;健身中心,制造局路与五里桥路交叉口,13085002020,121.4799324,31.20631487,,上海市,,上海市,,黄浦区,,"{'cost': '5116.00', 'rating': '4.4'}"
B0H32759YH,diner,Le Coquin Bar Bistro(雁荡路55弄小区店),餐饮服务;外国餐厅;法式菜品餐厅|体育休闲服务;娱乐场所;酒吧,南昌路62号,021-58390978,121.465459,31.22138743,,上海市,,上海市,,黄浦区,,"{'cost': '382.00', 'opentime2': '【正常】全年17:00-24:00', 'rating': '4.5', 'open_time': '17:00-24:00', 'meal_ordering': '0'}"
B0J1P52IP3,,奈尔宝家庭中心(豫园店),体育休闲服务;体育休闲服务场所;体育休闲服务场所,旧校场路69号2-3楼(豫园地铁站7号口步行380米),15317055683,121.4863721,31.22875909,,上海市,,上海市,,黄浦区,,"{'cost': , 'rating': '4.9'}"
B0FFGFTISY,,海上梨园,体育休闲服务;影剧院;剧场,豫园文昌路10号和丰楼4层,021-63553801,121.4874068,31.22808447,,上海市,,上海市,,黄浦区,,"{'cost': , 'opentime2': '周一至周日 09:30-21:00', 'seat_ordering': '0', 'rating': '4.8', 'open_time': '09:30-21:00'}"
B00155ILXZ,,好乐迪(重庆中路辅路店),体育休闲服务;娱乐场所;KTV,"淮海中路438号5,6层",021-53510868;021-63115858;15001829061,121.4662523,31.22414923,,上海市,,上海市,,黄浦区,,"{'cost': '130.00', 'rating': '4.7'}"
B0FFHTLRD0,tour,大世界,风景名胜;风景名胜相关;旅游景点|体育休闲服务;体育休闲服务场所;体育休闲服务场所,西藏南路1号(大世界地铁站1号口步行50米),021-63013680,121.4747376,31.23021666,,上海市,,上海市,,黄浦区,,"{'cost': '23.00', 'opentime2': '全年 11:00-23:00开放； 说明:一楼大舞台免费观演【杂技演出秀】: 11:30-12:00； 14:00-14:30； 16:00-16:30； 18:45-19:15； 以上信息仅供参考，具体以当日实际公示信息为准', 'level': , 'rating': '4.8', 'open_time': '11:00-23:00 11:30-12:00 14:00-14:30 16:00-16:30 18:45-19:15', 'ticket_ordering': '0'}"
B0IGO5H4MW,,星空间,体育休闲服务;娱乐场所;娱乐场所,宁海东路与西藏南路交叉口东北40米(大世界地铁站1号口旁),,121.4748389,31.22973217,,上海市,,上海市,,黄浦区,,"{'cost': , 'rating': '4.6'}"
B00156ECMJ,,拳击猫啤酒屋(思南路店),体育休闲服务;娱乐场所;酒吧,复兴中路519-521号,021-64260360,121.4643519,31.21721151,,上海市,,上海市,,黄浦区,,"{'cost': '116.00', 'rating': '4.8'}"
B0FFIYJG0X,,财俊棋牌(金陵商厦店),体育休闲服务;娱乐场所;棋牌室,永寿路85号607金陵商厦(大世界地铁站5号口步行220米),18621031575,121.4775722,31.23029168,,上海市,,上海市,,黄浦区,,"{'cost': '71.00', 'rating': '4.8'}"
B0I1J1ICKJ,,鲁班游泳馆,体育休闲服务;运动场馆;游泳馆,鲁班路183弄7号,021-63017618,121.4712308,31.20754662,,上海市,,上海市,,黄浦区,,"{'cost': , 'rating': '4.6'}"
B0I0MU0MGK,,Bedlam神经且慵懒,体育休闲服务;娱乐场所;酒吧,南昌路70号,15000589953,121.4649323,31.22136406,,上海市,,上海市,,黄浦区,,"{'cost': , 'rating': '4.7'}"
B0J6PMUKLJ,,通赢棋牌(泰丰大厦),体育休闲服务;娱乐场所;棋牌室,徐家汇路与鲁班路交叉口西南60米,021-60125718,121.468275,31.20965054,,上海市,,上海市,,黄浦区,,"{'cost': , 'rating': '4.6'}"
B0FFLOMGSY,,大世界游乐中心,体育休闲服务;体育休闲服务场所;体育休闲服务场所,宁海东路288号(大世界地铁站1号口旁),,121.4753727,31.22999255,,上海市,,上海市,,黄浦区,,"{'cost': , 'rating': '4.6'}"
B0I6CCNL6X,,Paal,体育休闲服务;娱乐场所;酒吧,南昌路94号,,121.464514,31.22126101,,上海市,,上海市,,黄浦区,,"{'cost': , 'rating': '4.8'}"
B0H3DRT98E,,ENDLESS RACING模拟赛车(大世界店),体育休闲服务;运动场馆;运动场所,浙江南路88号东新大厦2楼214室,13004175617;17317925602,121.4776163,31.23064964,,上海市,,上海市,,黄浦区,,"{'cost': '119.00', 'rating': '4.5'}"
B0FFKRQP2K,,加伍磅,体育休闲服务;运动场馆;健身中心,局门路419-421号,13262616015,121.4776656,31.20538878,,上海市,,上海市,,黄浦区,,"{'cost': , 'rating': '4.7'}"
B0JA9CG8UX,,MASTER酒吧(上海旗舰店),体育休闲服务;娱乐场所;酒吧,淮海中路523号TX年轻力中心5F,18201757519,121.4647296,31.22252798,,上海市,,上海市,,黄浦区,,"{'cost': , 'rating': '4.9'}"
B0JA55HXUS,,开心麻花沉浸式游戏剧场赝品拍卖师,体育休闲服务;娱乐场所;娱乐场所,西藏南路1号大世界2层C D厅(大世界地铁站1号口旁),,121.4748168,31.23019189,,上海市,,上海市,,黄浦区,,"{'cost': , 'rating': '4.4'}"
B0FFH9URFG,,上海快网网球俱乐部(黄浦西藏南路店),体育休闲服务;运动场馆;网球场,保屯路138号生活大师会所3楼网球场,4009688828,121.485824,31.20675392,,上海市,,上海市,,黄浦区,,"{'cost': '254.00', 'rating': '4.4'}"
B0IRBR0IKF,,星空间15号睿鱼剧场,体育休闲服务;影剧院;剧场,西藏南路1号大世界3门4楼(大世界地铁站1号口步行140米),,121.474586,31.23037715,,上海市,,上海市,,黄浦区,,"{'cost': , 'opentime2': '周六至周日14:00-22:00；周一至周五19:00-22:00', 'seat_ordering': '0', 'rating': '4.6', 'open_time': '19:00-22:00'}"
B0FFLAKI1S,,拾光里电玩PS5·Switch(人民广场店),体育休闲服务;娱乐场所;网吧,浙江南路88号东新大厦401室,13381839879,121.4778611,31.23086125,,上海市,,上海市,,黄浦区,,"{'cost': , 'rating': '4.3'}"
B0FFL7BQMV,,MK·棋牌·影吧,体育休闲服务;娱乐场所;棋牌室|购物服务;购物相关场所;购物相关场所,思南路113-1号(打浦桥地铁站1号口步行340米),18221325638,121.4663698,31.21082587,,上海市,,上海市,,黄浦区,,"{'cost': , 'rating': '4.2'}"
B0G3UU3NX1,,上海共舞台,体育休闲服务;影剧院;剧场,延安东路433号(大世界地铁站1号口步行260米),,121.474874,31.23082576,,上海市,,上海市,,黄浦区,,"{'cost': , 'opentime2': '周一至周二、周四至周日:09:00-17:00,16:00停止入场(法定节假日除外)', 'seat_ordering': '0', 'rating': '4.9', 'open_time': }"
B0FFG9VG7N,,Relax健身工作室,体育休闲服务;运动场馆;健身中心,"泰康路3号201室(近思南路,中国银行楼上,日月光中心,田子坊旁)",13482725833,121.4668473,31.21010949,,上海市,,上海市,,黄浦区,,"{'cost': '1249.00', 'rating': '4.5'}"
B0H6ZUS5YH,,天合地合棋牌(打浦桥店),体育休闲服务;娱乐场所;棋牌室,斜徐路595号202(打浦桥地铁站2号口步行420米),021-53018727,121.4679901,31.20883316,,上海市,,上海市,,黄浦区,,"{'cost': '71.00', 'rating': '4.8'}"
B0GRO54S82,,范特西棋牌俱乐部(帝庭店),体育休闲服务;体育休闲服务场所;体育休闲服务场所,斜徐路569号帝庭F2层(打浦桥地铁站2号口步行440米),021-63295580;17302116410;17794642837,121.4678306,31.20916957,,上海市,,上海市,,黄浦区,,"{'cost': , 'rating': '4.7'}"
B00156O8DK,,纯K(浙江路店),体育休闲服务;娱乐场所;KTV,浙江南路68号(宁海东路路口),,121.4774045,31.23126675,,上海市,,上海市,,黄浦区,,"{'cost': '129.00', 'rating': '4.7'}"
B0HKZCRKXZ,,龙亨国际娱乐会所,体育休闲服务;娱乐场所;KTV,淮海中路527号,4008044391,121.4644778,31.22250833,,上海市,,上海市,,黄浦区,,"{'cost': , 'rating': '4.5'}"
B00155LVV3,,震天棋牌室(永寿路店),体育休闲服务;娱乐场所;棋牌室,永寿路35号(大世界地铁站1号口步行350米),021-63337533;18018628880,121.4769239,31.23109845,,上海市,,上海市,,黄浦区,,"{'cost': '39.00', 'rating': '4.8'}"
B0HAU9UQOX,,POTENT CLUB,体育休闲服务;体育休闲服务场所;体育休闲服务场所,淮海中路与成都南路交叉口东约60米,15221996868,121.4643976,31.22251911,,上海市,,上海市,,黄浦区,,"{'cost': , 'rating': '4.7'}"
B0HAU9UQOX,,POTENT CLUB,体育休闲服务;体育休闲服务场所;体育休闲服务场所,淮海中路与成都南路交叉口东约60米,15221996868,121.4643976,31.22251911,,上海市,,上海市,,黄浦区,,"{'cost': , 'rating': '4.7'}"
B0J3YHCRSU,,公路商店(TX淮海店),体育休闲服务;娱乐场所;酒吧,淮海中路527号上海锦江国际购物中心商务写字楼,13928520403,121.46423,31.22248069,,上海市,,上海市,,黄浦区,,"{'cost': , 'rating': '4.6'}"
B00155L9SZ,,威尔仕健身(卢湾),体育休闲服务;运动场馆;健身中心,鲁班路166号4楼,021-53022253,121.4694259,31.20725381,,上海市,,上海市,,黄浦区,,"{'cost': '3367.00', 'rating': '4.7'}"
B00155QM2Q,,舒适堡(锦江店),体育休闲服务;运动场馆;健身中心,淮海中路527号锦江国际购物中心商务写字楼7层,021-63908883;021-63908890,121.464223,31.22256064,,上海市,,上海市,,黄浦区,,"{'cost': '1560.00', 'rating': '4.0'}"
B0J2JCCQO3,,上海元宇宙奇幻世界,体育休闲服务;休闲场所;游乐场,丽水路88号城隍珠宝二楼213,13162782052,121.4859435,31.2300882,,上海市,,上海市,,黄浦区,,"{'cost': , 'rating': '4.3'}"
B0J3OASQ2H,,方块大战(城隍庙第一购物中心店),体育休闲服务;休闲场所;游乐场,丽水路88号城隍庙第一购物中心F2层,13122025827,121.4859083,31.23018705,,上海市,,上海市,,黄浦区,,"{'cost': , 'rating': '4.7'}"
B0FFG4EY5Y,,玄扈台,体育休闲服务;影剧院;剧场,方浜中路瑞德里,,121.4897543,31.22765166,,上海市,,上海市,,黄浦区,,"{'cost': , 'opentime2': , 'seat_ordering': '0', 'rating': '4.4', 'open_time': }"
B0I31S50GI,,ORII酒吧,体育休闲服务;娱乐场所;酒吧|餐饮服务;餐饮相关场所;餐饮相关,淮海中路570号二楼,13077152975,121.4635008,31.22270969,,上海市,,上海市,,黄浦区,,"{'cost': , 'opentime2': '22:00-06:00', 'rating': '4.6', 'open_time': '22:00-06:00', 'meal_ordering': '0'}"
B0FFJCOMJF,,TG健身工作室(黄浦分店),体育休闲服务;运动场馆;健身中心,海潮新村西南2门旁(南浦大桥地铁站2号口步行200米),13122778666;13816729515,121.4921714,31.21057598,,上海市,,上海市,,黄浦区,,"{'cost': '152.00', 'rating': '4.4'}"
B0G15MNF4A,,Bar Renaissance,体育休闲服务;娱乐场所;酒吧,南昌路150号,18917704686,121.4628519,31.220627,,上海市,,上海市,,黄浦区,,"{'cost': '205.00', 'rating': '4.7'}"
B0KG4MHDWS,,ARES CLUB(上海旗舰店),体育休闲服务;娱乐场所;酒吧,淮海中路523号TX年轻力中心5F,17819587692,121.4633784,31.22263641,,上海市,,上海市,,黄浦区,,"{'cost': , 'rating': '4.6'}"
B0FFHU8N4I,,豫园.星空梦幻馆(紫锦城百货店),体育休闲服务;体育休闲服务场所;体育休闲服务场所,丽水路81号紫锦城百货1层(豫园地铁站7号口步行140米),13122658850;17521115025,121.486377,31.2307082,,上海市,,上海市,,黄浦区,,"{'cost': '63.00', 'rating': '4.2'}"
B0FFJKT877,,PK·运动娱乐中心·保龄球·游戏·喝酒(迪美购物中心店),体育休闲服务;体育休闲服务场所;体育休闲服务场所,武胜路288号迪美购物中心南门入口处(160室),021-31775136,121.4696086,31.22960271,,上海市,,上海市,,黄浦区,,"{'cost': , 'rating': '4.6'}"
B0FFI1E20R,,PURE LAB健身工作室,体育休闲服务;运动场馆;健身中心,海潮路23号中福花苑一期三楼空中花园,13701605254,121.4941503,31.21284782,,上海市,,上海市,,黄浦区,,"{'cost': '5803.00', 'rating': '4.2'}"
B0FFG38RAH,cinema,上海科技影城(科学会堂思南楼店),体育休闲服务;影剧院;电影院,南昌路59号科学会堂思南楼2-3层,,121.4620505,31.21997626,,上海市,,上海市,,黄浦区,,"{'cost': '36.00', 'opentime2': '09:30-21:30', 'seat_ordering': '1', 'rating': '4.6', 'open_time': '09:30-21:30'}"
B0I6LSZJVD,,126&公路商店,体育休闲服务;娱乐场所;酒吧,成都南路126号(淮海中路地铁站1口步行430米),13321887918,121.4632469,31.22327277,,上海市,,上海市,,黄浦区,,"{'cost': , 'rating': '4.7'}"
B0I2PHI2F8,,茉莉花剧场,体育休闲服务;影剧院;剧场,北海路247号(人民广场地铁站1号口步行390米),021-53098219,121.4739588,31.23202063,,上海市,,上海市,,黄浦区,,"{'cost': , 'opentime2': , 'seat_ordering': '0', 'rating': '4.9', 'open_time': }"
B0I2GM5IFC,,HOPE133年轻力运动中心,体育休闲服务;体育休闲服务场所;体育休闲服务场所,海潮路133号地下一层(南浦大桥地铁站2号口步行250米),13681888870,121.4937088,31.21147815,,上海市,,上海市,,黄浦区,,"{'cost': , 'rating': '4.6'}"
B0FFGT47DK,,PRINCESS普琳女子拳击俱乐部(淮海店),体育休闲服务;运动场馆;运动场所,延安东路1312号,13816546861,121.4662279,31.22729069,,上海市,,上海市,,黄浦区,,"{'cost': '1480.00', 'rating': '4.7'}"
B0H1CU3RW6,,玛尼瑜伽·普拉提(田子坊校区),体育休闲服务;体育休闲服务场所;体育休闲服务场所,泰康路200弄-5号楼(田子坊7号门右边倒数第4家),18552075681,121.4649052,31.21027027,,上海市,,上海市,,黄浦区,,"{'cost': '99.00', 'rating': '4.9'}"
B0J6YA0WR2,,神仙馆(淮海巷店),体育休闲服务;体育休闲服务场所;体育休闲服务场所,成都南路99弄1-3号,021-53869919,121.4633221,31.22343789,,上海市,,上海市,,黄浦区,,"{'cost': , 'rating': '4.7'}"
B0FFJB3BJ8,,PURELAB24小时健身拳击工作室,体育休闲服务;运动场馆;健身中心,陆家浜路418号3楼(南浦大桥地铁站3号口步行350米),13701605254,121.4947655,31.21320849,,上海市,,上海市,,黄浦区,,"{'cost': '5355.00', 'rating': '4.3'}"
B0IK05RL4D,,笑乐汇相声社,体育休闲服务;影剧院;剧场,人民路399号外滩NEO商厦B1层(福民街入口进入),13761229373,121.4869419,31.23125362,,上海市,,上海市,,黄浦区,,"{'cost': , 'opentime2': '10:00-22:00', 'seat_ordering': '0', 'rating': '4.8', 'open_time': '10:00-22:00'}"
B00156F860,,X先生密室(黄浦旗舰店),体育休闲服务;娱乐场所;娱乐场所,局门路550号1号楼,021-33041233;021-33041239,121.4780622,31.20346885,,上海市,,上海市,,黄浦区,,"{'cost': , 'rating': '4.7'}"
B0FFF00P4E,,WOLFPACK,体育休闲服务;娱乐场所;酒吧,福建南路1号(延安东路路口人行天桥底下),,121.479035,31.2326578,,上海市,,上海市,,黄浦区,,"{'cost': , 'rating': '4.5'}"
B0FFK6U6HF,,Dragon Dimension24H龙维健身,体育休闲服务;运动场馆;健身中心,南塘浜路58号东汇商务大楼3楼,13370230583,121.4698575,31.20540389,,上海市,,上海市,,黄浦区,,"{'cost': , 'rating': '4.8'}"
B0J0MCX32W,,小铁24H自助台球(上海外滩店),体育休闲服务;运动场馆;台球厅,人民路399号外滩neo地下一层,17740887147,121.4870955,31.23099919,,上海市,,上海市,,黄浦区,,"{'cost': , 'rating': '4.7'}"
B0FFFHPCK4,,Speak Low彼楼,体育休闲服务;娱乐场所;酒吧,复兴中路579号(近瑞金二路),021-64160133,121.4613828,31.21671911,,上海市,,上海市,,黄浦区,,"{'cost': , 'rating': '4.7'}"
B0FFK290N5,cinema,梦想空间点播影院(迪美店),体育休闲服务;影剧院;电影院,人民大道221号上海迪美购物中心B1-L3(风云再起旁边),15601724598,121.4692995,31.23010263,,上海市,,上海市,,黄浦区,,"{'cost': , 'opentime2': '10:00-22:00', 'seat_ordering': '1', 'rating': '4.2', 'open_time': '10:00-22:00'}"
B0JA7ZW07M,,Opus Lounge,体育休闲服务;娱乐场所;酒吧,西藏中路90号6楼(人民广场地铁站1号口步行250米),,121.4732905,31.23210272,,上海市,,上海市,,黄浦区,,"{'cost': , 'rating': '4.8'}"
B00155N0SJ,,自由港量贩式主题KTV(打浦店),体育休闲服务;娱乐场所;KTV,徐家汇路550号宝鼎大厦4层,021-64660666,121.4658825,31.20793497,,上海市,,上海市,,黄浦区,,"{'cost': '79.00', 'rating': '4.8'}"
B0FFF6XGCO,,风云再起电玩台球(上海人民广场店),体育休闲服务;娱乐场所;游戏厅,武胜路288号迪美购物中心B1层,021-63582343,121.4684989,31.22998952,,上海市,,上海市,,黄浦区,,"{'cost': '96.00', 'rating': '4.6'}"
B0J3OUPXDY,,大话桌游,体育休闲服务;娱乐场所;娱乐场所,人民路399号303室(豫园地铁站7号口步行160米),13166185105,121.4870915,31.23097919,,上海市,,上海市,,黄浦区,,"{'cost': , 'rating': '4.5'}"
B0HRJ4N6IR,,像素剧本推理馆,体育休闲服务;娱乐场所;娱乐场所,武胜路218号上海迪美购物中心B1层,13301907263,121.4690758,31.23029294,,上海市,,上海市,,黄浦区,,"{'cost': '116.00', 'rating': '4.6'}"
B0FFHD47EE,,悦享健身工作室(日月光店),体育休闲服务;运动场馆;健身中心,徐家汇路550号宝鼎大厦F5层,18979859718,121.4659035,31.2081969,,上海市,,上海市,,黄浦区,,"{'cost': '1554.00', 'rating': '4.0'}"
B0J3ZSXVOA,,DAYDAYGO社交磁场,体育休闲服务;体育休闲服务场所;体育休闲服务场所,陆家浜路318号地下一层hope133年轻力运动中心c821,13162957271,121.4952072,31.21215732,,上海市,,上海市,,黄浦区,,"{'cost': , 'rating': '4.8'}"
B0GR6ZXUJG,,PROJECT ONE(淮海店),体育休闲服务;运动场馆;健身中心,淮海中路627号雪豹商城负一层,18930536042,121.4619993,31.22155938,,上海市,,上海市,,黄浦区,,"{'cost': '16123.00', 'rating': '4.2'}"
B0FFL01K34,,未满WeMeet,体育休闲服务;娱乐场所;酒吧,长乐路137号(淮海中路地铁站3号口步行430米),15316089379,121.4625688,31.22365785,,上海市,,上海市,,黄浦区,,"{'cost': , 'rating': '4.6'}"
B0H26R21LS,,鬼十八密室(迪美二店),体育休闲服务;体育休闲服务场所;体育休闲服务场所,人民大道221号迪美购物中心B1-21-23号,021-26136508,121.4689173,31.23025053,,上海市,,上海市,,黄浦区,,"{'cost': '184.00', 'rating': '4.4'}"
B0FFHCPMV7,,多杰拉姆藏餐吧(田子坊店),体育休闲服务;娱乐场所;酒吧,田子坊(打浦桥地铁站1号口步行130米),,121.4638339,31.21038443,,上海市,,上海市,,黄浦区,,"{'cost': '137.00', 'rating': '4.5'}"
B0I6HMNZMM,,1778CLIMBING,体育休闲服务;运动场馆;综合体育馆,南浦大桥地铁站二号口旁边小区门口进来10米左手边小门下楼梯,17612180151,121.493996,31.21029558,,上海市,,上海市,,黄浦区,,"{'cost': , 'rating': '4.7'}"
B0FFH186B6,,纯K(日月光中心泰康区店),体育休闲服务;娱乐场所;KTV,徐家汇路618号日月光中心泰康区3F层3F-TK01,021-60318855,121.4637978,31.20912494,,上海市,,上海市,,黄浦区,,"{'cost': '162.00', 'rating': '4.9'}"
B0J3VC7NON,,金玉兰会客厅(金玉兰广场西座店),体育休闲服务;娱乐场所;KTV,金玉兰广场西座(打浦桥地铁站2号口步行150米),4008636860,121.4663972,31.20723568,,上海市,,上海市,,黄浦区,,"{'cost': , 'rating': '4.6'}"
B0G3FHJYW1,,中田健身工作室(西藏南路店),体育休闲服务;运动场馆;健身中心,中山南路1877号4楼408室,15001921434,121.4870516,31.20426277,,上海市,,上海市,,黄浦区,,"{'cost': '1977.00', 'rating': '4.7'}"
B0IBOHGWGH,,魔都悬空玻璃剧场(日月光中心泰康区),体育休闲服务;休闲场所;休闲场所|科教文化服务;科教文化场所;科教文化场所,徐家汇路618号日月光中心泰康区5F-07,15365070004,121.4637166,31.20913073,,上海市,,上海市,,黄浦区,,"{'cost': , 'rating': '4.0'}"
B0FFH4LMFW,,威尔仕健身(日月光打浦),体育休闲服务;运动场馆;健身中心,徐家汇路618号(泰康区5楼电梯直达),021-31763928,121.4637356,31.20927071,,上海市,,上海市,,黄浦区,,"{'cost': '3957.00', 'rating': '4.5'}"
B0FFFA1TM3,,王子公主奇遇记主题KTV(打浦桥店),体育休闲服务;娱乐场所;KTV|购物服务;专卖店;儿童用品店,打浦路1号金玉兰广场4层(打浦桥地铁站2号口步行130米),021-53513885;18964481146,121.4656749,31.20700887,,上海市,,上海市,,黄浦区,,"{'cost': '125.00', 'rating': '4.6'}"
B0FFJWWV9L,,INLOVE KTV(淮海路店),体育休闲服务;娱乐场所;KTV,淮海中路688号5层(淮海中路地铁站2号口步行210米),021-31775177,121.4607866,31.22154132,,上海市,,上海市,,黄浦区,,"{'cost': , 'rating': '4.9'}"
B0K6ACD8YC,,UMEPLAY逃脱艺术惊悚展(华狮广场店),体育休闲服务;体育休闲服务场所;体育休闲服务场所,淮海中路688号华狮广场3楼,17269762139,121.4607555,31.22165719,,上海市,,上海市,,黄浦区,,"{'cost': , 'rating': '4.8'}"
B0FFH18ACU,,FOUND158下沉式广场,体育休闲服务;体育休闲服务场所;体育休闲服务场所,巨鹿路158-168号,021-33308666,121.4617602,31.22499516,,上海市,,上海市,,黄浦区,,"{'cost': , 'rating': '4.8'}"
B0I1ZAO9GO,,Naughty Vintage,体育休闲服务;体育休闲服务场所;体育休闲服务场所,淮海中路697弄19号(淮海中路地铁站2号口步行270米),13311733883,121.4608328,31.22050193,,上海市,,上海市,,黄浦区,,"{'cost': , 'rating': '4.6'}"
B0GUSZL5JT,,上海黄浦区爱以德养老院(黄浦院),体育休闲服务;度假疗养场所;疗养院,广东路525号,15317639867,121.4771765,31.23379993,,上海市,,上海市,,黄浦区,,"{'cost': , 'rating': '4.8'}"
B0G3OD8J0R,,上海浦岸护理院,体育休闲服务;度假疗养场所;疗养院,上海市市辖区黄浦区广东路525号,15317639867,121.4773501,31.23367448,,上海市,,上海市,,黄浦区,,"{'cost': , 'rating': }"
B0H3F58JQF,,乐刻运动(打浦桥金玉兰广场店),体育休闲服务;运动场馆;健身中心,打浦路1号四楼(打浦桥地铁站2号口步行150米),13162298756,121.465703,31.20685102,,上海市,,上海市,,黄浦区,,"{'cost': '150.00', 'rating': '4.7'}"
B0FFG6HQW2,,288上海音乐现场吧,体育休闲服务;娱乐场所;KTV,泰康路288号2层(打浦桥地铁站1号口步行80米),17717918579,121.4634227,31.20954377,,上海市,,上海市,,黄浦区,,"{'cost': '158.00', 'rating': '4.4'}"
B0J307DC3M,,CAPI CAPI,体育休闲服务;体育休闲服务场所;体育休闲服务场所,瑞金二路85号(香山路)(淮海中路地铁站2号口步行440米),,121.460487,31.21737454,,上海市,,上海市,,黄浦区,,"{'cost': , 'rating': '4.5'}"
B0FFLECCEQ,,圣元护理院,体育休闲服务;度假疗养场所;疗养院,鲁班路卢湾都市花园-西区(鲁班路地铁站1号口步行360米),13321991011,121.4715893,31.20351856,,上海市,,上海市,,黄浦区,,"{'cost': , 'rating': }"
B0HDCAKH2F,,THE DRINKERY,体育休闲服务;娱乐场所;酒吧,瑞金二路50号-1(淮海中路地铁站1号口步行390米),15901367343,121.4599775,31.21816089,,上海市,,上海市,,黄浦区,,"{'cost': '75.00', 'rating': '4.9'}"
B0JRXZYKM9,,TAPE,体育休闲服务;娱乐场所;酒吧,巨鹿路158号地下一层,13916136784,121.4618134,31.22521119,,上海市,,上海市,,黄浦区,,"{'cost': , 'rating': '4.7'}"
B0FFKVYSGL,,Wineapp葡萄酒吧(BFC外滩金融中心店),体育休闲服务;娱乐场所;酒吧|购物服务;专卖店;烟酒专卖店,中山东路588号外滩金融中心南区一楼S115B,021-63666996;15721403392,121.4940598,31.22737268,,上海市,,上海市,,黄浦区,,"{'cost': , 'rating': '4.5'}"
