id,行业类型,名称,类型,地址,联系电话,lng,lat,省份代码,省份名称,城市代码,城市名称,区域代码,区域名称,所在商圈,rating
B0I2OUQRTN,,兄弟垂钓中心,体育休闲服务;休闲场所;垂钓园,沿钱公路131号,13817785163,121.5707844,30.88377472,,上海市,,上海市,,奉贤区,,"{'cost': , 'rating': '4.7'}"
B0HDM1UN2U,,树修营地,体育休闲服务;休闲场所;露营地,青村镇沿钱公路5599号,13472819737,121.569062,30.89563497,,上海市,,上海市,,奉贤区,,"{'cost': , 'rating': '4.2'}"
B0KA17LKMD,,上海东方金融小镇生态园,体育休闲服务;休闲场所;休闲场所|风景名胜;风景名胜相关;旅游景点,畅心路与银杏大道交叉口东120米,,121.5725809,30.89476604,,上海市,,上海市,,奉贤区,,"{'cost': , 'opentime2': , 'level': , 'rating': '3.7', 'open_time': , 'ticket_ordering': '0'}"
B0JDUDN0RW,,斯博特游泳俱乐部,体育休闲服务;运动场馆;游泳馆,融沁路与聚永路交叉口西180米,15021265663,121.5721721,30.89850046,,上海市,,上海市,,奉贤区,,"{'cost': , 'rating': '4.1'}"
B0G3BUP8BD,,桃园813娃娃爷叔农家乐,体育休闲服务;体育休闲服务场所;体育休闲服务场所,青村镇桃园村813号,13061970826,121.5777869,30.88233357,,上海市,,上海市,,奉贤区,,"{'cost': , 'rating': '3.6'}"
B0I6LH1RYV,,赶芒户外拓展营地(奉贤雉趣园基地),体育休闲服务;体育休闲服务场所;体育休闲服务场所,奉柘公路与星火公路交叉口东北420米,,121.5507219,30.87646006,,上海市,,上海市,,奉贤区,,"{'cost': , 'rating': '4.3'}"
B0FFIW5S9K,,上海申隆生态垂钓基地,体育休闲服务;体育休闲服务场所;体育休闲服务场所,上海申隆生态园内(东侧),13818760418;15021834389,121.5769139,30.89613886,,上海市,,上海市,,奉贤区,,"{'cost': , 'rating': '4.0'}"
B0FFLJOTI5,,上海爱钓客垂钓休闲中心,体育休闲服务;休闲场所;垂钓园,青村镇丁家村,17000058089,121.5509494,30.90146985,,上海市,,上海市,,奉贤区,,"{'cost': , 'rating': '4.4'}"
B0J01AT2ZS,,雨彤草莓采摘园,体育休闲服务;休闲场所;采摘园,钱桥镇钱忠村475号,15221531453,121.5473287,30.87758492,,上海市,,上海市,,奉贤区,,"{'cost': , 'rating': '3.6'}"
B0KG6SVJB0,,广扩钓场,体育休闲服务;休闲场所;垂钓园,青村申隆二村丁夏村,,121.5519055,30.90271086,,上海市,,上海市,,奉贤区,,"{'cost': , 'rating': '4.2'}"
B0J22HWYAI,,意境高尔夫野奢营地,体育休闲服务;休闲场所;露营地,沿钱公路与观光路交叉口东南420米,,121.5553236,30.90671744,,上海市,,上海市,,奉贤区,,"{'cost': , 'rating': '4.2'}"
B0J21LCAB4,,恩光葡萄园,体育休闲服务;休闲场所;采摘园,沿钱公路与观光路交叉口南360米,18221749387,121.5526438,30.90695868,,上海市,,上海市,,奉贤区,,"{'cost': , 'rating': '3.8'}"
B0FFGOESVM,,海湾百姓健身中心,体育休闲服务;运动场馆;健身中心,海湾镇民乐路28弄66号29幢,18516244226,121.5602398,30.86512445,,上海市,,上海市,,奉贤区,,"{'cost': '1275.00', 'rating': '4.3'}"
B0FFHFL9H2,,筠韵网吧,体育休闲服务;娱乐场所;网吧,海湾镇星火农场民乐路87号,15932827922,121.560344,30.86486375,,上海市,,上海市,,奉贤区,,"{'cost': , 'rating': '4.1'}"
B0JKBUQEWF,,无忧闲院,体育休闲服务;休闲场所;休闲场所,青村镇李窑村李窑中心路111号,19117263020,121.5824422,30.90462627,,上海市,,上海市,,奉贤区,,"{'cost': , 'rating': '4.8'}"
B0FFILFHZV,,简韵网吧,体育休闲服务;娱乐场所;网吧,海湾镇海农公路民乐路28弄87号,,121.5603791,30.86476786,,上海市,,上海市,,奉贤区,,"{'cost': , 'rating': '3.8'}"
B0J3RRT3HG,,GF台球俱乐部,体育休闲服务;运动场馆;台球厅,青村镇钱桥社区长丰路142号2楼,18606111179,121.5388577,30.87553511,,上海市,,上海市,,奉贤区,,"{'cost': , 'rating': '4.0'}"
B0FFKR756S,,上海海奉护理站,体育休闲服务;度假疗养场所;疗养院,海光路399号,,121.5641458,30.86473909,,上海市,,上海市,,奉贤区,,"{'cost': , 'rating': }"
B0FFHW2ZB0,,上海申亚乡村度假农园-垂钓区,体育休闲服务;体育休闲服务场所;体育休闲服务场所,青村镇沿线公路4698号上海申亚乡村度假农园,,121.5521524,30.91031283,,上海市,,上海市,,奉贤区,,"{'cost': , 'rating': '3.6'}"
B0FFKT7NTI,,奉贤海湾森林公园房车营地(房车露营),体育休闲服务;休闲场所;露营地,观光路与沿钱公路交叉口西320米,,121.5500294,30.91113645,,上海市,,上海市,,奉贤区,,"{'cost': '517.00', 'rating': '4.0'}"
B001576IFB,,草莓采摘园(上海绕城高速店),体育休闲服务;休闲场所;采摘园,青村镇上海绕城高速公路草莓采摘园,021-57561865,121.5504694,30.91174991,,上海市,,上海市,,奉贤区,,"{'cost': , 'rating': '3.7'}"
B0FFGCEIVJ,,六月犬舍采摘点,体育休闲服务;休闲场所;采摘园,观光路,13818460028,121.5460369,30.90994737,,上海市,,上海市,,奉贤区,,"{'cost': , 'rating': '3.6'}"
B0FFMGI6XN,,小番茄采摘园,体育休闲服务;休闲场所;采摘园,青村镇朱店村(沿钱公路与观光路路口向西10米往北),17853639485,121.5503992,30.91231245,,上海市,,上海市,,奉贤区,,"{'cost': , 'rating': '4.1'}"
B0FFHFQGVA,,上海奉华有机草莓采摘园,体育休闲服务;体育休闲服务场所;体育休闲服务场所,平庄西路与中心河路交叉口西360米,13641670585;13801698418,121.5320894,30.89460393,,上海市,,上海市,,奉贤区,,"{'cost': , 'rating': '3.8'}"
B0J0ZZDRA0,,半壁山庄,体育休闲服务;休闲场所;休闲场所,海滨路与星安路交叉口西北40米,,121.5632275,30.86186453,,上海市,,上海市,,奉贤区,,"{'cost': , 'rating': '3.6'}"
B0IUCAOT1H,,星8台球,体育休闲服务;运动场馆;台球厅,振钱路与龙泉路交叉口南80米,,121.5366828,30.87230398,,上海市,,上海市,,奉贤区,,"{'cost': , 'rating': '4.1'}"
B0JD4CL2P4,,卫忠垂钓中心,体育休闲服务;休闲场所;垂钓园,观光路729号,,121.5393214,30.90658798,,上海市,,上海市,,奉贤区,,"{'cost': , 'rating': '4.1'}"
B0FFJSDV7T,,沪嵩农家乐(川湘居),体育休闲服务;休闲场所;休闲场所,奉柘公路3203弄26号,,121.5386706,30.87020178,,上海市,,上海市,,奉贤区,,"{'cost': , 'rating': '4.1'}"
B001553UY4,,上海天阳钢管有限公司,体育休闲服务;运动场馆;健身中心|公司企业;公司;公司,青村镇钱桥金钱公路4638号,021-57595073;13917939892,121.529947,30.88183104,,上海市,,上海市,,奉贤区,,"{'cost': , 'rating': }"
B0IKYSBGNC,,笑笑草莓园,体育休闲服务;休闲场所;采摘园,金钱公路4712号,15356196286;18368009719,121.5316855,30.87864026,,上海市,,上海市,,奉贤区,,"{'cost': , 'rating': '4.4'}"
B0FFM9LP6S,,上海团拓真人野战俱乐部(二店),体育休闲服务;休闲场所;休闲场所,海湾镇海兴路888号都市菜园内,15656301117,121.5876815,30.86903004,,上海市,,上海市,,奉贤区,,"{'cost': '210.00', 'rating': '3.7'}"
B0HBTS11YG,,钱桥网咖,体育休闲服务;娱乐场所;网吧,钱桥新苑大门左侧商铺奉柘公路3314号,15279532335,121.5339259,30.87085727,,上海市,,上海市,,奉贤区,,"{'cost': , 'rating': '4.2'}"
B0JRV5M11O,,恐龙梦公园,体育休闲服务;休闲场所;游乐场,民乐路9号西南门,,121.5599378,30.85817002,,上海市,,上海市,,奉贤区,,"{'cost': , 'rating': '4.1'}"
B0H6XNTX8W,,观光农家乐,体育休闲服务;休闲场所;休闲场所,观光路,,121.5372515,30.90779354,,上海市,,上海市,,奉贤区,,"{'cost': , 'rating': '3.7'}"
B0J0RADA83,,恐龙梦公园·营地,体育休闲服务;休闲场所;休闲场所,海农公路与海兴路交叉口西320米,,121.560046,30.85834808,,上海市,,上海市,,奉贤区,,"{'cost': , 'rating': '3.9'}"
B00156G7G9,,吴房农家乐,体育休闲服务;娱乐场所;棋牌室,政通路112-4号,021-57595265;13818185880,121.5267535,30.88743256,,上海市,,上海市,,奉贤区,,"{'cost': '117.00', 'rating': '4.7'}"
B0G225UHG9,,上海MC亲子营地,体育休闲服务;体育休闲服务场所;体育休闲服务场所,海湾镇都市菜园,17612189980,121.5853534,30.86621295,,上海市,,上海市,,奉贤区,,"{'cost': , 'rating': '3.7'}"
B0FFLPH654,,新张村老年日间服务中心,体育休闲服务;度假疗养场所;疗养院,南张中心路与奉柘公路交叉口北140米,,121.5331375,30.87152397,,上海市,,上海市,,奉贤区,,"{'cost': , 'rating': }"
B0I3VCFQ0H,,光明湖水岸营地,体育休闲服务;体育休闲服务场所;体育休闲服务场所,五四大道与海兴路交叉口北200米,18116237221,121.5859368,30.86560351,,上海市,,上海市,,奉贤区,,"{'cost': , 'rating': '4.0'}"
B0I3F7P5ZM,,冲锋者超级营地,体育休闲服务;体育休闲服务场所;体育休闲服务场所,海兴路888号,13661445230,121.5861009,30.86564054,,上海市,,上海市,,奉贤区,,"{'cost': , 'rating': '3.8'}"
B0FFL8C2JH,,Pan'da黄桃采摘园,体育休闲服务;休闲场所;采摘园,观光路,13661435436,121.5355657,30.90752874,,上海市,,上海市,,奉贤区,,"{'cost': , 'rating': '3.7'}"
B0J3A9PCX4,,静若梵花瑜伽生活馆,体育休闲服务;运动场馆;健身中心,海农公路1188弄166号3层01室,13761831643,121.5640733,30.857796,,上海市,,上海市,,奉贤区,,"{'cost': , 'rating': '3.9'}"
B0HRFC2FF5,,奉贤黄桃采摘垂钓中心,体育休闲服务;休闲场所;休闲场所,解放中心路,13818226118,121.5314878,30.90447364,,上海市,,上海市,,奉贤区,,"{'cost': , 'rating': '4.3'}"
B0JGX92WZ6,,上海团拓真人CS团建俱乐部(都市菜园店),体育休闲服务;体育休闲服务场所;体育休闲服务场所,五四大道与海兴路交叉口北200米,13524341117,121.5858207,30.86558648,,上海市,,上海市,,奉贤区,,"{'cost': , 'rating': '4.0'}"
B0J0AH5MSH,,都市菜园英招越野俱乐部,体育休闲服务;体育休闲服务场所;体育休闲服务场所,海兴路888号都市菜园内,13911018322,121.5855826,30.86544348,,上海市,,上海市,,奉贤区,,"{'cost': , 'rating': '3.6'}"
B0JRDOJXOY,,春兵跆拳道,体育休闲服务;运动场馆;跆拳道场馆,海湾镇海农公路碧桂园凤鸣海尚营销中心三楼,,121.5640232,30.85774496,,上海市,,上海市,,奉贤区,,"{'cost': , 'rating': '3.6'}"
B0H3S7NEJC,,青溪吴之房,体育休闲服务;休闲场所;游乐场,北横港路与吴房村百通路交叉口西约80米,18917600358,121.5252543,30.89251865,,上海市,,上海市,,奉贤区,,"{'cost': , 'rating': '4.7'}"
B0JGAZDJUX,,途乐农场枇杷果园,体育休闲服务;休闲场所;采摘园,奉城镇朱墩村团结613号,,121.5991548,30.89491697,,上海市,,上海市,,奉贤区,,"{'cost': , 'rating': '4.1'}"
B00157HQQA,,申隆垂钓中心,体育休闲服务;休闲场所;垂钓园,青村镇浦星公路8175号,,121.5240178,30.89871972,,上海市,,上海市,,奉贤区,,"{'cost': , 'rating': '4.5'}"
B0IRVUPVCU,,壹花壹木·Live in the Sun,体育休闲服务;休闲场所;休闲场所,青村镇李窑村622号,18321528818,121.5925359,30.91022665,,上海市,,上海市,,奉贤区,,"{'cost': , 'rating': '4.5'}"
B0FFFS7LOS,,姚家村农家会所,体育休闲服务;休闲场所;休闲场所,青港一支路与上塑路交叉口东北100米,,121.5748916,30.92060585,,上海市,,上海市,,奉贤区,,"{'cost': , 'rating': '4.3'}"
B0J3MHFK27,,青普这厢·芳华李窑,体育休闲服务;娱乐场所;娱乐场所,青溪书院东北侧60米,17521542434,121.5935472,30.91026065,,上海市,,上海市,,奉贤区,,"{'cost': , 'rating': '4.2'}"
B0KB6O7W2F,,青普这厢·酒肆,体育休闲服务;娱乐场所;酒吧,青普这厢·芳华李窑东侧,,121.5935662,30.91025565,,上海市,,上海市,,奉贤区,,"{'cost': , 'rating': '3.8'}"
B0IBYANK2T,,畅野时光露营基地,体育休闲服务;休闲场所;休闲场所,吴房村,16621125558,121.520946,30.89604298,,上海市,,上海市,,奉贤区,,"{'cost': , 'rating': '4.5'}"
B0FFG0EH8M,,青村镇朱店村农家会所,体育休闲服务;休闲场所;休闲场所,朱店村1359号,,121.5499343,30.92195888,,上海市,,上海市,,奉贤区,,"{'cost': , 'rating': '4.0'}"
B0JAZ58DQV,,思尔屯·吴房村,体育休闲服务;体育休闲服务场所;体育休闲服务场所,吴房村988,,121.5208728,30.89555407,,上海市,,上海市,,奉贤区,,"{'cost': , 'rating': }"
B0IURAN8RH,,宏鹰篮球,体育休闲服务;运动场馆;篮球场馆,青村镇姚家村1127号,,121.578089,30.92145278,,上海市,,上海市,,奉贤区,,"{'cost': , 'rating': '3.8'}"
B0JDKS61QU,,鹿隐轰趴,体育休闲服务;娱乐场所;娱乐场所,吴房村931号,13681961683,121.5199617,30.89527173,,上海市,,上海市,,奉贤区,,"{'cost': , 'rating': '4.2'}"
B0G3MSWBOW,cinema,DFC上影宝华国际影城(宝华帝华商业广场店),体育休闲服务;影剧院;电影院,南奉公路3111弄9号楼302室,021-57560770,121.5704647,30.92466634,,上海市,,上海市,,奉贤区,,"{'cost': , 'opentime2': '10:00-22:00', 'seat_ordering': '1', 'rating': '4.3', 'open_time': '10:00-22:00'}"
B0H32R6CHK,hotel,上海朵云闲居民宿(奉贤吴房村店),住宿服务;住宿服务相关;住宿服务相关|体育休闲服务;休闲场所;休闲场所,青村镇吴房村914号,021-51343882,121.5192293,30.89512579,,上海市,,上海市,,奉贤区,,"{'cost': , 'star': , 'opentime2': , 'rating': '4.8', 'lowest_price': , 'hotel_ordering': '1', 'open_time': }"
B0FFL45T6F,,唛乐汇KTV(青村店),体育休闲服务;娱乐场所;KTV,青村镇南奉公路3111弄9号,,121.5704436,30.9246883,,上海市,,上海市,,奉贤区,,"{'cost': , 'rating': '4.4'}"
B0HAA758QL,,奉贤区吴房村直升机观光游览基地,体育休闲服务;体育休闲服务场所;体育休闲服务场所,吴房村大舞台西,13601917688,121.5183412,30.8966824,,上海市,,上海市,,奉贤区,,"{'cost': , 'rating': '4.5'}"
B0I2JR0L91,,溪涧原野露营路亚基地,体育休闲服务;休闲场所;露营地,花角中心路667号,13636566019,121.5165397,30.88899585,,上海市,,上海市,,奉贤区,,"{'cost': , 'rating': '4.6'}"
B0K62Z5UKZ,,吴房垂钓园,体育休闲服务;休闲场所;垂钓园,青春镇吴房村茅草屋,,121.517372,30.89557934,,上海市,,上海市,,奉贤区,,"{'cost': , 'rating': '4.6'}"
B0FFK8KR2M,,上海觅望休闲垂钓中心,体育休闲服务;体育休闲服务场所;体育休闲服务场所,青村镇工农村湾工路737号,,121.5317476,30.91640525,,上海市,,上海市,,奉贤区,,"{'cost': , 'rating': '4.3'}"
B0FFMAI2AM,,赶芒·思尔屯户外拓展(吴房村基地),体育休闲服务;娱乐场所;娱乐场所,青村镇吴房村,13331916775,121.5183021,30.89672627,,上海市,,上海市,,奉贤区,,"{'cost': , 'rating': '3.7'}"
B0FFLBFFYP,,哈神电竞(宝华帝华商业广场店),体育休闲服务;娱乐场所;网吧,青村镇南奉公路3111弄1幢,,121.5691526,30.92664578,,上海市,,上海市,,奉贤区,,"{'cost': , 'rating': '3.8'}"
B00156G860,,熙园,公司企业;农林牧渔基地;其它农林牧渔基地|体育休闲服务;休闲场所;休闲场所,青村镇花角村666号,15800555285,121.5156207,30.88801683,,上海市,,上海市,,奉贤区,,"{'cost': , 'rating': }"
B00156GPKI,,青村影剧院,体育休闲服务;影剧院;影剧院相关,青村镇人民路15号,021-57561246,121.5777103,30.92538619,,上海市,,上海市,,奉贤区,,"{'cost': , 'opentime2': '周一至周五:08:30-16:30；周六至周日:08:30-16:30', 'seat_ordering': '1', 'rating': '4.1', 'open_time': '08:30-16:30'}"
B0FFGPQWAX,,上海大寅俱乐部赛车场,体育休闲服务;运动场馆;运动场所,明城路98号,,121.5639679,30.84826733,,上海市,,上海市,,奉贤区,,"{'cost': , 'rating': '4.4'}"
B0J2GMDELP,,唐宫国际K歌沐足,体育休闲服务;娱乐场所;KTV,青村镇南奉公路2677号二楼,18166140346,121.5798853,30.92584834,,上海市,,上海市,,奉贤区,,"{'cost': , 'rating': '4.9'}"
B0I6V98FBQ,,村民活动中心,体育休闲服务;休闲场所;休闲场所,石村路与奉柘公路交叉口北140米,,121.5212884,30.86831109,,上海市,,上海市,,奉贤区,,"{'cost': , 'rating': '3.6'}"
B0FFKZPLL3,,清溪十二坊,体育休闲服务;休闲场所;休闲场所,,,121.5788915,30.92531703,,上海市,,上海市,,奉贤区,,"{'cost': , 'rating': '4.1'}"
B0FFIDHMEJ,,深呼吸量贩KTV(奉贤店),体育休闲服务;娱乐场所;KTV,南奉公路2717-2719号附近,,121.5793979,30.92590101,,上海市,,上海市,,奉贤区,,"{'cost': , 'rating': '4.3'}"
B0KAV5DYHH,,虎鲨电竞(奉贤店),体育休闲服务;娱乐场所;网吧,南奉公路2730号2楼,13386175638,121.5788824,30.92614953,,上海市,,上海市,,奉贤区,,"{'cost': , 'rating': '4.2'}"
B0FFMA8O00,,老刘草莓园,体育休闲服务;休闲场所;休闲场所,上海市奉贤区浦星公路南横港桥南110米路东老刘草莓园,,121.5266093,30.86042787,,上海市,,上海市,,奉贤区,,"{'cost': , 'rating': '4.4'}"
B0FFGNVS1A,,老刘奶油草莓采摘基地,体育休闲服务;休闲场所;采摘园,浦星公路奉柘公路500米路东,,121.5270667,30.8603641,,上海市,,上海市,,奉贤区,,"{'cost': , 'rating': '4.4'}"
B0K62U9PHG,,上海佳明足球俱乐部,体育休闲服务;运动场馆;足球场,新群路12号,15000579057,121.5803488,30.92514304,,上海市,,上海市,,奉贤区,,"{'cost': , 'rating': '3.7'}"
B0FFKO9CU1,,东方网点(南奉公路店),体育休闲服务;娱乐场所;网吧,奉城镇南奉公路2742号二楼,13564756674,121.5789264,30.92615256,,上海市,,上海市,,奉贤区,,"{'cost': , 'rating': '4.1'}"
B0H3RAFSSC,,瀚晶娱乐(青村店),体育休闲服务;体育休闲服务场所;体育休闲服务场所,南奉公路与青村·人民路交叉口东120米,,121.5797202,30.92588222,,上海市,,上海市,,奉贤区,,"{'cost': , 'rating': '3.9'}"
B0FFFSDBJ7,,八公山庄,体育休闲服务;休闲场所;休闲场所|餐饮服务;中餐厅;中餐厅,上海晟铭汽车配件有限公司东北门旁,13671854738,121.6068604,30.90144099,,上海市,,上海市,,奉贤区,,"{'cost': , 'opentime2': '00:00-24:00', 'rating': '4.2', 'open_time': '24小时营业', 'meal_ordering': '0'}"
B0GRF5CZ8Q,,一对一台球俱乐部,体育休闲服务;运动场馆;台球厅,南奉公路2730号农工商超市二楼,17749715222,121.5792707,30.92637765,,上海市,,上海市,,奉贤区,,"{'cost': , 'rating': '4.4'}"
B0K657EHNT,,拿铁健身,体育休闲服务;运动场馆;健身中心,南奉公路与青村·人民路交叉口东60米,15372028164,121.5789955,30.92623756,,上海市,,上海市,,奉贤区,,"{'cost': , 'rating': '3.9'}"
B0J0AD44MY,,唐·k歌沐足,体育休闲服务;娱乐场所;KTV,南奉公路与青村·人民路交叉口东140米,,121.5798653,30.92598125,,上海市,,上海市,,奉贤区,,"{'cost': , 'rating': '3.7'}"
B0JU673G14,,博飞羽毛球馆,体育休闲服务;运动场馆;羽毛球场,光大路555号奉贤区泸升E谷青村智慧产业园,13764202926,121.5862752,30.9238195,,上海市,,上海市,,奉贤区,,"{'cost': , 'rating': '4.2'}"
B0FFG8U8Z1,,兰公馆护理院,体育休闲服务;度假疗养场所;疗养院,南桥镇南奉公路4999号,021-33616880,121.5333197,30.92392767,,上海市,,上海市,,奉贤区,,"{'cost': , 'rating': }"
B0I6FHJT61,,孙氏葡萄园,体育休闲服务;休闲场所;采摘园,卫季村二组216号,,121.5954808,30.91889646,,上海市,,上海市,,奉贤区,,"{'cost': , 'rating': '3.6'}"
B0IRFD6L8Y,,奉贤小潘锦绣黄桃采摘园,体育休闲服务;休闲场所;采摘园,青村镇花角村8组842号,18869962300,121.5130896,30.87983438,,上海市,,上海市,,奉贤区,,"{'cost': , 'rating': '3.9'}"
B0G3JU7S9T,,上海舞翼舞蹈健身中心,体育休闲服务;运动场馆;健身中心,青村镇南明路58号-102(文化活动中心内),021-57567318;13651823702;15216622538,121.5714305,30.92999516,,上海市,,上海市,,奉贤区,,"{'cost': , 'rating': '3.9'}"
B0FFFP6T2U,,百姓健身房,体育休闲服务;运动场馆;健身中心,南明路58号,021-57567318,121.5715036,30.93000722,,上海市,,上海市,,奉贤区,,"{'cost': , 'rating': '4.0'}"
B0H1KC44DU,,自在安和金苹果护养院,体育休闲服务;度假疗养场所;疗养院,青村镇南奉公路4146号,021-31115700,121.5493052,30.93012186,,上海市,,上海市,,奉贤区,,"{'cost': , 'rating': }"
B0FFFPY3CT,,北唐村农家会所,体育休闲服务;休闲场所;休闲场所,青村镇南明路80号,,121.5720373,30.93001973,,上海市,,上海市,,奉贤区,,"{'cost': , 'rating': '3.9'}"
B0IAT901WJ,,金苹果养老院,体育休闲服务;度假疗养场所;疗养院,南奉公路与沿钱公路交叉口西140米,021-31115700,121.5491628,30.93019555,,上海市,,上海市,,奉贤区,,"{'cost': , 'rating': }"
B0FFKKZGPF,,好孩子游乐园,体育休闲服务;休闲场所;游乐场,人民路佳客多生活超市1层,021-57568170,121.5781905,30.92917228,,上海市,,上海市,,奉贤区,,"{'cost': , 'rating': '4.0'}"
B0FFM6TRRY,,老年活动室,体育休闲服务;体育休闲服务场所;体育休闲服务场所,张弄中心路与光明路交叉口东南20米,,121.5177722,30.90920145,,上海市,,上海市,,奉贤区,,"{'cost': , 'rating': }"
B0JRDZY5AN,,小园葡萄葡萄采摘园,体育休闲服务;休闲场所;采摘园,中横河路与汇港支路交叉口北280米,18756538624,121.5127589,30.87550894,,上海市,,上海市,,奉贤区,,"{'cost': , 'rating': '3.6'}"
B0J356S64S,,烁丰草莓采摘园,体育休闲服务;休闲场所;采摘园,湾张村441号南奉公路5518号对面,15821526667;15861685468,121.5256461,30.92180744,,上海市,,上海市,,奉贤区,,"{'cost': , 'rating': '4.3'}"
B0JD4CHP69,,沪戎营地.夏令营.冬令营.周末营,体育休闲服务;休闲场所;休闲场所,人民塘东路801弄29号,,121.5536813,30.84258889,,上海市,,上海市,,奉贤区,,"{'cost': , 'rating': '4.3'}"
B00155QXXS,,果乡度假村,体育休闲服务;度假疗养场所;度假村,光明金钱公路3858号,18616515093,121.5110016,30.90170155,,上海市,,上海市,,奉贤区,,"{'cost': , 'rating': '4.5'}"
B0I3J7B5AG,,沪戎营地烧烤露营团建CS,体育休闲服务;休闲场所;露营地,海湾镇人民塘东路801弄,,121.5540071,30.84246752,,上海市,,上海市,,奉贤区,,"{'cost': , 'rating': '4.1'}"
B0FFKWD03C,,龙枫休闲垂钓,体育休闲服务;休闲场所;垂钓园,团青公路,,121.5563515,30.9341919,,上海市,,上海市,,奉贤区,,"{'cost': , 'rating': '4.5'}"
B0I23713LJ,,上海多乐源乡亲子营地,体育休闲服务;体育休闲服务场所;体育休闲服务场所,奉城镇奉柘公路817号,021-57528888,121.6158608,30.90047987,,上海市,,上海市,,奉贤区,,"{'cost': , 'rating': '4.2'}"
B0I305KAVS,,杨王桔子黄桃采摘园,体育休闲服务;休闲场所;采摘园,光钱路,13023272057,121.5090117,30.89969393,,上海市,,上海市,,奉贤区,,"{'cost': , 'rating': '4.1'}"
B0FFHQRQXP,,贤忠跆拳道光明馆,体育休闲服务;运动场馆;跆拳道场馆,光明镇水琪路213号(东方网点东一百米),,121.5130271,30.90800169,,上海市,,上海市,,奉贤区,,"{'cost': , 'rating': '4.0'}"
B0IB2ZU0MQ,,上海天锋星马术俱乐部,体育休闲服务;运动场馆;马术俱乐部,人民塘东路621号,021-51398100,121.5547066,30.84137134,,上海市,,上海市,,奉贤区,,"{'cost': , 'rating': '4.2'}"
B00155IQ59,,上海市奉贤区奉城镇敬老院,体育休闲服务;度假疗养场所;疗养院,塘外人民路108号,,121.6142129,30.90302683,,上海市,,上海市,,奉贤区,,"{'cost': , 'rating': }"
B0J12ZZ73H,,星罗台球俱乐部,体育休闲服务;运动场馆;台球厅,光明路214号,13817011928,121.5120596,30.90900831,,上海市,,上海市,,奉贤区,,"{'cost': , 'rating': '4.3'}"
B0FFHWL8ZC,,奉翔体育,体育休闲服务;运动场馆;足球场,金钱公路3686号,021-57475913,121.5106488,30.90764303,,上海市,,上海市,,奉贤区,,"{'cost': , 'rating': '4.3'}"
B0JDHL4YUA,,晖金休闲垂钓中心,体育休闲服务;休闲场所;垂钓园,奉柘公路与文化街交叉口东南240米,17621319282,121.6169359,30.89964536,,上海市,,上海市,,奉贤区,,"{'cost': , 'rating': '3.7'}"
B0HKRUPCL9,,上海丰庄草莓采摘园,体育休闲服务;休闲场所;采摘园,青村镇和中村,18994099194,121.5384939,30.93261973,,上海市,,上海市,,奉贤区,,"{'cost': , 'rating': '4.3'}"
B001577PFL,,上海奉贤区益人养老院,体育休闲服务;度假疗养场所;疗养院,优化路58弄-8-18号,021-57470800,121.5072621,30.90526752,,上海市,,上海市,,奉贤区,,"{'cost': , 'rating': }"
B00156G74Q,,上海奉贤区光明社区颐养院,体育休闲服务;度假疗养场所;疗养院,光明社区优化路72号,13764390901,121.5068897,30.90600799,,上海市,,上海市,,奉贤区,,"{'cost': , 'rating': }"
B00156G7IS,,塘外会所,体育休闲服务;休闲场所;休闲场所,塘外镇奉柘公路729号,021-57171177,121.6181306,30.90224167,,上海市,,上海市,,奉贤区,,"{'cost': , 'rating': '4.4'}"
B0J2KM6PO0,,腾勃台球俱乐部(光明店),体育休闲服务;运动场馆;台球厅,优化路198-5号,,121.5068775,30.90868437,,上海市,,上海市,,奉贤区,,"{'cost': , 'rating': '4.3'}"
B0IRSZB0OQ,,老张家黄桃园·采摘奉贤黄桃,体育休闲服务;休闲场所;采摘园,褚家杂货店东南侧150米,,121.5235399,30.92755544,,上海市,,上海市,,奉贤区,,"{'cost': , 'rating': '3.8'}"
B0H0PCGBJO,,六岔道葡萄采摘园,体育休闲服务;休闲场所;采摘园,沿钱公路中心河桥,13764027585,121.5475211,30.93938492,,上海市,,上海市,,奉贤区,,"{'cost': '105.00', 'rating': '4.4'}"
B0J30HAHFQ,,雀潮申棋牌,体育休闲服务;娱乐场所;棋牌室,张弄路145弄5号,,121.5154493,30.92153363,,上海市,,上海市,,奉贤区,,"{'cost': , 'rating': '4.0'}"
B0J05AV5RX,,瓜瓜草莓园,体育休闲服务;休闲场所;采摘园,奉柘公路机口桥向南50米,15057468517,121.5124343,30.85700072,,上海市,,上海市,,奉贤区,,"{'cost': , 'rating': '3.9'}"
B0J0SDG402,,TG台球,体育休闲服务;运动场馆;台球厅,张弄路145弄5号楼三层,13564710103,121.5151964,30.9217128,,上海市,,上海市,,奉贤区,,"{'cost': , 'rating': '3.9'}"
B0J21LCXGN,,上海市·双鱼综合健身馆,体育休闲服务;运动场馆;健身中心,红旗港路与牌楼路交叉口北140米,18964830898,121.5011889,30.90000359,,上海市,,上海市,,奉贤区,,"{'cost': , 'rating': '4.4'}"
B0J0SDG402,,TG台球,体育休闲服务;运动场馆;台球厅,张弄路145弄5号楼三层,13564710103,121.5151964,30.9217128,,上海市,,上海市,,奉贤区,,"{'cost': , 'rating': '3.9'}"
B0J21LCXGN,,上海市·双鱼综合健身馆,体育休闲服务;运动场馆;健身中心,红旗港路与牌楼路交叉口北140米,18964830898,121.5011889,30.90000359,,上海市,,上海市,,奉贤区,,"{'cost': , 'rating': '4.4'}"
B0FFJT90AW,,一一草莓园,体育休闲服务;体育休闲服务场所;体育休闲服务场所,新林公路与金海公路交叉口往北200米东侧,15221486673;18859358362,121.5003708,30.87879855,,上海市,,上海市,,奉贤区,,"{'cost': , 'rating': '3.8'}"
B00156GNVK,,上海明馨艺术养老院,体育休闲服务;度假疗养场所;疗养院,南桥镇金海公路2488号,021-61909190,121.4981936,30.89500856,,上海市,,上海市,,奉贤区,,"{'cost': , 'rating': }"
B0FFHJ3APP,,上海馨岚老年护理院,体育休闲服务;度假疗养场所;疗养院,南桥镇金海公路2488号,021-61909181,121.4981013,30.89484638,,上海市,,上海市,,奉贤区,,"{'cost': , 'rating': }"
B0JG2MBNWX,,沪派沪棋牌吧(贤瑞路店),体育休闲服务;娱乐场所;棋牌室,贤瑞路111弄3号二层207室,17721253096,121.5133951,30.92372347,,上海市,,上海市,,奉贤区,,"{'cost': , 'rating': '4.2'}"
B0J3BU2KM3,,谈小娱24小时自助台球-上海贤瑞路店,体育休闲服务;运动场馆;台球厅,贤瑞路111弄三楼,13381917789,121.5137252,30.92388432,,上海市,,上海市,,奉贤区,,"{'cost': , 'rating': '4.2'}"
B0JG3DUURC,,卓一台球,体育休闲服务;运动场馆;台球厅,贤瑞路与贤浦路交叉口东60米,16621182324,121.5136218,30.92391001,,上海市,,上海市,,奉贤区,,"{'cost': , 'rating': '3.9'}"
B0HGO5W8AF,,老孙葡萄采摘园,体育休闲服务;休闲场所;采摘园,青村沿钱公路,15821438792,121.5478437,30.94145033,,上海市,,上海市,,奉贤区,,"{'cost': , 'rating': '4.2'}"
B0G2BLAHU0,,南桥杨王农家生活驿站,体育休闲服务;休闲场所;休闲场所,金海公路杨王苑,,121.4979801,30.89204566,,上海市,,上海市,,奉贤区,,"{'cost': , 'rating': '4.3'}"
B0FFGO35OQ,,小天地采摘园,体育休闲服务;休闲场所;采摘园,人民塘东路与浦星公路交叉口东北160米,18017631613,121.5327972,30.83867601,,上海市,,上海市,,奉贤区,,"{'cost': , 'rating': '4.5'}"
B0FFMH7840,,韦博健身(南奉公路店),体育休闲服务;运动场馆;健身中心,金钱公路与耀光路交叉口东南100米,,121.5087321,30.91972431,,上海市,,上海市,,奉贤区,,"{'cost': '1797.00', 'rating': '3.8'}"
B00156GEB8,,青村镇西吴村农家会所,体育休闲服务;休闲场所;休闲场所,人民路附近,,121.576833,30.94241447,,上海市,,上海市,,奉贤区,,"{'cost': , 'rating': }"
B0JAL9AD1F,,欢悦公寓,体育休闲服务;娱乐场所;娱乐场所,上海朋馨艺术养老院西门旁,,121.4975212,30.89525441,,上海市,,上海市,,奉贤区,,"{'cost': , 'rating': }"
B0G33SXBAM,,阿好葡萄采摘园,体育休闲服务;休闲场所;采摘园,X409(沿钱公路),13524337863,121.5486917,30.94265226,,上海市,,上海市,,奉贤区,,"{'cost': , 'rating': '4.4'}"
B0I2VH4WE6,,上古太极武馆奉贤分馆,体育休闲服务;运动场馆;运动场所,南桥镇金海公路1611弄南方国际商务大楼3层G室,18717723332,121.4966855,30.89158705,,上海市,,上海市,,奉贤区,,"{'cost': , 'rating': '3.9'}"
B0GK6UQR5V,,湾里体育馆,体育休闲服务;运动场馆;综合体育馆,柘林镇海湾村张奉公路749号,13371953133,121.50367,30.86113763,,上海市,,上海市,,奉贤区,,"{'cost': '32.00', 'rating': '4.4'}"
B0FFMAIPGL,,老陈圣女果草莓采摘园,体育休闲服务;休闲场所;采摘园,方墩和中村,13044114468,121.5499246,30.94331022,,上海市,,上海市,,奉贤区,,"{'cost': , 'rating': '4.5'}"
B0J2270X6O,,玩得来WonderLand乡村别墅轰趴,体育休闲服务;娱乐场所;娱乐场所,西湾村519号,13501804558,121.5018101,30.86446617,,上海市,,上海市,,奉贤区,,"{'cost': , 'rating': '3.8'}"
B0J1R7QQBA,,西湾农场果蔬采摘园,体育休闲服务;休闲场所;采摘园,西湾中心路799号,15996302538,121.5044097,30.86018837,,上海市,,上海市,,奉贤区,,"{'cost': , 'rating': '4.3'}"
B00153641C,,光明村养老院,体育休闲服务;度假疗养场所;疗养院,南桥镇光明社区光钱路500弄-195号,021-68098122,121.5011537,30.91342659,,上海市,,上海市,,奉贤区,,"{'cost': , 'rating': }"
B0I015U665,,一品农园,体育休闲服务;休闲场所;采摘园,青村镇西吴村委会向东200米,13651906952,121.5792113,30.94332856,,上海市,,上海市,,奉贤区,,"{'cost': , 'rating': '4.1'}"
B001556FZS,,棕榈滩海景高尔夫俱乐部,体育休闲服务;高尔夫相关;高尔夫球场,海湾旅游区金汇塘路88号,021-57125858,121.5494888,30.82974357,,上海市,,上海市,,奉贤区,,"{'cost': , 'rating': '4.6'}"
B0K657JN4H,,星界台球俱乐部,体育休闲服务;运动场馆;台球厅,奉炮公路与海拓路交叉口北80米,,121.5109446,30.85016433,,上海市,,上海市,,奉贤区,,"{'cost': , 'rating': '4.2'}"
B0FFJ36TDR,,网鱼网咖(奉贤大学城店),体育休闲服务;娱乐场所;网吧,金海公路99弄60号304.305室(佳源梦想广场三楼),17132099630;18721671181,121.5084417,30.85163219,,上海市,,上海市,,奉贤区,,"{'cost': , 'rating': '4.0'}"
B0FFJNA234,,9H健身(大学城店),体育休闲服务;运动场馆;健身中心,奉炮公路450号常青大厦F3层,17717303681,121.5120737,30.84879739,,上海市,,上海市,,奉贤区,,"{'cost': '604.00', 'rating': '4.4'}"
B0JGLMFS8S,,H台球俱乐部(常青大厦店),体育休闲服务;运动场馆;台球厅,奉炮公路450号常青大厦F4层,15201931712,121.5123667,30.84894015,,上海市,,上海市,,奉贤区,,"{'cost': , 'rating': '4.0'}"
B0KB6C7UZO,,悬念垂钓中心,体育休闲服务;休闲场所;垂钓园,海湾旅游区海马路团结塘路888号,18916959816,121.6024617,30.84131596,,上海市,,上海市,,奉贤区,,"{'cost': , 'rating': '4.1'}"
B0JASHDAP4,cinema,影林私人影院,体育休闲服务;影剧院;电影院,奉炮公路450号3楼302室,19804003285,121.5120677,30.84881036,,上海市,,上海市,,奉贤区,,"{'cost': , 'opentime2': '12:00-02:00', 'seat_ordering': '1', 'rating': '3.9', 'open_time': '12:00-02:00'}"
B0J3AMNL3H,,伙聚星球一期店,体育休闲服务;体育休闲服务场所;体育休闲服务场所,奉炮公路1368号(阿莱德科技园区店),18516702468,121.5107971,30.85031282,,上海市,,上海市,,奉贤区,,"{'cost': , 'rating': '4.2'}"
B0HDCHJNZ5,,久驰9H健身(常青大厦店),体育休闲服务;运动场馆;健身中心,海湾旅游区奉炮公路450号,13524008546,121.5120887,30.84880842,,上海市,,上海市,,奉贤区,,"{'cost': , 'rating': '4.1'}"
B0J2DCYFEN,,上海蝶宴主题乐园,体育休闲服务;体育休闲服务场所;体育休闲服务场所,燎钦公路1279号,,121.6292521,30.8790042,,上海市,,上海市,,奉贤区,,"{'cost': , 'rating': '4.1'}"
B0H33USXIX,,1954团建,体育休闲服务;休闲场所;游乐场,玉穗路与张奉路交叉口西20米,021-33653017,121.4938947,30.88852847,,上海市,,上海市,,奉贤区,,"{'cost': , 'rating': '3.9'}"
B0IAF1CXKX,,沁妃K歌沐足(佳源梦想广场店),体育休闲服务;体育休闲服务场所;体育休闲服务场所,金海公路99弄佳源广场3层,,121.5085271,30.85134461,,上海市,,上海市,,奉贤区,,"{'cost': , 'rating': '4.3'}"
B0FFFPCSE1,,成龙国际乡村俱乐部,体育休闲服务;休闲场所;休闲场所,拓林镇西湾村兴裕路188号,13777196198,121.4982633,30.86606264,,上海市,,上海市,,奉贤区,,"{'cost': , 'rating': '4.4'}"
B0H3LAKEYA,,Holong后浪乐吧(佳源梦想广场店),体育休闲服务;娱乐场所;酒吧,金海公路99弄佳园梦想广场35号楼215室,18616321887,121.5083434,30.85108222,,上海市,,上海市,,奉贤区,,"{'cost': , 'rating': '4.4'}"
B0H3Z7EIQT,,371主题棋牌(佳源梦想广场店),体育休闲服务;娱乐场所;棋牌室,金海公路99弄60号303,15202120311,121.5081748,30.85113969,,上海市,,上海市,,奉贤区,,"{'cost': , 'rating': '4.1'}"
B0HUC7W1PE,,上海老代垂钓园,体育休闲服务;体育休闲服务场所;体育休闲服务场所,浦星公路近海马路,15800968779,121.5384391,30.83184724,,上海市,,上海市,,奉贤区,,"{'cost': , 'rating': '4.5'}"
B0J355VZDJ,,隽芽影院式棋牌·茶室(佳源梦想广场店),体育休闲服务;娱乐场所;棋牌室,金海公路99弄佳源梦想广场,18317028209,121.5083173,30.85136598,,上海市,,上海市,,奉贤区,,"{'cost': , 'rating': '3.9'}"
B0JDSANMYF,,奉城镇护民村青春里,体育休闲服务;度假疗养场所;疗养院,海民路836号,,121.6306291,30.89294816,,上海市,,上海市,,奉贤区,,"{'cost': , 'rating': }"
B0JDSANMYF,,奉城镇护民村青春里,体育休闲服务;度假疗养场所;疗养院,海民路836号,,121.6306291,30.89294816,,上海市,,上海市,,奉贤区,,"{'cost': , 'rating': }"
B00156DYA0,,上师大剧院(上海师范大学-紫藤超市店),体育休闲服务;影剧院;剧场,奉炮路553号上师大海思路100号内(近紫藤苑),,121.5177828,30.84212544,,上海市,,上海市,,奉贤区,,"{'cost': , 'opentime2': , 'seat_ordering': '0', 'rating': '4.3', 'open_time': }"
B001579F2U,,上海光明村农家乐休闲中心,体育休闲服务;休闲场所;休闲场所,南桥镇光明村万众路258号,021-57470908;021-67183999,121.496344,30.90676411,,上海市,,上海市,,奉贤区,,"{'cost': , 'rating': '4.2'}"
B0FFKPQWG3,,阿庆垂钓,体育休闲服务;体育休闲服务场所;体育休闲服务场所,金汇塘路北50米,,121.5933683,30.83521019,,上海市,,上海市,,奉贤区,,"{'cost': , 'rating': '3.9'}"
B0FFKQWKU5,,奉贤青青果园,体育休闲服务;体育休闲服务场所;体育休闲服务场所,柘林镇金海公路2229号,13512196300,121.4907767,30.88689709,,上海市,,上海市,,奉贤区,,"{'cost': , 'rating': '4.5'}"
B0HRJAM856,,上海小钓台垂钓中心,体育休闲服务;休闲场所;垂钓园,团青公路与路口中路西100米鱼塘,,121.6138459,30.92984929,,上海市,,上海市,,奉贤区,,"{'cost': '89.00', 'rating': '4.1'}"
B0GDRUD5EA,,上海丰庄樱桃园,体育休闲服务;休闲场所;采摘园,于庄路428号,13761376238,121.5368232,30.94436691,,上海市,,上海市,,奉贤区,,"{'cost': , 'rating': '4.4'}"
B0H3F59CQQ,,臧三手枪浜垂钓中心,体育休闲服务;休闲场所;垂钓园,海湾镇星火三十四连,13482728568,121.6088043,30.84188136,,上海市,,上海市,,奉贤区,,"{'cost': '210.00', 'rating': '4.2'}"
B0G16U1QTT,,勇者篮球公园(光明创客馆),体育休闲服务;运动场馆;篮球场馆,众旺路368号,13611705349,121.4950925,30.90661845,,上海市,,上海市,,奉贤区,,"{'cost': , 'rating': '4.3'}"
B0FFMEXIIL,,百姓大舞台,体育休闲服务;休闲场所;休闲场所,光乐路96号,,121.5008672,30.9182199,,上海市,,上海市,,奉贤区,,"{'cost': , 'rating': '4.4'}"
B0JK65UL7J,,上海大马帮野骑马术场,体育休闲服务;运动场馆;运动场所,浦星公路751基地4号门9901号,17773315956,121.5334938,30.83185658,,上海市,,上海市,,奉贤区,,"{'cost': , 'rating': '4.3'}"
B0I3CSPKF7,,沐野归水,体育休闲服务;休闲场所;露营地,金海公路2229号,13917350536,121.4895724,30.8868815,,上海市,,上海市,,奉贤区,,"{'cost': , 'rating': '4.3'}"
B0IRY5DUOJ,,魅KTV(上海奉贤爱企谷店),体育休闲服务;娱乐场所;KTV,平庄西路3358弄爱企谷4号楼,18001652816,121.4889941,30.88990701,,上海市,,上海市,,奉贤区,,"{'cost': , 'rating': '4.7'}"
B0FFGPNWCB,,唛乐汇(乐汇购物广场店),体育休闲服务;娱乐场所;KTV,奉炮公路312号2层,021-57338666;18817710334,121.5218088,30.83562226,,上海市,,上海市,,奉贤区,,"{'cost': '90.00', 'rating': '4.4'}"
B0JDD5Y7EK,,赢了呀游戏厅,体育休闲服务;娱乐场所;游戏厅,平庄西路3358号爱企谷云间坊33号小铺,13795266509,121.489833,30.88999046,,上海市,,上海市,,奉贤区,,"{'cost': , 'rating': '3.7'}"
B0IR45ZK0Y,,夏日嗨玩碧海金沙水上游乐园,体育休闲服务;休闲场所;水上活动中心,远东路668号碧海金沙景区游乐区,,121.5587282,30.82476123,,上海市,,上海市,,奉贤区,,"{'cost': '59.00', 'rating': '4.1'}"
B0FFIZ0N5X,,上海振茸农业专业合作社小龙虾垂钓基地,体育休闲服务;体育休闲服务场所;体育休闲服务场所,海民南北路往南700米,13501672341;18016268533,121.6358651,30.88656727,,上海市,,上海市,,奉贤区,,"{'cost': , 'rating': '4.6'}"
B0ID651WNI,,皇冠ktv,体育休闲服务;娱乐场所;酒吧,海思路9号,13661549180,121.5198602,30.8374089,,上海市,,上海市,,奉贤区,,"{'cost': , 'rating': '4.2'}"
B0FFF73OWC,,JQK商务娱乐会所,体育休闲服务;娱乐场所;KTV,奉城镇新奉公路7306号,,121.6323766,30.90617592,,上海市,,上海市,,奉贤区,,"{'cost': , 'rating': '4.6'}"
B0I0VH7PRQ,cinema,BESTAR星轶STARX影城(龙湖上海奉贤天街店),体育休闲服务;影剧院;电影院,金海公路3800号龙湖天街4FZ01,021-67100367,121.4939898,30.9149942,,上海市,,上海市,,奉贤区,,"{'cost': , 'opentime2': '10:00-01:00', 'seat_ordering': '1', 'rating': '4.6', 'open_time': '10:00-01:00'}"
