id,行业类型,名称,类型,地址,联系电话,lng,lat,省份代码,省份名称,城市代码,城市名称,区域代码,区域名称,所在商圈,rating
B0FFK7914I,,上海东方金融小镇开发有限公司,金融保险服务;金融保险服务机构;金融保险机构,青村镇钱桥社区朱蒋村沿钱公路5599号上海申隆生态园内,,121.56667581351682,30.898452197708437,,上海市,,上海市,,奉贤区,,"{'cost': , 'rating': }"
B0FFFFMCHL,,中国邮政储蓄银行(钱桥营业所),金融保险服务;银行;中国邮政储蓄银行,钱桥镇长丰路147-149号,021-57598176;95580,121.53414232010411,30.878031621366862,,上海市,,上海市,,奉贤区,,"{'cost': , 'rating': }"
B00156G7WJ,,中国邮政储蓄银行24小时自助银行(钱桥营业所),金融保险服务;自动提款机;中国邮政储蓄银行ATM,长丰路147-149号,,121.53429216451912,30.87799536351303,,上海市,,上海市,,奉贤区,,"{'cost': , 'rating': }"
B00156GNYQ,,上海农商银行(钱桥支行),金融保险服务;银行;上海农商银行,振水路17号,021-57596185;021-57596569,121.53270207087252,30.877657246007992,,上海市,,上海市,,奉贤区,,"{'cost': , 'rating': }"
B00156GO7H,,上海农商银行24小时自助银行,金融保险服务;自动提款机;上海农商银行ATM,振水路17号,,121.53270207260631,30.877636268222762,,上海市,,上海市,,奉贤区,,"{'cost': , 'rating': }"
B00155IUN4,,中国建设银行(上海星火支行),金融保险服务;银行;中国建设银行,星火开发区民乐路52号,021-57501041;021-57503081;95533,121.55398744967171,30.863955575540732,,上海市,,上海市,,奉贤区,,"{'cost': , 'rating': }"
B0FFFEL9JT,,上海农商银行(海湾分理处),金融保险服务;银行;上海农商银行,海湾镇海农公路1488号,021-57501098,121.55843195804694,30.863773520113508,,上海市,,上海市,,奉贤区,,"{'cost': , 'rating': }"
B00156GB2T,,中国建设银行24小时自助银行(上海星火支行),金融保险服务;自动提款机;中国建设银行ATM,民乐路52号,,121.55417124375074,30.864003113956066,,上海市,,上海市,,奉贤区,,"{'cost': , 'rating': }"
B00155IOMI,,中国邮政储蓄银行(海湾支行),金融保险服务;银行;中国邮政储蓄银行,星火农场海滨路163号,021-57501555,121.55910748572286,30.86364961471909,,上海市,,上海市,,奉贤区,,"{'cost': , 'rating': }"
B0FFGCBOGF,,上海农商银行24小时自助银行(海湾分理处),金融保险服务;自动提款机;上海农商银行ATM,海农公路1488号,,121.55845199694205,30.863779577526152,,上海市,,上海市,,奉贤区,,"{'cost': , 'rating': }"
B0JKTO98XX,,海湾分理处,金融保险服务;银行;银行,海滨路与海农公路交叉口东北20米,,121.55831452784517,30.863761195747674,,上海市,,上海市,,奉贤区,,"{'cost': , 'rating': }"
B0GDSLS4F5,,中国工商银行(青村支行),金融保险服务;银行;中国工商银行,南奉公路3111弄19号楼,021-37567390,121.56537093598817,30.92883140096676,,上海市,,上海市,,奉贤区,,"{'cost': , 'rating': }"
B0JUOUI0J7,,上海农商银行(青村支行),金融保险服务;银行;上海农商银行,南奉公路3111弄5号,021-57561083;021-57566259,121.5664170316778,30.928678955262857,,上海市,,上海市,,奉贤区,,"{'cost': , 'rating': }"
B0GK6SQ2KZ,,中国工商银行24小时自助银行(青村支行),金融保险服务;自动提款机;中国工商银行ATM,南奉公路与振兴路交叉口南40米,,121.56519735447056,30.92879504485481,,上海市,,上海市,,奉贤区,,"{'cost': , 'rating': }"
B00154D6HE,,中国农业银行(青村支行),金融保险服务;银行;中国农业银行,南奉公路2790号,021-20731061;021-20731063,121.5736859271063,30.92863784879312,,上海市,,上海市,,奉贤区,,"{'cost': , 'rating': }"
B00155IOI5,,中国邮政储蓄银行(青村营业所),金融保险服务;银行;中国邮政储蓄银行,南奉公路2806号,021-57561555,121.57336523435197,30.928627349040834,,上海市,,上海市,,奉贤区,,"{'cost': , 'rating': }"
B00155N1DY,,中国农业银行24小时自助银行(青村支行),金融保险服务;自动提款机;中国农业银行ATM,南奉公路2790号,,121.57330405696297,30.928648231602608,,上海市,,上海市,,奉贤区,,"{'cost': , 'rating': }"
B00156GRFR,,中国邮政储蓄银行24小时自助银行(青村营业所),金融保险服务;自动提款机;中国邮政储蓄银行ATM,南奉公路2806号,,121.57328803605249,30.928661189480305,,上海市,,上海市,,奉贤区,,"{'cost': , 'rating': }"
B0JRJACTP6,,中国建设银行(上海青村支行),金融保险服务;银行;中国建设银行,南奉公路2659-2667号,021-57560343;021-57561075,121.57635251756756,30.92839403301594,,上海市,,上海市,,奉贤区,,"{'cost': , 'rating': }"
B0J1P54I1I,,中国建设银行24小时自助银行(青村支行),金融保险服务;自动提款机;中国建设银行ATM,南奉公路2667号,,121.57606301533006,30.92822783798935,,上海市,,上海市,,奉贤区,,"{'cost': , 'rating': }"
B00156ZB9R,,东南郊环高速公路投资发展有限公司,公司企业;公司;公司|金融保险服务;金融保险服务机构;金融保险机构,青村镇光明镇张弄村清璇路142弄33号上海东,,121.51026129500696,30.913424852771268,,上海市,,上海市,,奉贤区,,"{'cost': , 'rating': }"
B00155IQDY,,中国邮政储蓄银行(光明营业所),金融保险服务;银行;中国邮政储蓄银行,青村镇光明东路231号,021-57471555,121.50800198210118,30.910612095975257,,上海市,,上海市,,奉贤区,,"{'cost': , 'rating': }"
B00155IQDZ,,中国邮政储蓄银行24小时自助银行(光明营业所),金融保险服务;自动提款机;中国邮政储蓄银行ATM,光明路231号,,121.50805737036,30.910699317155277,,上海市,,上海市,,奉贤区,,"{'cost': , 'rating': }"
B0FFGK10CJ,,中国邮政储蓄银行24小时自助银行(塘外营业所),金融保险服务;自动提款机;中国邮政储蓄银行ATM,塘外·人民路与禇聚路交叉口东40米,,121.6090846261857,30.904579889639837,,上海市,,上海市,,奉贤区,,"{'cost': , 'rating': }"
B00155ISEX,,上海农商银行(塘外支行),金融保险服务;银行;上海农商银行,奉城镇塘外社区人民路78号,021-57170347,121.61070131606279,30.905720068052922,,上海市,,上海市,,奉贤区,,"{'cost': , 'rating': }"
B00155ISEY,,上海市农村商业银行24小时自助银行(塘外支行),金融保险服务;自动提款机;上海农商银行ATM,人民路78号,,121.6108361276404,30.905802752192326,,上海市,,上海市,,奉贤区,,"{'cost': , 'rating': }"
B0FFF3VT9R,,中国农业银行(上海光明支行),金融保险服务;银行;中国农业银行,南桥镇光明路468号,021-20731086;021-57471153,121.50175601755522,30.909928217681408,,上海市,,上海市,,奉贤区,,"{'cost': , 'rating': }"
B0FFGCEIKC,,中国农业银行24小时自助银行(晨光路),金融保险服务;自动提款机;中国农业银行ATM,晨光文具股份有限公司东南门,,121.50656161439215,30.918676189269576,,上海市,,上海市,,奉贤区,,"{'cost': , 'rating': }"
B0I6DSZE5S,,小微企业专营支行,金融保险服务;金融保险服务机构;金融保险机构,光明路与三官街交叉口西20米,,121.50104097465368,30.90971921643605,,上海市,,上海市,,奉贤区,,"{'cost': , 'rating': }"
B0I6CDLOAD,,上海农商银行光明支行,金融保险服务;银行;上海农商银行,南奉公路6001号12幢101,,121.50701987556238,30.924224310999413,,上海市,,上海市,,奉贤区,,"{'cost': , 'rating': }"
B0GUKUG395,,大地保险公司(奉贤支公司),金融保险服务;金融保险服务机构;金融保险机构,南奉公路6001号,021-67187373,121.50633921364914,30.92361905204693,,上海市,,上海市,,奉贤区,,"{'cost': , 'rating': }"
B0H0ZCVX2X,,海通证券,金融保险服务;金融保险服务机构;金融保险机构,金海公路3660号6幢A栋102、901室,021-57181000,121.49131801667716,30.905858694713558,,上海市,,上海市,,奉贤区,,"{'cost': , 'rating': }"
B0FFGPQROM,,中国银行(南桥新城支行),金融保险服务;银行;中国银行,南奉公路6700、6702、6704、6706号定康路15、17、19、21号二楼201号,021-37195635;021-37199623,121.49595318004184,30.924476468801103,,上海市,,上海市,,奉贤区,,"{'cost': , 'rating': }"
B00156GDCY,,中国银行24小时自助银行(南桥新城支行),金融保险服务;自动提款机;中国银行ATM|金融保险服务;银行;中国银行,南奉公路6700-6706号,021-37195635,121.49607900674266,30.92477785789401,,上海市,,上海市,,奉贤区,,"{'cost': , 'rating': }"
B00156GF5S,,中国银行24小时自助银行(定康路),金融保险服务;自动提款机;中国银行ATM,定康路21号,,121.49607099973515,30.92451811748911,,上海市,,上海市,,奉贤区,,"{'cost': , 'rating': }"
B0FFFPQC53,,安信农业保险(奉贤支公司),金融保险服务;保险公司;保险公司,南奉公路6899号,,121.49291960764644,30.923094950987352,,上海市,,上海市,,奉贤区,,"{'cost': , 'rating': }"
B0JKG42MC3,,青创小贷,金融保险服务;金融保险服务机构;金融保险机构,南桥镇金海公路3111号1楼,,121.48862762604294,30.906892403682114,,上海市,,上海市,,奉贤区,,"{'cost': , 'rating': }"
B001558DFW,,中国农业银行(奉新支行),金融保险服务;银行;中国农业银行,奉新镇新海街81号,021-20731074;95599,121.51714411197528,30.835531081530064,,上海市,,上海市,,奉贤区,,"{'cost': , 'rating': }"
B00155FGCM,,中国邮政储蓄银行(新院营业所),金融保险服务;银行;中国邮政储蓄银行,奉炮公路193号,021-57120555,121.51805408533454,30.835589038553294,,上海市,,上海市,,奉贤区,,"{'cost': , 'rating': }"
B001558DFX,,中国农业银行24小时自助银行(奉新支行),金融保险服务;自动提款机;中国农业银行ATM,奉新镇新海街81号,,121.51712795885027,30.835511017517476,,上海市,,上海市,,奉贤区,,"{'cost': , 'rating': }"
B00156DXHM,,中国邮政储蓄银行24小时自助银行(新院营业所),金融保险服务;自动提款机;中国邮政储蓄银行ATM,奉炮公路193号,,121.51797964507385,30.83545677554379,,上海市,,上海市,,奉贤区,,"{'cost': , 'rating': }"
B0FFHL35X0,,贷款咨询(新海街),金融保险服务;金融保险服务机构;金融保险机构,新海街77号附近,,121.51731719481202,30.835577991046318,,上海市,,上海市,,奉贤区,,"{'cost': , 'rating': }"
B00156G9TJ,,迈苗财务,金融保险服务;金融保险服务机构;金融保险机构,奉城镇南奉公路124号,021-57512213,121.62785517636813,30.916883271648587,,上海市,,上海市,,奉贤区,,"{'cost': , 'rating': }"
B0J0RGI205,,勃翱财税,金融保险服务;金融保险服务机构;金融保险机构,南奉公路与新奉公路交叉口西100米,,121.62959046782854,30.916323098730505,,上海市,,上海市,,奉贤区,,"{'cost': , 'rating': }"
B00155IONE,,中国邮政储蓄银行(奉城支行),金融保险服务;银行;中国邮政储蓄银行,奉城镇川南奉公路9993号,021-57522555,121.63215119841351,30.915921145925974,,上海市,,上海市,,奉贤区,,"{'cost': , 'rating': }"
B00156G7X8,,中国邮政储蓄银行24小时自助银行(奉城营业所),金融保险服务;自动提款机;中国邮政储蓄银行ATM,川南奉公路9993号,,121.6322130055667,30.915991875752365,,上海市,,上海市,,奉贤区,,"{'cost': , 'rating': }"
B0J24ZQOM3,,中国邮政储蓄银行奉城邮局营业部,金融保险服务;银行;中国邮政储蓄银行,川南奉公路与邮电路交叉口西南60米,,121.63226194454515,30.915894843009543,,上海市,,上海市,,奉贤区,,"{'cost': , 'rating': }"
B0J2Z699MS,,景歌资产,金融保险服务;金融保险服务机构;金融保险机构,南桥镇望园南路1121号上海泽天产业园5号楼4楼,,121.48270474111595,30.906451777770325,,上海市,,上海市,,奉贤区,,"{'cost': , 'rating': }"
B0FFG4A1GQ,,安明保险工作室,金融保险服务;保险公司;保险公司,邮电路车站南区39幢129号,021-57520233;13917564949,121.63238021790997,30.91175238908875,,上海市,,上海市,,奉贤区,,"{'cost': , 'rating': }"
B0HR6P5RY6,,中国平安人寿保险股份有限公司,金融保险服务;保险公司;中国平安保险公司,佳源·名人公馆北门旁,,121.63380632734786,30.909852326083225,,上海市,,上海市,,奉贤区,,"{'cost': , 'rating': }"
B0KB6U4W94,,贤盼财务,金融保险服务;金融保险服务机构;金融保险机构,城中路与邮电路交叉口东120米,,121.63354555347516,30.912925496087315,,上海市,,上海市,,奉贤区,,"{'cost': , 'rating': }"
B00156G7UN,,上海浦发村镇银行(奉城支行),金融保险服务;银行;银行,奉城镇兰博路2909号,021-61761945,121.63756554989554,30.909932436570063,,上海市,,上海市,,奉贤区,,"{'cost': , 'rating': }"
B00156G8BZ,,浦发村镇银行24小时自助银行(奉城支行),金融保险服务;自动提款机;自动提款机,奉城镇兰博路2909号,,121.63760239219968,30.909935307215434,,上海市,,上海市,,奉贤区,,"{'cost': , 'rating': }"
B00155IONP,,中国银行(奉城支行),金融保险服务;银行;中国银行,川南奉公路9876号,021-57510401;021-57510402,121.63510828929797,30.91615387743146,,上海市,,上海市,,奉贤区,,"{'cost': , 'rating': }"
B00156G7D5,,上海银行(奉城支行),金融保险服务;银行;上海银行,曙宏路12弄16-17号,021-57512968,121.63465870256722,30.91560891378083,,上海市,,上海市,,奉贤区,,"{'cost': , 'rating': }"
B00156G822,,上海银行24小时自助银行(奉城支行),金融保险服务;自动提款机;上海银行ATM,奉城镇曙宏路12弄16-17号,,121.63468966567204,30.915499951855054,,上海市,,上海市,,奉贤区,,"{'cost': , 'rating': }"
B0IR0ZU9JU,,上海银行(奉贤支行营业部),金融保险服务;银行;上海银行,逸政路29号,021-67117617,121.48335446762188,30.92367029454626,,上海市,,上海市,,奉贤区,,"{'cost': , 'rating': }"
B0J1DCXEIB,,上海银行24小时自助银行(奉贤支行营业部),金融保险服务;自动提款机;上海银行ATM,逸政路29号,,121.48338166275406,30.9236734525669,,上海市,,上海市,,奉贤区,,"{'cost': , 'rating': }"
B0FFLK4DVY,,企畔财务,金融保险服务;财务公司;财务公司,望园南路1278号,13817655624,121.48118954538229,30.91606854082983,,上海市,,上海市,,奉贤区,,"{'cost': , 'rating': }"
B0FFHCFD9V,,中山证券上海望园南路证券营业部,金融保险服务;金融保险服务机构;金融保险机构,南桥镇望园南路1288弄卓越世纪中心5号楼1210室,021-60796909,121.48094155170355,30.917630246609182,,上海市,,上海市,,奉贤区,,"{'cost': , 'rating': }"
B0FFFRBS8X,,中国邮政储蓄银行(上海奉贤区支行),金融保险服务;银行;中国邮政储蓄银行,"望园南路1588弄25号1层、26号1-3层、28号1-3层,29号226室、29号326室",021-57412200;95580,121.48453690303295,30.91797627920976,310000.0,上海市,21.0,上海市,310120.0,奉贤区,南桥,
B0FFICARC7,,上海农商银行(南桥新城支行),金融保险服务;银行;上海农商银行,望园南路1529弄1-3号,021-37530109;021-37530121,121.4842491478605,30.91491323915901,310000.0,上海市,21.0,上海市,310120.0,奉贤区,南桥,
B0FFK0U38Y,,中国平安保险财产保险股份有限公司上海市奉贤支公司,金融保险服务;保险公司;中国平安保险公司,南桥镇百秀路399号中企联合大厦36层,13148356483,121.48351659518529,30.914658234014233,310000.0,上海市,21.0,上海市,310120.0,奉贤区,南桥,
B0FFG0AZ80,,中国邮政储蓄银行24小时自助银行(上海奉贤区支行),金融保险服务;自动提款机;中国邮政储蓄银行ATM,望园南路1588号南奉公路26号,,121.4843873728853,30.918019812683927,310000.0,上海市,21.0,上海市,310120.0,奉贤区,南桥,
B0I0BZCS0W,,上海奉贤投资(集团)有限公司,金融保险服务;金融保险服务机构;金融保险机构,南桥镇百秀路399号中企联合大厦29-31楼,,121.47858515679339,30.917050184500162,,上海市,,上海市,,奉贤区,,"{'cost': , 'rating': }"
B0FFFRX83Q,,中国建设银行(上海奉贤支行),金融保险服务;银行;中国建设银行,望园南路1699号,021-57411284;021-57420394,121.478794946525,30.92098175694625,,上海市,,上海市,,奉贤区,,"{'cost': , 'rating': }"
B0FFFOMAET,,浦发银行(奉贤支行),金融保险服务;银行;上海浦东发展银行,南奉公路7557号,021-67132257;021-67132318;021-67132320,121.47966490319791,30.921488221289465,,上海市,,上海市,,奉贤区,,"{'cost': , 'rating': }"
B0FFM0TN44,,宁波银行(奉贤支行),金融保险服务;银行;银行,南奉公路8509弄28号C128室C401-405室,021-51218003,121.478806124329,30.92051537475861,,上海市,,上海市,,奉贤区,,"{'cost': , 'rating': }"
B0FFHR1OJK,,中国工商银行(奉贤支行营业厅),金融保险服务;银行;中国工商银行,南奉公路7809号,021-57102753;021-57102755,121.47759773115519,30.92108369445797,,上海市,,上海市,,奉贤区,,"{'cost': , 'rating': }"
B0FFG95LW4,,浦发银行24小时自助银行(奉贤支行),金融保险服务;自动提款机;上海浦东发展银行ATM,南奉公路7557号庙泾新村51号,,121.47970422438301,30.921662242293042,,上海市,,上海市,,奉贤区,,"{'cost': , 'rating': }"
B0FFL9KSFL,,中国建设银行24小时自助银行(奉贤支行),金融保险服务;自动提款机;中国建设银行ATM,南方国际三大道与望园南路交叉口西北40米,,121.47896012187503,30.920900811255986,,上海市,,上海市,,奉贤区,,"{'cost': , 'rating': }"
B0FFH3OVS5,,交通银行(上海奉贤支行),金融保险服务;银行;交通银行,南桥镇南奉公路7779号,021-33610261;021-33611891,121.4779319713022,30.921129576314314,,上海市,,上海市,,奉贤区,,"{'cost': , 'rating': }"
B0FFH10VB6,,浙商银行(上海奉贤支行),金融保险服务;银行;银行,南奉公路7777号,021-37569758;021-37569771,121.47842947871123,30.92111847322571,,上海市,,上海市,,奉贤区,,"{'cost': , 'rating': }"
B0IKKUUFDK,,兴业银行(奉贤支行),金融保险服务;银行;兴业银行,南桥镇南奉公路7888弄10号,95561,121.47839293786619,30.922485640022124,,上海市,,上海市,,奉贤区,,"{'cost': , 'rating': }"
B0H6JDF89W,,华泰证券,金融保险服务;证券公司;证券公司,南桥镇望园南路庙泾新村46-49号,021-67136007,121.47962065694169,30.921410059396347,,上海市,,上海市,,奉贤区,,"{'cost': , 'rating': }"
B0JASZ7VQV,,华泰证券望园南路证券营业部,金融保险服务;证券公司;证券营业厅,南奉公路7557号,,121.4796730368546,30.92142234377005,,上海市,,上海市,,奉贤区,,"{'cost': , 'rating': }"
B0K6N56VWQ,,华泰证券望园南路营业部,金融保险服务;金融保险服务机构;金融保险机构,望园南路庙泾新村46-49号,,121.47966190108251,30.921390320455313,,上海市,,上海市,,奉贤区,,"{'cost': , 'rating': }"
B0FFJ2CX4P,,交通银行24小时自助银行(奉贤支行),金融保险服务;自动提款机;交通银行ATM|金融保险服务;银行相关;银行相关,南桥镇南奉公路7779号,,121.47800050634386,30.921126974684174,,上海市,,上海市,,奉贤区,,"{'cost': , 'rating': '3.5'}"
B0IKKCVT74,,北京银行(上海奉贤支行),金融保险服务;银行;北京银行,南奉公路7888号,95526,121.47834468562353,30.922326555202858,,上海市,,上海市,,奉贤区,,"{'cost': , 'rating': }"
B0FFH3OVTZ,,浙商银行24小时自助银行(上海奉贤支行),金融保险服务;自动提款机;自动提款机,南奉公路7777号南方国际中心大厦F1层,,121.47844754132814,30.92111158928965,,上海市,,上海市,,奉贤区,,"{'cost': , 'rating': }"
B0IKOH4T0W,,荣权财务,金融保险服务;金融保险服务机构;金融保险机构,百兴路8号城太时尚生活广场,,121.479216255207,30.91911241740864,,上海市,,上海市,,奉贤区,,"{'cost': , 'rating': }"
B0JK0DQG25,,中国人寿,金融保险服务;保险公司;中国人寿保险公司,南奉公路7777号南方国际中心大厦21楼,021-37596800,121.47806092443598,30.920996475376132,,上海市,,上海市,,奉贤区,,"{'cost': , 'rating': }"
B0FFK0N0L0,,个人信用报告自助查询网点,金融保险服务;金融保险服务机构;金融保险机构,南奉公路7809号(中国工商银行股份有限公司上海市奉贤支行营业部),95588,121.47748895976208,30.921078076051117,,上海市,,上海市,,奉贤区,,"{'cost': , 'rating': }"
B00157GRBC,,中国农业银行(奉贤支行),金融保险服务;银行;中国农业银行,南奉公路8515-8519号南方国际大厦1层,021-20731008;021-57420242,121.47539568799252,30.92058261467083,,上海市,,上海市,,奉贤区,,"{'cost': , 'rating': }"
B0FFG95IYD,,方正证券股份有限公司上海南奉公路证券营业部,金融保险服务;证券公司;证券公司,南奉公路7777号南方国际大厦7层717室,021-61180675;021-61180676,121.47822096374884,30.921109278746997,,上海市,,上海市,,奉贤区,,"{'cost': , 'rating': }"
B0JRFX0GZD,,民生人寿保险股份有限公司上海分公司,金融保险服务;保险公司;保险公司,南方国际三大道与望园南路交叉口西100米,,121.4783408827279,30.921021075809666,,上海市,,上海市,,奉贤区,,"{'cost': , 'rating': }"
B0J6VZ7UQI,,兴业银行24小时自助银行(奉贤支行),金融保险服务;自动提款机;兴业银行ATM,南奉公路7888弄10号,,121.47841812265168,30.922505770609334,,上海市,,上海市,,奉贤区,,"{'cost': , 'rating': }"
B0FFH2THI5,,前海人寿,金融保险服务;金融保险服务机构;金融保险机构,南奉公路7777号南方国际中心大厦F12层,021-67139055,121.47821293528253,30.921120219195622,,上海市,,上海市,,奉贤区,,"{'cost': , 'rating': }"
B0FFGBROOZ,,友邦保险公司(南方国际中心大厦店),金融保险服务;金融保险服务机构;金融保险机构,南奉公路7777号南方国际中心大厦F7层,021-37569213,121.47775679862922,30.920807943583,,上海市,,上海市,,奉贤区,,"{'cost': , 'rating': }"
B0FFJP1ZIK,,中国农业银行24小时自助银行(奉贤支行),金融保险服务;自动提款机;中国农业银行ATM,百齐路288号百联南桥购物中心F1层,,121.47508956405176,30.920473003033273,,上海市,,上海市,,奉贤区,,"{'cost': , 'rating': }"
B0KBF5V3Q4,,自动提款机(百联南桥购物中心),金融保险服务;自动提款机;自动提款机,百齐路588号百联南桥购物中心1F层,,121.47642789605422,30.919272091398984,,上海市,,上海市,,奉贤区,,"{'cost': , 'rating': }"
B0FFF2EHFG,,泰康人寿保险股份有限公司(南奉公路营销部),金融保险服务;保险公司;泰康人寿保险公司,南奉公路8519号南方国际大厦F21层,,121.47513591155982,30.92057714257698,,上海市,,上海市,,奉贤区,,"{'cost': , 'rating': }"
B0FFF2VJT7,,东北证券股份有限公司上海南奉公路证券营业部,金融保险服务;金融保险服务机构;金融保险机构,南桥镇南奉公路8519号南方国际大厦8层A-B-C-D-E 室,021-61189998,121.4751922946546,30.9206613623188,,上海市,,上海市,,奉贤区,,"{'cost': , 'rating': }"
B0H26C0FEL,,普禾财税·注册公司·代理记账,金融保险服务;财务公司;财务公司,华龙公寓南门旁,13023235886,121.47507320611679,30.918138795583708,310000.0,上海市,21.0,上海市,310120.0,奉贤区,环城东路,
B00155IUM8,,中国建设银行(上海奉城支行),金融保险服务;银行;中国建设银行,奉城镇川南奉公路9756号,021-57521020;021-57521022;021-57521023,121.6380220612937,30.91569515846419,,上海市,,上海市,,奉贤区,,"{'cost': , 'rating': }"
B0FFHHZFXH,,招商银行(奉城镇社区支行),金融保险服务;银行;招商银行,川南奉公路9736号,021-57520932,121.6384985132384,30.915654649321738,,上海市,,上海市,,奉贤区,,"{'cost': , 'rating': }"
B00156GNZV,,上海农商银行(奉城支行),金融保险服务;银行;上海农商银行,奉城镇川南奉公路9851-9857号,021-57512343;021-57522214,121.63848168466943,30.91511034750028,,上海市,,上海市,,奉贤区,,"{'cost': , 'rating': }"
B00155IUM9,,中国建设银行24小时自助银行(奉城支行),金融保险服务;自动提款机;中国建设银行ATM,南奉公路9756号,,121.63810682871316,30.915686889743295,,上海市,,上海市,,奉贤区,,"{'cost': , 'rating': }"
B0I6Y7O573,,中国工商银行(奉城支行),金融保险服务;银行;中国工商银行,川南奉公路9718号(农业银行奉城支行东侧100米),021-57513707;95588,121.63961183779782,30.915625027358978,,上海市,,上海市,,奉贤区,,"{'cost': , 'rating': }"
B001558DFV,,中国农业银行(上海奉城支行),金融保险服务;银行;中国农业银行,川南奉公路9728号,021-20731053;021-20731054,121.63885035831905,30.915610555967532,,上海市,,上海市,,奉贤区,,"{'cost': , 'rating': }"
B0FFIDL6T2,,招商银行24小时自助银行(奉城镇社区支行),金融保险服务;自动提款机;招商银行ATM,川南奉公路9736号,,121.63851648519862,30.91564960379559,,上海市,,上海市,,奉贤区,,"{'cost': , 'rating': }"
B0JBH5Y9R3,,浦发银行(奉城支行),金融保险服务;银行;上海浦东发展银行,川南奉公路9718号7幢1层,021-57520021,121.63929494120244,30.915694995314283,,上海市,,上海市,,奉贤区,,"{'cost': , 'rating': }"
B00155IUNO,,中国农业银行24小时自助银行(奉城支行),金融保险服务;自动提款机;中国农业银行ATM,奉城镇南奉公路9728号,,121.6388214991445,30.915672575320603,,上海市,,上海市,,奉贤区,,"{'cost': , 'rating': }"
B0I6YCTI7Q,,中国工商银行24小时自助银行,金融保险服务;自动提款机;中国工商银行ATM,川南奉公路9718号(农业银行奉城支行东侧100米),,121.63952817917063,30.915543400235226,,上海市,,上海市,,奉贤区,,"{'cost': , 'rating': }"
B0JUT5I1KV,,财税管家,金融保险服务;银行;银行,奉城镇川南奉公路号9712号,13918149565,121.63999461191887,30.91571764459144,,上海市,,上海市,,奉贤区,,"{'cost': , 'rating': }"
B0FFF69DX7,,中国农业银行24小时自助银行(恒爱路),金融保险服务;自动提款机;中国农业银行ATM,奉贤区商业街3号,,121.497457254028,30.83865431015027,,上海市,,上海市,,奉贤区,,"{'cost': , 'rating': }"
B0JGKUNJKW,,上海嘉禾弘盛财务咨询有限公司,公司企业;公司企业;公司企业|金融保险服务;金融保险服务机构;金融保险机构,新奉公路6328号2102号,,121.63097499859096,30.926069596473592,,上海市,,上海市,,奉贤区,,"{'cost': , 'rating': }"
B0FFGJ9NH0,,上海兆国能源发展有限公司,金融保险服务;金融保险服务机构;金融保险机构,南桥镇正环路666弄1号,021-68381025,121.47032410478154,30.911430805516236,,上海市,,上海市,,奉贤区,,"{'cost': , 'rating': }"
B0J6ZN8XD4,,浙商保险,金融保险服务;保险公司;保险公司,南港路与正环路交叉口西40米,,121.47051512812467,30.912623456175492,,上海市,,上海市,,奉贤区,,"{'cost': , 'rating': }"
B00155Q92C,,中国工商银行(环城南路支行),金融保险服务;银行;中国工商银行,,021-57190059;021-57190235,121.47169263352214,30.909810249544787,310000.0,上海市,21.0,上海市,310120.0,奉贤区,环城东路,
B0HR4UZ1PN,,上海农商银行(奉贤支行),金融保险服务;银行;上海农商银行,望园南路2251、2259、2263、2267号、展园路399、407号,021-57106246,121.47512815184636,30.930440426881464,,上海市,,上海市,,奉贤区,,"{'cost': , 'rating': }"
B0HRV7XFHL,,爱建信托,金融保险服务;金融保险服务机构;金融保险机构,望园路德丰路299弄1号南郊聚润广场F1层,,121.47779454758204,30.930051224927404,,上海市,,上海市,,奉贤区,,"{'cost': , 'rating': }"
B0IGVC4BTT,,上海农商银行24小时自助银行(奉贤支行),金融保险服务;自动提款机;上海农商银行ATM,望园南路2251、2259、2263、2267号、展园路399、407号,,121.4752308859479,30.930588839676055,,上海市,,上海市,,奉贤区,,"{'cost': , 'rating': }"
B0FFF4XULT,,中宏保险公司,金融保险服务;金融保险服务机构;金融保险机构,南桥镇南奉公路8519号南方国际大厦9楼B-D室,,121.47314147844465,30.919951544733028,,上海市,,上海市,,奉贤区,,"{'cost': , 'rating': }"
B00156F4F3,,华安保险,金融保险服务;保险公司;保险公司,解放东路769号,021-37525195,121.47054271498388,30.922114408303013,,上海市,,上海市,,奉贤区,,"{'cost': , 'rating': }"
B0FFL827DV,,中银国际证券上海泽丰路证券营业部,金融保险服务;金融保险服务机构;金融保险机构,南桥镇泽丰路127号(金海湖地铁站3号口步行440米),021-57182205,121.47984323023788,30.933217388089407,,上海市,,上海市,,奉贤区,,"{'cost': , 'rating': }"
B0I24ULYND,,国海证券(恒龙金尊广场店),金融保险服务;证券公司;证券公司,恒龙金尊广场203,,121.47520937058046,30.932277718816596,,上海市,,上海市,,奉贤区,,"{'cost': , 'rating': }"
B001558E2T,,中国银行(正阳支行),金融保险服务;银行;中国银行,南奉公路8843号,021-67189271;021-67189272;95566,121.46839211024151,30.91888534044514,,上海市,,上海市,,奉贤区,,"{'cost': , 'rating': }"
B00155Q92M,,中国银行24小时自助银行(正阳支行),金融保险服务;自动提款机;中国银行ATM,南奉公路8889弄之25-31,,121.46833473170487,30.918814117608804,,上海市,,上海市,,奉贤区,,"{'cost': , 'rating': }"
B00155FCXC,,中国太平洋财产保险股份有限公司(奉贤支公司),金融保险服务;保险公司;中国太平洋保险,解放东路1008号绿地翡翠4号楼26层,021-55971725,121.46820137814107,30.92028852689081,310000.0,上海市,21.0,上海市,310120.0,奉贤区,环城东路,
B00156F3W7,,中国工商银行(古华支行),金融保险服务;银行;中国工商银行,解放东路1008号绿地翡翠国际广场F1层,021-57425040,121.467257387638,30.919930203172697,310000.0,上海市,21.0,上海市,310120.0,奉贤区,环城东路,
B00156F4U9,,中国工商银行24小时自助银行(古华支行),金融保险服务;自动提款机;中国工商银行ATM,南桥镇解放东路1076号,,121.46731557339355,30.919927360561317,310000.0,上海市,21.0,上海市,310120.0,奉贤区,环城东路,
B00155Q92D,,中国工商银行24小时自助银行(环城南路支行),金融保险服务;自动提款机;中国工商银行ATM,浦南园59号,,121.46336940060361,30.910567152042443,,上海市,,上海市,,奉贤区,,"{'cost': , 'rating': }"
B001533026,,中国农业银行(上海育秀支行),金融保险服务;银行;中国农业银行,育秀路185号,95599,121.46255243927051,30.91125099693828,310000.0,上海市,21.0,上海市,310120.0,奉贤区,环城东路,
B00155LDC9,,中国邮政储蓄银行(育秀路营业所),金融保险服务;银行;中国邮政储蓄银行,南桥镇育秀路236号,021-57190090,121.46257448423252,30.9115138984527,310000.0,上海市,21.0,上海市,310120.0,奉贤区,环城东路,
B0J1AR6H0Y,,中国邮政储蓄银行(齐贤营业所),金融保险服务;银行;中国邮政储蓄银行,金钱公路1687号,021-57575555,121.4981077974262,30.959368976602278,,上海市,,上海市,,奉贤区,,"{'cost': , 'rating': }"
B0J1ZRP9AV,,中国邮政储蓄银行24小时自助银行(齐贤营业所),金融保险服务;自动提款机;中国邮政储蓄银行ATM,金钱公路1687号,,121.49814301815495,30.959438101114806,,上海市,,上海市,,奉贤区,,"{'cost': , 'rating': }"
B0GR513LJO,,华泰财产保险,金融保险服务;保险公司;保险公司,新建东路338号,021-37112525,121.46503344522306,30.924898053167887,,上海市,,上海市,,奉贤区,,"{'cost': , 'rating': }"
B0I6HU68ZF,,中今财税,金融保险服务;财务公司;财务公司,保贤路与南奉公路交叉口东南40米,,121.46192216441509,30.917816023495423,,上海市,,上海市,,奉贤区,,"{'cost': , 'rating': '4.2'}"
B0I1RA0YR5,,贷款咨询,金融保险服务;金融保险服务机构;金融保险机构,南桥·育秀四区西门旁,13262612621,121.46192418726123,30.917619274823352,,上海市,,上海市,,奉贤区,,"{'cost': , 'rating': }"
B0JUZR7V81,,添蝎座财税服务,金融保险服务;金融保险服务机构;金融保险机构,育秀东区四区西门西北70米,,121.46124313104123,30.916421154021688,,上海市,,上海市,,奉贤区,,"{'cost': , 'rating': }"
B00152D1CD,,中国农业银行24小时自助银行(育秀支行),金融保险服务;自动提款机;中国农业银行ATM,育秀路185号,,121.4579759293952,30.913338197303954,,上海市,,上海市,,奉贤区,,"{'cost': , 'rating': }"
B00150EBD1,,中国银行(奉贤支行),金融保险服务;银行;中国银行,人民中路8号,021-37101524;021-37101531,121.45606915150303,30.913397685422026,310000.0,上海市,21.0,上海市,310120.0,奉贤区,环城东路,
B00155LI1L,,中国建设银行(上海南桥支行),金融保险服务;银行;中国建设银行,人民南路166号(近育秀路),95533,121.45741229436658,30.909859998069763,310000.0,上海市,21.0,上海市,310120.0,奉贤区,环城东路,
B001533ADC,,中国农业银行(上海南桥支行),金融保险服务;银行;中国农业银行,人民中路1号,021-20731018;021-20731023;95599,121.4557422372541,30.913265985757178,310000.0,上海市,21.0,上海市,310120.0,奉贤区,环城东路,
B00155LI1J,,中国建设银行24小时自助银行(上海南桥支行),金融保险服务;自动提款机;中国建设银行ATM,南桥人民南路166号,,121.45754166642914,30.909875302658204,310000.0,上海市,21.0,上海市,310120.0,奉贤区,环城南路,
B0I2C7E1PN,,绪雅财税(注册公司代理记账),金融保险服务;银行;银行,南奉公路9325弄25号,13167105200,121.45881739262168,30.91676937450235,,上海市,,上海市,,奉贤区,,"{'cost': , 'rating': }"
B0FFLINAXZ,,中国工商银行(奉贤南桥支行),金融保险服务;银行;中国工商银行,南中路48号,021-37100642;021-57102755;95588,121.45557252616413,30.91599297445242,310000.0,上海市,21.0,上海市,310120.0,奉贤区,环城东路,
B00155A686,,交通银行(上海南桥支行),金融保险服务;银行;交通银行,南桥镇人民中路200号,021-57100270;021-57100666;021-57410807,121.45421867207108,30.91682330646188,310000.0,上海市,21.0,上海市,310120.0,奉贤区,环城东路,
B0JGBR8FAJ,,中国建设银行(建行上海解放中路支行),金融保险服务;银行;中国建设银行,解放中路332号1层,021-57470052,121.4552605041259,30.917686237458444,310000.0,上海市,21.0,上海市,310120.0,奉贤区,南桥,
B00155505Y,,中国人民保险,金融保险服务;保险公司;中国人民保险公司,南桥镇解放中路387号,021-57420051,121.45431291306735,30.91706038588217,310000.0,上海市,21.0,上海市,310120.0,奉贤区,环城东路,
B00155AUCU,,上海农商银行(南中路分理处),金融保险服务;银行;上海农商银行,南中路90号,021-57420938,121.45440729276842,30.915677422232147,310000.0,上海市,21.0,上海市,310120.0,奉贤区,环城东路,
B001516F97,,浦发银行(解放中路支行),金融保险服务;银行;上海浦东发展银行,南桥镇解放中路352号,021-57181640;021-57187583;95528,121.45478619036878,30.917522219104047,310000.0,上海市,21.0,上海市,310120.0,奉贤区,环城东路,
B0FFL02M7Z,,温州银行(奉贤支行),金融保险服务;银行;银行,城乡路188号亿星大厦F1层,021-57183020,121.45661635683923,30.9175365511068,310000.0,上海市,21.0,上海市,310120.0,奉贤区,环城东路,
B0FFFDXBQY,,中国银行24小时自助银行(奉贤支行),金融保险服务;自动提款机;中国银行ATM,人民中路8号,,121.45582743142413,30.913813864849068,310000.0,上海市,21.0,上海市,310120.0,奉贤区,环城东路,
B0FFFSBH0T,,中国光大银行(古华社区支行),金融保险服务;银行;中国光大银行,解放中路243号,021-37527273,121.45823197982924,30.91797120826522,310000.0,上海市,21.0,上海市,310120.0,奉贤区,环城东路,
B00155FCJ8,,中国工商银行24小时自助银行(奉贤支行),金融保险服务;自动提款机;中国工商银行ATM,南桥镇南中路80号金叶时代广场F1,,121.45545921558403,30.91589176608222,310000.0,上海市,21.0,上海市,310120.0,奉贤区,环城东路,
B0JR75JYL8,,中国人民财产保险有限公司(奉贤支公司),金融保险服务;保险公司;中国人民保险公司,解放中路与南桥立新路交叉口西南60米,,121.45467891669087,30.91722314442254,310000.0,上海市,21.0,上海市,310120.0,奉贤区,南桥,
B00155EI8U,,交通银行24小时自助银行(南桥支行),金融保险服务;自动提款机;交通银行ATM,南桥镇人民中路200号,,121.45421566109292,30.916854281170483,310000.0,上海市,21.0,上海市,310120.0,奉贤区,环城东路,
B00155IOIR,,中国农业银行(上海头桥支行),金融保险服务;银行;中国农业银行,头桥镇头桥中路115号,021-20731115;021-20731117;95599,121.6341114364944,30.95173576831401,,上海市,,上海市,,奉贤区,,"{'cost': , 'rating': }"
B00155IOJM,,中国农业银行24小时自助银行(头桥支行),金融保险服务;自动提款机;中国农业银行ATM,头桥镇头桥中路115号,,121.63405063220024,30.95165505622793,,上海市,,上海市,,奉贤区,,"{'cost': , 'rating': }"
B00155ISEZ,,上海农商银行(头桥支行),金融保险服务;银行;上海农商银行,奉城镇头桥东路622号,021-57551172,121.63700551938297,30.951233297234673,,上海市,,上海市,,奉贤区,,"{'cost': , 'rating': }"
B001571E2Y,,上海农商银行24小时自助银行(头桥支行),金融保险服务;自动提款机;上海农商银行ATM,头桥东路622号,,121.63692075042309,30.951231569712867,,上海市,,上海市,,奉贤区,,"{'cost': , 'rating': }"
B0FFL946FP,,华驰金融,金融保险服务;金融保险服务机构;金融保险机构,大庆西路与新奉公路交叉口西160米,17321090658,121.63617882032233,30.953266514567076,,上海市,,上海市,,奉贤区,,"{'cost': , 'rating': }"
B0JUFNMY8L,,社会保险事业管理中心,金融保险服务;金融保险服务机构;金融保险机构,南桥人民南路与育秀路交叉口东南20米,,121.45291503203869,30.911669610648655,,上海市,,上海市,,奉贤区,,"{'cost': , 'rating': }"
B0FFI74FF7,,上海市住房置业担保有限公司奉贤营业部,金融保险服务;金融保险服务机构;金融保险机构,南桥镇江海路232号二楼,,121.44974894510099,30.910086889111664,,上海市,,上海市,,奉贤区,,"{'cost': , 'rating': }"
B00156F5G9,,浦发银行(江海支行),金融保险服务;银行;上海浦东发展银行,南桥镇江海路222-A号,021-57189550,121.44985354667912,30.90973977212119,,上海市,,上海市,,奉贤区,,"{'cost': , 'rating': }"
B001547883,,上海农商银行(育秀分理处),金融保险服务;银行;上海农商银行,江海路232号,021-57104717;021-57105086,121.44975095099309,30.910078908192524,,上海市,,上海市,,奉贤区,,"{'cost': , 'rating': }"
B00152931C,,上海农商银行24小时自助银行(育秀分理处),金融保险服务;自动提款机;上海农商银行ATM|金融保险服务;自动提款机;农村商业银行ATM,江海路232号,,121.44971264017111,30.91021158641707,,上海市,,上海市,,奉贤区,,"{'cost': , 'rating': }"
B001579G1E,,招商银行(上海奉贤支行),金融保险服务;银行;招商银行,南奉公路9777号,021-57199566;021-57410361,121.45354018556942,30.91231339610203,310000.0,上海市,21.0,上海市,310120.0,奉贤区,环城东路,
B00152DB87,,中国建设银行(江海路支行),金融保险服务;银行;中国建设银行,南亭公路1号房地大厦F1层,021-57102095;021-57410399;021-57410621,121.45251842777864,30.911999242305797,310000.0,上海市,21.0,上海市,310120.0,奉贤区,环城南路,
B00155GHNY,,上海农商银行(南桥分理处),金融保险服务;银行;上海农商银行,南奉公路9780号,021-57106247,121.45366848261862,30.91296330885621,310000.0,上海市,21.0,上海市,310120.0,奉贤区,环城东路,
B00155CCB3,,中国建设银行24小时自助银行(江海路支行),金融保险服务;自动提款机;中国建设银行ATM,江海路447号,,121.45260667282757,30.911927485321407,310000.0,上海市,21.0,上海市,310120.0,奉贤区,环城南路,
B001579ENY,,招商银行24小时自助银行(上海奉贤支行),金融保险服务;自动提款机;招商银行ATM,南奉公路9577号,,121.45359834353094,30.912333518363766,310000.0,上海市,21.0,上海市,310120.0,奉贤区,环城东路,
B0H6Z5RYEJ,,华夏银行(上海奉贤支行),金融保险服务;银行;华夏银行,江海路388弄420号,021-37580395,121.45322833456555,30.912277699753222,310000.0,上海市,21.0,上海市,310120.0,奉贤区,环城东路,
B0I2VZ3E5V,,秋灿财务,金融保险服务;银行;银行,新建东路552号,13391208908,121.45937651439628,30.924092538687358,,上海市,,上海市,,奉贤区,,"{'cost': , 'rating': }"
B001539CF2,,中国农业银行24小时自助银行(南桥支行),金融保险服务;自动提款机;中国农业银行ATM,近郊南桥镇人民中路1号(南桥人民南路南奉公路),,121.4511555593407,30.915707666724256,,上海市,,上海市,,奉贤区,,"{'cost': , 'rating': }"
B0FFGOF98C,,光大证券,金融保险服务;证券公司;证券营业厅,南桥镇人民南路333号1-2层,021-57197911;95525,121.45142615962449,30.914760030305654,,上海市,,上海市,,奉贤区,,"{'cost': , 'rating': }"
B00156F6I0,,中国邮政储蓄银行(南桥镇支行),金融保险服务;银行;中国邮政储蓄银行,南桥路199号,021-57429349,121.45098599409815,30.915893499563218,310000.0,上海市,21.0,上海市,310120.0,奉贤区,南桥,
B00156DXUN,,中国邮政储蓄银行(头桥支行),金融保险服务;银行;中国邮政储蓄银行,头桥镇新奉公路4567号,021-57550026,121.63817161614634,30.95224732983103,,上海市,,上海市,,奉贤区,,"{'cost': , 'rating': }"
B0FFIB1N8I,,中国邮政储蓄银行24小时自助银行(头桥支行),金融保险服务;自动提款机;中国邮政储蓄银行ATM,新奉公路4567号,,121.63810082726359,30.952251559015348,,上海市,,上海市,,奉贤区,,"{'cost': , 'rating': }"
B0G0DZ6UG6,,上海农商银行(泰日支行),金融保险服务;银行;上海农商银行,大叶公路6768号,021-57586076;021-57586163,121.56153951801089,30.983659847613065,,上海市,,上海市,,奉贤区,,"{'cost': , 'rating': }"
B0G0DZ7TYE,,中国农业银行(上海泰日支行),金融保险服务;银行;中国农业银行,泰南新村2幢大叶公路6697号,021-20731099;95599,121.56066106045016,30.98170434855482,310000.0,上海市,21.0,上海市,310120.0,奉贤区,中国(上海)自由贸易试验区临港新片区,
B00155IUPN,,中国邮政储蓄银行(泰日支行),金融保险服务;银行;中国邮政储蓄银行,泰日新建路2号,021-57585555,121.56039424694842,30.98553668994956,310000.0,上海市,21.0,上海市,310120.0,奉贤区,中国(上海)自由贸易试验区临港新片区,
B0GK6MRG1G,,中国农业银行24小时自助银行(上海太日支行),金融保险服务;自动提款机;中国农业银行ATM,大叶公路6697号,,121.55664641206481,30.984018472247037,,上海市,,上海市,,奉贤区,,"{'cost': , 'rating': }"
B001516A3B,,中国农业银行(上海江海支行),金融保险服务;银行;中国农业银行,江海路204号,021-57196046,121.45017749184784,30.90856562371993,,上海市,,上海市,,奉贤区,,"{'cost': , 'rating': }"
B0ID6KREQY,,中国人寿财产保险,金融保险服务;保险公司;中国人寿保险公司,江海花园西南1门旁,,121.45091581044508,30.906487438354965,,上海市,,上海市,,奉贤区,,"{'cost': , 'rating': }"
B00155QBRP,,中国邮政储蓄银行24小时自助银行(江海营业所),金融保险服务;自动提款机;中国邮政储蓄银行ATM,江海路188号,,121.45043792572667,30.90796151274809,,上海市,,上海市,,奉贤区,,"{'cost': , 'rating': }"
B00155LHZL,,中国邮政储蓄银行(江海营业所),金融保险服务;银行;中国邮政储蓄银行,南桥镇江海路188号,021-57188452,121.45046610131683,30.90794266599608,,上海市,,上海市,,奉贤区,,"{'cost': , 'rating': }"
B0FFFSF1NK,,华泰保险股份有限公司(南桥南星路),金融保险服务;保险公司;华泰财产保险股份有限公司,江海二村安全小区北区东门东南50米,,121.44934841615724,30.90647134730445,,上海市,,上海市,,奉贤区,,"{'cost': , 'rating': }"
B00155LD8E,,浦发银行(南桥支行),金融保险服务;银行;上海浦东发展银行,南桥镇运河北路258号,021-37525107;021-37529289;95528,121.45737759985842,30.929772801099052,,上海市,,上海市,,奉贤区,,"{'cost': , 'rating': }"
B00155QXN7,,上海农商银行(新寺支行),金融保险服务;银行;上海农商银行,柘林镇新寺社区新北路61号,021-57492692,121.45065181814176,30.86887817475713,,上海市,,上海市,,奉贤区,,"{'cost': , 'rating': }"
B00155QXN9,,中国邮政储蓄银行(新寺邮政支局),金融保险服务;银行;中国邮政储蓄银行,新北路78号,021-57492555,121.45058843676694,30.869049685218965,,上海市,,上海市,,奉贤区,,"{'cost': , 'rating': }"
B001571DR0,,上海农商银行24小时自助银行(新寺支行),金融保险服务;自动提款机;上海农商银行ATM,柘林镇新寺社区新北路61号,,121.45056729870987,30.86884382779732,,上海市,,上海市,,奉贤区,,"{'cost': , 'rating': }"
B0FFF03BAE,,中国邮政储蓄银行24小时自助银行,金融保险服务;自动提款机;中国邮政储蓄银行ATM,振贤一支路36号城投望园楼F1层,,121.45375431336603,30.920068672777184,,上海市,,上海市,,奉贤区,,"{'cost': , 'rating': }"
B0FFG14ZCY,,中国光大银行24小时自助银行(古华社区支行),金融保险服务;自动提款机;中国光大银行ATM,古华新村中区北2门西280米,,121.45369495149833,30.920051405785557,,上海市,,上海市,,奉贤区,,"{'cost': , 'rating': }"
B0FFFFMCHM,,中国邮政储蓄银行(解放中路营业所),金融保险服务;银行;中国邮政储蓄银行,解放中路239号,021-57180337,121.45371510684933,30.920052501707463,,上海市,,上海市,,奉贤区,,"{'cost': , 'rating': }"
B00155DJWS,,中国农业银行24小时自助银行(中街分理处),金融保险服务;自动提款机;中国农业银行ATM,南桥镇人民中路249号,,121.45359383840409,30.918117094925133,310000.0,上海市,21.0,上海市,310120.0,奉贤区,南桥,
B0FFG8U8RM,,上海农商银行(齐贤支行),金融保险服务;银行;上海农商银行,金汇镇齐贤嘉园路270号,021-37187065;021-57575371,121.48623923800052,30.96284894435283,,上海市,,上海市,,奉贤区,,"{'cost': , 'rating': }"
B0FFG8U8FI,,上海农商银行24小时自助银行(齐贤支行),金融保险服务;自动提款机;上海农商银行ATM,嘉园路270号,,121.48627144532678,30.962929042262555,,上海市,,上海市,,奉贤区,,"{'cost': , 'rating': }"
B00155QXCD,,上海农商银行(柘林支行),金融保险服务;银行;上海农商银行,柘林镇新柘中路111号,021-57445155;021-57447223,121.46624249904487,30.834509607845163,,上海市,,上海市,,奉贤区,,"{'cost': , 'rating': }"
B00156F3H0,,江苏银行(上海奉贤支行),金融保险服务;银行;银行,南桥镇环城东路883弄8号、9号1-3层,021-37568602,121.45576764959202,30.93275335630841,,上海市,,上海市,,奉贤区,,"{'cost': , 'rating': }"
B0G0AZU18A,,中国建设银行(上海奉浦开发区支行),金融保险服务;银行;中国建设银行,南桥镇环城东路799号(环城东路地铁站2号口步行130米),,121.45537711628907,30.934304612776266,,上海市,,上海市,,奉贤区,,"{'cost': , 'rating': }"
B00155LHX0,,中国工商银行(环城东路支行),金融保险服务;银行;中国工商银行,环城东路846弄812号(环城东路地铁站出入口步行290米),021-67107759;021-67108077,121.45498613376306,30.932962316661413,,上海市,,上海市,,奉贤区,,"{'cost': , 'rating': }"
B0JDJSK5D6,,上海农商银行(奉浦支行),金融保险服务;银行;上海农商银行,环城东路883弄11-12号,021-33617791;021-33617983,121.45573043235291,30.932895004096626,,上海市,,上海市,,奉贤区,,"{'cost': , 'rating': }"
B0HRCMLHE1,,平安银行(上海奉贤支行),金融保险服务;银行;平安银行,环城东路793号101室(环城东路地铁站2号口步行160米),021-37590566,121.45542629616929,30.93499104233742,,上海市,,上海市,,奉贤区,,"{'cost': , 'rating': }"
B0HA6S7WAT,,招商银行上海奉贤宝龙商业广场社区支行,金融保险服务;银行;银行,航南公路5639号宝龙北门口附近2号楼招商银行,,121.45769720044738,30.93238837778743,310000.0,上海市,21.0,上海市,310120.0,奉贤区,南桥,
B00155QXB4,,上海银行(环城东路支行),金融保险服务;银行;上海银行,奉浦街道环城东路672-674号,021-67109356;021-67109502,121.45778216784821,30.93566164552415,310000.0,上海市,21.0,上海市,310120.0,奉贤区,环城东路,
B0FFIW05IA,,广发银行(奉贤支行),金融保险服务;银行;广发银行,航南公路5757号(环城东路地铁站3号口步行210米),021-37568557,121.4562089634436,30.932014014614865,310000.0,上海市,21.0,上海市,310120.0,奉贤区,环城东路,
B0IU3CFL3Q,,瑞银信POS机运营中心,金融保险服务;金融保险服务机构;金融保险机构,航南公路5639号南桥宝龙广场(环城东路地铁站出入口旁),18616740591,121.45770221205929,30.932422369838328,310000.0,上海市,21.0,上海市,310120.0,奉贤区,环城东路,
B0FFGI85X2,,中国农业银行(上海解放西路支行),金融保险服务;银行;中国农业银行,解放西路289号,95599,121.44740084372255,30.91491632040171,310000.0,上海市,21.0,上海市,310120.0,奉贤区,南桥,
B0H33MSCDZ,,中国工商银行(东方美谷功能区支行),金融保险服务;银行;中国工商银行,临港南桥科技城30号楼,95588,121.47573883883628,30.95736899172378,,上海市,,上海市,,奉贤区,,"{'cost': , 'rating': }"
B0JKZAQKUQ,,中国农业银行(东方美谷功能区支行),金融保险服务;银行;银行,茂园路260号9幢102室,021-20731170,121.47765682609581,30.9555050199764,310000.0,上海市,21.0,上海市,310120.0,奉贤区,,
B001558D8F,,中国建设银行(柘林支行),金融保险服务;银行;中国建设银行,柘林镇新柘中路1-5号,021-37504055;021-57445148,121.46396102895305,30.83381720052412,,上海市,,上海市,,奉贤区,,"{'cost': , 'rating': }"
B00155IUMS,,中国建设银行(上海平安支行),金融保险服务;银行;中国建设银行,平福路1758号,021-57540251;021-57541148;021-57541157,121.73420064490979,30.89887651600107,310000.0,上海市,21.0,上海市,310120.0,奉贤区,中国(上海)自由贸易试验区临港新片区,
B00155IUMT,,中国建设银行24小时自助银行(平安支行),金融保险服务;自动提款机;中国建设银行ATM,平福路1758号,,121.73430763882699,30.898713564249768,310000.0,上海市,21.0,上海市,310120.0,奉贤区,中国(上海)自由贸易试验区临港新片区,
B0G33BUJWR,,招商银行(上海临港蓝湾支行),金融保险服务;银行;招商银行,海湾镇云樱路271号,021-57180209;021-57180562,121.73773695425817,30.878609034770346,310000.0,上海市,21.0,上海市,310120.0,奉贤区,中国(上海)自由贸易试验区临港新片区,
B0JACDR4OT,,中国银行(临港蓝湾支行),金融保险服务;银行;中国银行,云樱路与恬桃路交叉口东60米,,121.73865493650554,30.87869870998727,310000.0,上海市,21.0,上海市,310120.0,奉贤区,中国(上海)自由贸易试验区临港新片区,
B0H0ZSUM0E,,招商银行24小时自助银行,金融保险服务;自动提款机;招商银行ATM,云樱路与恬桃路交叉口西南40米,,121.73760295869836,30.87861107600887,310000.0,上海市,21.0,上海市,310120.0,奉贤区,中国(上海)自由贸易试验区临港新片区,
B0FFHFCHXQ,,交通银行(上海奉浦支行),金融保险服务;银行;交通银行,环城东路793号110-112室(环城路地铁站2号口步行120米),021-37565913,121.45975620756846,30.93267127470088,310000.0,上海市,21.0,上海市,310120.0,奉贤区,环城东路,
B0GKMXXRBJ,,中国建设银行24小时自助银行(上海奉浦开发区支行),金融保险服务;自动提款机;中国建设银行ATM,环城东路799-801号(环城东路地铁站2号口步行400米),,121.45994781771009,30.932181042319577,310000.0,上海市,21.0,上海市,310120.0,奉贤区,环城东路,
B0GDH71Y9Y,,交通银行24小时自助银行(上海奉浦支行),金融保险服务;自动提款机;交通银行ATM,航南公路与南桥环城东路交叉口东80米,,121.45989761452108,30.932817540229436,310000.0,上海市,21.0,上海市,310120.0,奉贤区,环城东路,
B00156GDO4,,中国银行(上海市工业综合开发区支行),金融保险服务;银行;中国银行,南桥环城东路449、453,021-67108619;021-67108959,121.45545173846446,30.94472268394718,310000.0,上海市,21.0,上海市,310120.0,奉贤区,环城东路,
B0FFLDZB4T,,中国农业银行(奉浦支行),金融保险服务;银行;中国农业银行,环城东路515号,021-20731149;021-67104247;95599,121.45637863949692,30.941484808178483,310000.0,上海市,21.0,上海市,310120.0,奉贤区,环城东路,
B00155QX79,,中国光大银行(奉贤支行),金融保险服务;银行;中国光大银行,奉贤南桥环城东路471号(近奉浦大道),021-61909160;021-63797390;021-95595,121.45570150487137,30.943994707102128,310000.0,上海市,21.0,上海市,310120.0,奉贤区,环城东路,
B0FFG9580J,,浙江稠州商业银行(奉贤支行),金融保险服务;银行;农村商业银行,环城东路558号,021-37538900,121.45609791698844,30.940595664998288,310000.0,上海市,21.0,上海市,310120.0,奉贤区,环城东路,
B0FFFFVMZ6,,中国银行24小时自助银行(上海市工业综合开发区支行),金融保险服务;自动提款机;中国银行ATM,环城东路455-465弄绿地智尊1层,,121.45547982146199,30.944676777578223,310000.0,上海市,21.0,上海市,310120.0,奉贤区,环城东路,
B0FFG8HPXT,,安诚保险,金融保险服务;保险公司;保险公司,奉浦大道99号b座105室,021-57151251,121.45619382346453,30.944890347249434,310000.0,上海市,21.0,上海市,310120.0,奉贤区,环城东路,
B0FFIY5YGG,,宁波通商银行(奉贤支行),金融保险服务;金融保险服务机构;金融保险机构,环城东路750号(环城东路地铁站出入口步行230米),021-60581300,121.45938424021521,30.93111127475545,310000.0,上海市,21.0,上海市,310120.0,奉贤区,环城东路,
B0JG4Y8IOI,,中国农业银行,金融保险服务;银行;中国农业银行,南桥环城东路与九华路交叉口西北200米,021-20731133,121.45961496259176,30.930634129746196,310000.0,上海市,21.0,上海市,310120.0,奉贤区,环城东路,
B00156F65P,,江苏银行ATM(上海奉贤支行),金融保险服务;自动提款机;自动提款机,南桥镇环城东路883弄8号,,121.4603250547479,30.930835781498306,310000.0,上海市,21.0,上海市,310120.0,奉贤区,环城东路,
B00155LD7K,,中国工商银行24小时自助银行(环城东路支行),金融保险服务;自动提款机;中国工商银行ATM,环城东路812号(环城东路地铁站出入口步行270米),,121.45956881325255,30.93078492584052,310000.0,上海市,21.0,上海市,310120.0,奉贤区,环城东路,
B00155FGAJ,,中国建设银行(西渡支行),金融保险服务;银行;中国建设银行,沪杭公路227号(近西闸公路路口),021-37185013;021-57156961;021-57156965,121.4279440245912,30.991762045738053,310000.0,上海市,21.0,上海市,310120.0,奉贤区,西渡,
B00155N78I,,中国工商银行(西渡支行),金融保险服务;银行;中国工商银行,西闸公路1719号(西渡地铁站1号口旁),021-57150435;021-57151809,121.42827055206281,30.99174549578035,310000.0,上海市,21.0,上海市,310120.0,奉贤区,西渡,
B00156D3O7,,中国建设银行24小时自助银行(西渡支行),金融保险服务;自动提款机;中国建设银行ATM,沪杭公路227号(西渡地铁站2号口步行120米),,121.42779176031792,30.99200369910374,310000.0,上海市,21.0,上海市,310120.0,奉贤区,西渡,
B0FFMFPUMT,,中信银行(上海奉贤支行),金融保险服务;银行;中信银行,通阳路305号,021-57188497,121.44421285123012,30.905869130571602,310000.0,上海市,21.0,上海市,310120.0,奉贤区,环城南路,
B00156DGCU,,中国银行(通阳路支行),金融保险服务;银行;中国银行,通阳路313-315号(育秀路路口),021-57423003;021-57423008,121.4439842985138,30.90601758964231,310000.0,上海市,21.0,上海市,310120.0,奉贤区,环城南路,
B0I05U0EPL,,浙江民泰商业银行(上海奉贤支行),金融保险服务;银行;银行,南桥镇通阳路428号,021-57193053,121.44362224428671,30.908397473729174,310000.0,上海市,21.0,上海市,310120.0,奉贤区,环城南路,
B0FFF00FOA,,中国工商银行24小时自助银行(通阳路支行),金融保险服务;自动提款机;中国工商银行ATM,环城南路1090-1096号,,121.44495672806637,30.904656333575918,310000.0,上海市,21.0,上海市,310120.0,奉贤区,南桥,
B0FFFSRY75,,招商银行(西渡小微支行),金融保险服务;银行;招商银行,沪杭公路222弄21-23号(连城商业广场、连城电影院),021-37521035,121.42656990471347,30.991357482135598,310000.0,上海市,21.0,上海市,310120.0,奉贤区,,
B0FFG8UD61,,招商银行24小时自助银行(上海西渡小微支行),金融保险服务;自动提款机;招商银行ATM,沪杭公路222弄21号(西渡地铁站4号口步行150米),,121.42640564608112,30.99144422075022,310000.0,上海市,21.0,上海市,310120.0,奉贤区,,
B00155N9DG,,中国邮政储蓄银行(西渡营业所),金融保险服务;银行;中国邮政储蓄银行,沪杭公路213号(西渡地铁站2号口步行140米),021-37185002;021-57152555;95580,121.4277226349504,30.99218050239425,310000.0,上海市,21.0,上海市,310120.0,奉贤区,西渡,
B001579IE7,,浙江泰隆商业银行(奉贤支行),金融保险服务;银行;银行,环城东路570弄90号,021-67108297,121.45617519177682,30.939946234262493,310000.0,上海市,21.0,上海市,310120.0,奉贤区,环城东路,
B00155QTDQ,,中国民生银行(上海奉贤支行),金融保险服务;银行;中国民生银行,奉浦环城东路603号,021-67103003,121.45750107531396,30.938944017671062,310000.0,上海市,21.0,上海市,310120.0,奉贤区,环城东路,
B00155QTE0,,中国民生银行24小时自助银行(上海奉贤支行),金融保险服务;自动提款机;中国民生银行ATM,南桥环城东路603号,,121.45724834187826,30.93899937295636,310000.0,上海市,21.0,上海市,310120.0,奉贤区,南桥,
B00156GCY3,,浙江泰隆商业银行24小时自助银行(上海奉贤支行),金融保险服务;自动提款机;自动提款机,环城东路570弄88号,,121.45626243936732,30.939951439455157,310000.0,上海市,21.0,上海市,310120.0,奉贤区,环城东路,
B00155N721,,中国农业银行(西渡支行),金融保险服务;银行;中国农业银行,南桥镇西渡沪杭公路1007号(萧塘地铁站2号口步行380米),021-20731095;95599,121.43862427129346,30.9646667931271,310000.0,上海市,21.0,上海市,310120.0,奉贤区,,
B001558DG0,,中国农业银行(上海平安支行),金融保险服务;银行;中国农业银行,平安镇平福路1273号,021-57541172;95599,121.7255647524766,30.900141984853754,310000.0,上海市,21.0,上海市,310120.0,奉贤区,中国(上海)自由贸易试验区临港新片区,
B00155IOMS,,上海农商银行(平安支行),金融保险服务;银行;上海农商银行,四团镇平安平福路1275号,021-57541174,121.7257306601719,30.900152853134294,310000.0,上海市,21.0,上海市,310120.0,奉贤区,中国(上海)自由贸易试验区临港新片区,
B001571DZZ,,中国农业银行24小时自助银行(上海平安支行),金融保险服务;自动提款机;中国农业银行ATM,平福路1273号,,121.72556775073137,30.900142981993973,310000.0,上海市,21.0,上海市,310120.0,奉贤区,中国(上海)自由贸易试验区临港新片区,
B0IKHUMS0A,,上海贷款办理中心,金融保险服务;金融保险服务机构;金融保险机构,南桥路563号奉发大厦,4009600473,121.44856714689472,30.92245834105737,310000.0,上海市,21.0,上海市,310120.0,奉贤区,南桥,
B0HKXZNQ6O,,中国工商银行金汇支行,金融保险服务;银行;银行,金汇镇金闸公路599号1214-1217,021-57180712,121.49906657675929,30.992354590636502,310000.0,上海市,21.0,上海市,310120.0,奉贤区,中国(上海)自由贸易试验区临港新片区,
B00155IOGH,,中国农业银行(上海金汇支行),金融保险服务;银行;中国农业银行,金汇镇金汇中街72号,95599,121.49631987431644,30.990351544103387,310000.0,上海市,21.0,上海市,310120.0,奉贤区,金汇,
B00155IOGU,,中国农业银行24小时自助银行(金汇支行),金融保险服务;自动提款机;中国农业银行ATM|金融保险服务;自动提款机;农村商业银行ATM,金汇中街88号,,121.49656977036696,30.99037727818873,310000.0,上海市,21.0,上海市,310120.0,奉贤区,中国(上海)自由贸易试验区临港新片区,
B00155IUPL,,中国邮政储蓄银行(金汇营业所),金融保险服务;银行;中国邮政储蓄银行,金汇镇金汇中街103号,021-57481555,121.49682166109491,30.990551930128206,310000.0,上海市,21.0,上海市,310120.0,奉贤区,中国(上海)自由贸易试验区临港新片区,
B00155LI1H,,中国建设银行(上海环城西路支行),金融保险服务;银行;中国建设银行,环城西路275号,021-67192344;021-67194637,121.44128406279573,30.906352180194723,310000.0,上海市,21.0,上海市,310120.0,奉贤区,环城南路,
B0FFG0Z4NN,,中国农业银行(通阳路支行),金融保险服务;银行;中国农业银行,南亭公路与通阳路交汇处西南50米,021-20731079,121.44292959853595,30.908793886595507,310000.0,上海市,21.0,上海市,310120.0,奉贤区,环城南路,
B00155LDDO,,中国建设银行24小时自助银行(环城西路支行),金融保险服务;自动提款机;中国建设银行ATM,环城西路275号,,121.44128005424928,30.90634717560531,310000.0,上海市,21.0,上海市,310120.0,奉贤区,环城南路,
B0FFG8UC1N,,浦发村镇银行,金融保险服务;银行;农村商业银行,南桥镇南亭公路281号,021-60973810,121.44410129925171,30.90924092334917,310000.0,上海市,21.0,上海市,310120.0,奉贤区,南桥,
B0FFG8UAWM,,东方证券,金融保险服务;证券公司;证券营业厅,南亭公路营业部上海南亭公路269号1-2层,021-57180333,121.44460747459206,30.909548751155132,310000.0,上海市,21.0,上海市,310120.0,奉贤区,环城南路,
B00155QV5E,,中国农业银行(柘林支行),金融保险服务;银行;中国农业银行,苍工路122号,021-20731070,121.46628780045555,30.831452968789858,310000.0,上海市,21.0,上海市,310120.0,奉贤区,柘林,
B001558D43,,中国建设银行24小时自助银行(柘林支行),金融保险服务;自动提款机;中国建设银行ATM,柘林镇新柘中路1-5号,,121.4684145613003,30.831652549810002,310000.0,上海市,21.0,上海市,310120.0,奉贤区,柘林,
B00155FGGW,,中国邮政储蓄银行(柘林支行),金融保险服务;银行;中国邮政储蓄银行,新柘中路37号(近沪新北路),021-57445555,121.46925926637242,30.831887705641538,310000.0,上海市,21.0,上海市,310120.0,奉贤区,柘林,
B0FFF001DQ,,中国工商银行(奉浦支行),金融保险服务;银行;中国工商银行,南桥镇沪杭公路1818号,021-33655762;021-33658321,121.44800000060341,30.930727239515406,310000.0,上海市,21.0,上海市,310120.0,奉贤区,南桥,
B0FFFZL2L7,,上海农商银行(江海支行),金融保险服务;银行;上海农商银行,航南公路6120号,021-37590275,121.44761003815978,30.930490554420526,310000.0,上海市,21.0,上海市,310120.0,奉贤区,南桥,
B001571DOP,,中国工商银行24小时自助银行(奉浦支行),金融保险服务;自动提款机;中国工商银行ATM,沪杭公路1818号,,121.44788872059779,30.93071501073329,310000.0,上海市,21.0,上海市,310120.0,奉贤区,南桥,
B001558DG4,,中国农业银行(邬桥支行),金融保险服务;银行;中国农业银行,邬桥镇大叶公路2621号,021-20731110;021-57401163;021-95599,121.39749520962043,30.959781647844466,310000.0,上海市,21.0,上海市,310120.0,奉贤区,,
B00155FD84,,中国银行(化学工业区支行),金融保险服务;银行;中国银行,目华路181号,021-67121731,121.46192259627725,30.816017292626523,310000.0,上海市,21.0,上海市,310120.0,奉贤区,,
B00154D6EM,,中国建设银行(化工区支行),金融保险服务;银行;中国建设银行,目华路201号化工区大厦1层,021-67120306,121.46130660823177,30.817530883166036,310000.0,上海市,21.0,上海市,310120.0,奉贤区,,
B0015579CW,,交通银行(上海化学工业区支行),金融保险服务;银行;交通银行,目华路201号化工区大厦F1层,021-67120651;021-67120652;95559,121.46129858382902,30.817533861199458,310000.0,上海市,21.0,上海市,310120.0,奉贤区,,
B001558E17,,中国银行ATM(化学工业区支行),金融保险服务;自动提款机;中国银行ATM,目华路181号,,121.4619837818271,30.816015449493634,310000.0,上海市,21.0,上海市,310120.0,奉贤区,,
B00154DWK9,,中国工商银行(上海市化工区支行),金融保险服务;银行;中国工商银行,目华路201号化工区大厦F1层,021-67120082;021-67120208;95588,121.46071681937407,30.817758268429085,310000.0,上海市,21.0,上海市,310120.0,奉贤区,,
B0FFF4QRY5,,上海农商银行(金汇支行),金融保险服务;银行;上海农商银行,金汇西街1号,021-57481161;021-57481163,121.49444212155747,30.99041287712771,310000.0,上海市,21.0,上海市,310120.0,奉贤区,中国(上海)自由贸易试验区临港新片区,
B001579DXN,,中国工商银行(通阳路支行),金融保险服务;银行;中国工商银行,南桥镇环城南路1090-1096号,021-57100260,121.44471717565217,30.904407997891578,310000.0,上海市,21.0,上海市,310120.0,奉贤区,南桥,
B00155ION0,,中国邮政储蓄银行(平安营业所),金融保险服务;银行;中国邮政储蓄银行,平安镇平福路1520号,021-57541555,121.7293989703364,30.899707593130525,310000.0,上海市,21.0,上海市,310120.0,奉贤区,中国(上海)自由贸易试验区临港新片区,
B00155IUNP,,中国农业银行(上海洪庙支行),金融保险服务;银行;中国农业银行,洪庙镇洪庙路3号,021-20731136;021-95599,121.67794664092801,30.926535324754386,310000.0,上海市,21.0,上海市,310120.0,奉贤区,中国(上海)自由贸易试验区临港新片区,
B00156G7E0,,上海农商银行(洪庙支行),金融保险服务;银行;上海农商银行,洪庙水闸路12号,021-57132830,121.67723794721603,30.926938418331595,310000.0,上海市,21.0,上海市,310120.0,奉贤区,中国(上海)自由贸易试验区临港新片区,
B0FFFEKR7S,,上海农商银行(肖塘支行),金融保险服务;银行;上海农商银行,沪杭公路356-358号(西渡地铁站3号口步行410米),021-57433006;021-57433045,121.42888389086336,30.987839645465016,310000.0,上海市,21.0,上海市,310120.0,奉贤区,,
B0FFF0ET2K,,上海农商银行24小时自助银行(肖塘支行),金融保险服务;自动提款机;上海农商银行ATM,沪杭公路358号(水岸农贸市场、水岸家苑),,121.4287787069361,30.987963427164686,310000.0,上海市,21.0,上海市,310120.0,奉贤区,,
B00155IUNR,,中国农业银行(上海四团支行),金融保险服务;银行;中国农业银行,川南奉公路8208号,021-20731066,121.71598249633081,30.940896721749255,310000.0,上海市,21.0,上海市,310120.0,奉贤区,中国(上海)自由贸易试验区临港新片区,
B001557LUR,,上海农商银行(四团支行),金融保险服务;银行;上海农商银行,四新街58号,021-57532237;021-57533137,121.71509325809023,30.941884107842355,310000.0,上海市,21.0,上海市,310120.0,奉贤区,中国(上海)自由贸易试验区临港新片区,
B00155IT5B,,中国邮政储蓄银行(四团支行),金融保险服务;银行;中国邮政储蓄银行,川南奉公路8214号,021-57532555,121.71554790891508,30.940854218902164,310000.0,上海市,21.0,上海市,310120.0,奉贤区,中国(上海)自由贸易试验区临港新片区,
B0FFGT9Q1Q,,中国农业银行(上海庄行支行),金融保险服务;银行;中国农业银行,一新路48号,021-20731058;95599,121.39269238581575,30.90645577294631,310000.0,上海市,21.0,上海市,310120.0,奉贤区,庄行镇,
B001579C22,,中国工商银行24小时自助银行(庄利路),金融保险服务;自动提款机;中国工商银行ATM,南亭公路2899号,,121.39442415002482,30.905204193768014,310000.0,上海市,21.0,上海市,310120.0,奉贤区,庄行镇,
B0FFFFT0D9,,上海农商银行(庄行支行),金融保险服务;银行;上海农商银行,庄行镇一新街15号,021-57468009;021-57468791,121.39409016754904,30.905631992833566,310000.0,上海市,21.0,上海市,310120.0,奉贤区,庄行镇,
B0FFH9BG45,,上海农商银行(贝港分理处),金融保险服务;银行;上海农商银行,解放西路356号,021-57102837,121.44185671679244,30.913782883837452,310000.0,上海市,21.0,上海市,310120.0,奉贤区,南桥,
B0FFIZCUEM,,中国邮政储蓄银行(肖塘支行),金融保险服务;银行;中国邮政储蓄银行,肖南路6-10号,021-57433880;95580,121.43234297015258,30.963705978997357,310000.0,上海市,21.0,上海市,310120.0,奉贤区,,
B0FFIRGWR7,,中国平安人寿保险,金融保险服务;金融保险服务机构;金融保险机构,南桥镇八字桥路688号七楼705,,121.45146639829436,30.937838589152083,310000.0,上海市,21.0,上海市,310120.0,奉贤区,环城东路,
B0JDMU2FG8,,中国平安,金融保险服务;金融保险服务机构;金融保险机构,八字桥路670号,,121.4529093122344,30.93752603883778,310000.0,上海市,21.0,上海市,310120.0,奉贤区,环城东路,
B001558DFY,,中国农业银行(胡桥支行),金融保险服务;银行;中国农业银行,胡桥镇新街79号,021-57456161;021-95599,121.427081314721,30.83274210118821,310000.0,上海市,21.0,上海市,310120.0,奉贤区,,
B001557LWU,,上海农商银行(邬桥支行),金融保险服务;银行;上海农商银行,庄行镇大叶公路2599号,021-57401161;021-57404416,121.39608724846758,30.959861659450652,310000.0,上海市,21.0,上海市,310120.0,奉贤区,,
B0K6ND4SFK,,中国建设银行(金汇支行)(装修中),金融保险服务;银行;中国建设银行,金碧路1980弄32-1号-32-2号,,121.50405500975114,30.973646550755873,310000.0,上海市,21.0,上海市,310120.0,奉贤区,中国(上海)自由贸易试验区临港新片区,
B0FFG8U93Y,,国金证券(上海奉贤区金碧路证券营业部),金融保险服务;证券公司;证券公司,金汇镇金碧路1950号,95310,121.50575784329703,30.976405960391165,310000.0,上海市,21.0,上海市,310120.0,奉贤区,中国(上海)自由贸易试验区临港新片区,
B001557LUJ,,上海农商银行(邵厂支行),金融保险服务;银行;上海农商银行,四团镇邵厂社区青年路9号,021-57140746,121.75468927639737,30.9089273673177,310000.0,上海市,21.0,上海市,310120.0,奉贤区,中国(上海)自由贸易试验区临港新片区,
B00155900B,,中国邮政储蓄银行(贝港支行),金融保险服务;银行;中国邮政储蓄银行,南桥镇解放西路459号2楼,021-57184240;021-57186392,121.44147389478535,30.913295446186567,310000.0,上海市,21.0,上海市,310120.0,奉贤区,南桥,
B0FFKU6P4G,,中国工商银行(奉贤建材市场店),金融保险服务;银行;中国工商银行,大叶南一路与新奉东三路交叉口西40米,,121.64606315080917,30.986241617904955,310000.0,上海市,21.0,上海市,310120.0,奉贤区,中国(上海)自由贸易试验区临港新片区,
B00155IQUT,,中国邮政储蓄银行(洪庙营业所),金融保险服务;银行;中国邮政储蓄银行,洪庙镇洪运路8号,021-57130555;95580,121.68283860559752,30.925853657176688,310000.0,上海市,21.0,上海市,310120.0,奉贤区,中国(上海)自由贸易试验区临港新片区,
B00155IONM,,五四邮政储蓄,金融保险服务;银行;中国邮政储蓄银行,五四公路1029-51,021-57162555,121.73405327428507,30.86777574200545,310000.0,上海市,21.0,上海市,310120.0,奉贤区,中国(上海)自由贸易试验区临港新片区,
B00155FGFV,,中国邮政储蓄银行(邬桥支行),金融保险服务;银行;中国邮政储蓄银行,邬桥镇安中中路193号,021-57401555;95580,121.39524595575855,30.964132201686713,310000.0,上海市,21.0,上海市,310120.0,奉贤区,,
